header: 
  seq: 6330
  stamp: 
    secs: 1567281057
    nsecs: 4294869508
  frame_id: "gps"
status: 
  status: 0
  service: 3
latitude: 37.8719741
longitude: -122.263973
altitude: 35.285
position_covariance: [6.906384000000001, 0.0, 0.0, 0.0, 6.906384000000001, 0.0, 0.0, 0.0, 22.174680999999996]
position_covariance_type: 2
---
header: 
  seq: 6331
  stamp: 
    secs: 1567281058
    nsecs: 4294869670
  frame_id: "gps"
status: 
  status: 0
  service: 3
latitude: 37.8719744
longitude: -122.2639727
altitude: 35.357
position_covariance: [7.006608999999999, 0.0, 0.0, 0.0, 7.006608999999999, 0.0, 0.0, 0.0, 22.268961000000004]
position_covariance_type: 2
---
header: 
  seq: 6332
  stamp: 
    secs: 1567281059
    nsecs: 4294869833
  frame_id: "gps"
status: 
  status: 0
  service: 3
latitude: 37.8719749
longitude: -122.2639722
altitude: 35.34
position_covariance: [7.134240999999999, 0.0, 0.0, 0.0, 7.134240999999999, 0.0, 0.0, 0.0, 22.496049000000003]
position_covariance_type: 2
---
header: 
  seq: 6333
  stamp: 
    secs: 1567281060
    nsecs: 4294869996
  frame_id: "gps"
status: 
  status: 0
  service: 3
latitude: 37.8719759
longitude: -122.2639674
altitude: 35.141
position_covariance: [7.043716, 0.0, 0.0, 0.0, 7.043716, 0.0, 0.0, 0.0, 22.543504000000002]
position_covariance_type: 2
---
header: 
  seq: 6334
  stamp: 
    secs: 1567281061
    nsecs: 4294870159
  frame_id: "gps"
status: 
  status: 0
  service: 3
latitude: 37.8719788
longitude: -122.2639531
altitude: 35.343
position_covariance: [6.812099999999999, 0.0, 0.0, 0.0, 6.812099999999999, 0.0, 0.0, 0.0, 22.439169]
position_covariance_type: 2
---
header: 
  seq: 6335
  stamp: 
    secs: 1567281062
    nsecs: 4294870322
  frame_id: "gps"
status: 
  status: 0
  service: 3
latitude: 37.8719867
longitude: -122.2639232
altitude: 35.155
position_covariance: [7.091568999999999, 0.0, 0.0, 0.0, 7.091568999999999, 0.0, 0.0, 0.0, 22.819729000000002]
position_covariance_type: 2
---
header: 
  seq: 6336
  stamp: 
    secs: 1567281063
    nsecs: 4294870485
  frame_id: "gps"
status: 
  status: 0
  service: 3
latitude: 37.8719989
longitude: -122.263879
altitude: 34.903
position_covariance: [7.606564, 0.0, 0.0, 0.0, 7.606564, 0.0, 0.0, 0.0, 22.705225]
position_covariance_type: 2
---
header: 
  seq: 6337
  stamp: 
    secs: 1567281064
    nsecs: 4294870647
  frame_id: "gps"
status: 
  status: 0
  service: 3
latitude: 37.872008
longitude: -122.2638216
altitude: 34.779
position_covariance: [8.111104, 0.0, 0.0, 0.0, 8.111104, 0.0, 0.0, 0.0, 23.068808999999998]
position_covariance_type: 2
---
header: 
  seq: 6338
  stamp: 
    secs: 1567281065
    nsecs: 4294870810
  frame_id: "gps"
status: 
  status: 0
  service: 3
latitude: 37.872007
longitude: -122.263757
altitude: 34.788
position_covariance: [8.381025, 0.0, 0.0, 0.0, 8.381025, 0.0, 0.0, 0.0, 23.174596]
position_covariance_type: 2
---
header: 
  seq: 6339
  stamp: 
    secs: 1567281066
    nsecs: 4294870971
  frame_id: "gps"
status: 
  status: 0
  service: 3
latitude: 37.8719995
longitude: -122.2636953
altitude: 35.284
position_covariance: [8.573184, 0.0, 0.0, 0.0, 8.573184, 0.0, 0.0, 0.0, 23.232400000000002]
position_covariance_type: 2
---
header: 
  seq: 6340
  stamp: 
    secs: 1567281067
    nsecs: 4294871132
  frame_id: "gps"
status: 
  status: 0
  service: 3
latitude: 37.8719918
longitude: -122.26364
altitude: 35.818
position_covariance: [8.928144, 0.0, 0.0, 0.0, 8.928144, 0.0, 0.0, 0.0, 24.147395999999997]
position_covariance_type: 2
---
header: 
  seq: 6341
  stamp: 
    secs: 1567281068
    nsecs: 4294871293
  frame_id: "gps"
status: 
  status: 0
  service: 3
latitude: 37.8719944
longitude: -122.2635877
altitude: 36.56
position_covariance: [9.096256, 0.0, 0.0, 0.0, 9.096256, 0.0, 0.0, 0.0, 25.715040999999996]
position_covariance_type: 2
---
header: 
  seq: 6342
  stamp: 
    secs: 1567281069
    nsecs: 4294871453
  frame_id: "gps"
status: 
  status: 0
  service: 3
latitude: 37.872009
longitude: -122.263539
altitude: 37.205
position_covariance: [9.199088999999999, 0.0, 0.0, 0.0, 9.199088999999999, 0.0, 0.0, 0.0, 27.541504000000003]
position_covariance_type: 2
---
header: 
  seq: 6343
  stamp: 
    secs: 1567281070
    nsecs: 4294871613
  frame_id: "gps"
status: 
  status: 0
  service: 3
latitude: 37.8720322
longitude: -122.2634976
altitude: 38.403
position_covariance: [9.678321000000002, 0.0, 0.0, 0.0, 9.678321000000002, 0.0, 0.0, 0.0, 28.847641000000003]
position_covariance_type: 2
---
header: 
  seq: 6344
  stamp: 
    secs: 1567281071
    nsecs: 4294871776
  frame_id: "gps"
status: 
  status: 0
  service: 3
latitude: 37.8720647
longitude: -122.2634657
altitude: 37.998
position_covariance: [9.616201, 0.0, 0.0, 0.0, 9.616201, 0.0, 0.0, 0.0, 28.058208999999998]
position_covariance_type: 2
---
header: 
  seq: 6345
  stamp: 
    secs: 1567281072
    nsecs: 4294871939
  frame_id: "gps"
status: 
  status: 0
  service: 3
latitude: 37.8721044
longitude: -122.263444
altitude: 37.986
position_covariance: [9.290304, 0.0, 0.0, 0.0, 9.290304, 0.0, 0.0, 0.0, 26.512201]
position_covariance_type: 2
---
header: 
  seq: 6346
  stamp: 
    secs: 1567281073
    nsecs: 4294872103
  frame_id: "gps"
status: 
  status: 0
  service: 3
latitude: 37.8721432
longitude: -122.2634342
altitude: 37.667
position_covariance: [8.886360999999999, 0.0, 0.0, 0.0, 8.886360999999999, 0.0, 0.0, 0.0, 25.160256]
position_covariance_type: 2
---
header: 
  seq: 6347
  stamp: 
    secs: 1567281074
    nsecs: 4294872266
  frame_id: "gps"
status: 
  status: 0
  service: 3
latitude: 37.8721801
longitude: -122.2634413
altitude: 37.646
position_covariance: [8.497225, 0.0, 0.0, 0.0, 8.497225, 0.0, 0.0, 0.0, 23.961024999999996]
position_covariance_type: 2
---
header: 
  seq: 6348
  stamp: 
    secs: 1567281075
    nsecs: 4294872429
  frame_id: "gps"
status: 
  status: 0
  service: 3
latitude: 37.8722125
longitude: -122.2634613
altitude: 37.358
position_covariance: [8.116801, 0.0, 0.0, 0.0, 8.116801, 0.0, 0.0, 0.0, 23.213123999999997]
position_covariance_type: 2
---
header: 
  seq: 6349
  stamp: 
    secs: 1567281076
    nsecs: 4294872592
  frame_id: "gps"
status: 
  status: 0
  service: 3
latitude: 37.8722394
longitude: -122.2634896
altitude: 37.59
position_covariance: [7.733961000000001, 0.0, 0.0, 0.0, 7.733961000000001, 0.0, 0.0, 0.0, 23.030401000000005]
position_covariance_type: 2
---
header: 
  seq: 6350
  stamp: 
    secs: 1567281077
    nsecs: 4294872754
  frame_id: "gps"
status: 
  status: 0
  service: 3
latitude: 37.872259
longitude: -122.263524
altitude: 37.613
position_covariance: [7.496644, 0.0, 0.0, 0.0, 7.496644, 0.0, 0.0, 0.0, 21.696964000000005]
position_covariance_type: 2
---
header: 
  seq: 6351
  stamp: 
    secs: 1567281078
    nsecs: 4294872918
  frame_id: "gps"
status: 
  status: 0
  service: 3
latitude: 37.8722718
longitude: -122.263564
altitude: 37.487
position_covariance: [7.2360999999999995, 0.0, 0.0, 0.0, 7.2360999999999995, 0.0, 0.0, 0.0, 21.123216]
position_covariance_type: 2
---
header: 
  seq: 6352
  stamp: 
    secs: 1567281079
    nsecs: 4294873080
  frame_id: "gps"
status: 
  status: 0
  service: 3
latitude: 37.8722752
longitude: -122.2636063
altitude: 37.625
position_covariance: [6.791236, 0.0, 0.0, 0.0, 6.791236, 0.0, 0.0, 0.0, 19.669224999999997]
position_covariance_type: 2
---
header: 
  seq: 6353
  stamp: 
    secs: 1567281080
    nsecs: 4294873244
  frame_id: "gps"
status: 
  status: 0
  service: 3
latitude: 37.8722718
longitude: -122.2636467
altitude: 37.051
position_covariance: [6.461763999999999, 0.0, 0.0, 0.0, 6.461763999999999, 0.0, 0.0, 0.0, 18.879025]
position_covariance_type: 2
---
header: 
  seq: 6354
  stamp: 
    secs: 1567281081
    nsecs: 4294873408
  frame_id: "gps"
status: 
  status: 0
  service: 3
latitude: 37.8722585
longitude: -122.2636913
altitude: 36.596
position_covariance: [6.125625, 0.0, 0.0, 0.0, 6.125625, 0.0, 0.0, 0.0, 18.122048999999997]
position_covariance_type: 2
---
header: 
  seq: 6355
  stamp: 
    secs: 1567281082
    nsecs: 4294873571
  frame_id: "gps"
status: 
  status: 0
  service: 3
latitude: 37.8722342
longitude: -122.2637308
altitude: 36.47
position_covariance: [5.779216, 0.0, 0.0, 0.0, 5.779216, 0.0, 0.0, 0.0, 17.547721]
position_covariance_type: 2
---
header: 
  seq: 6356
  stamp: 
    secs: 1567281083
    nsecs: 4294873733
  frame_id: "gps"
status: 
  status: 0
  service: 3
latitude: 37.8722028
longitude: -122.2637618
altitude: 36.385
position_covariance: [5.607423999999999, 0.0, 0.0, 0.0, 5.607423999999999, 0.0, 0.0, 0.0, 17.081689]
position_covariance_type: 2
---
header: 
  seq: 6357
  stamp: 
    secs: 1567281084
    nsecs: 4294873896
  frame_id: "gps"
status: 
  status: 0
  service: 3
latitude: 37.8721633
longitude: -122.26378
altitude: 36.205
position_covariance: [5.702544, 0.0, 0.0, 0.0, 5.702544, 0.0, 0.0, 0.0, 16.999129000000003]
position_covariance_type: 2
---
header: 
  seq: 6358
  stamp: 
    secs: 1567281085
    nsecs: 4294874058
  frame_id: "gps"
status: 
  status: 0
  service: 3
latitude: 37.8721198
longitude: -122.2637792
altitude: 36.293
position_covariance: [6.0516, 0.0, 0.0, 0.0, 6.0516, 0.0, 0.0, 0.0, 17.305600000000002]
position_covariance_type: 2
---
header: 
  seq: 6359
  stamp: 
    secs: 1567281086
    nsecs: 4294874221
  frame_id: "gps"
status: 
  status: 0
  service: 3
latitude: 37.8720774
longitude: -122.263758
altitude: 36.017
position_covariance: [6.4262250000000005, 0.0, 0.0, 0.0, 6.4262250000000005, 0.0, 0.0, 0.0, 16.924996]
position_covariance_type: 2
---
header: 
  seq: 6360
  stamp: 
    secs: 1567281087
    nsecs: 4294874382
  frame_id: "gps"
status: 
  status: 0
  service: 3
latitude: 37.8720421
longitude: -122.2637171
altitude: 36.278
position_covariance: [6.760000000000001, 0.0, 0.0, 0.0, 6.760000000000001, 0.0, 0.0, 0.0, 17.413929]
position_covariance_type: 2
---
header: 
  seq: 6361
  stamp: 
    secs: 1567281088
    nsecs: 4294874545
  frame_id: "gps"
status: 
  status: 0
  service: 3
latitude: 37.8720156
longitude: -122.2636689
altitude: 36.29
position_covariance: [7.2360999999999995, 0.0, 0.0, 0.0, 7.2360999999999995, 0.0, 0.0, 0.0, 17.892900000000004]
position_covariance_type: 2
---
header: 
  seq: 6362
  stamp: 
    secs: 1567281089
    nsecs: 4294874706
  frame_id: "gps"
status: 
  status: 0
  service: 3
latitude: 37.8720072
longitude: -122.2636109
altitude: 37.046
position_covariance: [7.5570010000000005, 0.0, 0.0, 0.0, 7.5570010000000005, 0.0, 0.0, 0.0, 19.000881]
position_covariance_type: 2
---
header: 
  seq: 6363
  stamp: 
    secs: 1567281090
    nsecs: 4294874866
  frame_id: "gps"
status: 
  status: 0
  service: 3
latitude: 37.8720187
longitude: -122.263551
altitude: 37.712
position_covariance: [7.851204, 0.0, 0.0, 0.0, 7.851204, 0.0, 0.0, 0.0, 20.602520999999996]
position_covariance_type: 2
---
header: 
  seq: 6364
  stamp: 
    secs: 1567281091
    nsecs: 4294875028
  frame_id: "gps"
status: 
  status: 0
  service: 3
latitude: 37.8720378
longitude: -122.2634991
altitude: 38.13
position_covariance: [8.145316000000001, 0.0, 0.0, 0.0, 8.145316000000001, 0.0, 0.0, 0.0, 22.005481]
position_covariance_type: 2
---
header: 
  seq: 6365
  stamp: 
    secs: 1567281092
    nsecs: 4294875188
  frame_id: "gps"
status: 
  status: 0
  service: 3
latitude: 37.8720761
longitude: -122.2634589
altitude: 38.959
position_covariance: [8.386816, 0.0, 0.0, 0.0, 8.386816, 0.0, 0.0, 0.0, 22.391824000000003]
position_covariance_type: 2
---
header: 
  seq: 6366
  stamp: 
    secs: 1567281093
    nsecs: 4294875352
  frame_id: "gps"
status: 
  status: 0
  service: 3
latitude: 37.8721228
longitude: -122.2634352
altitude: 38.482
position_covariance: [8.300161, 0.0, 0.0, 0.0, 8.300161, 0.0, 0.0, 0.0, 22.591009]
position_covariance_type: 2
---
header: 
  seq: 6367
  stamp: 
    secs: 1567281094
    nsecs: 4294875515
  frame_id: "gps"
status: 
  status: 0
  service: 3
latitude: 37.8721713
longitude: -122.2634311
altitude: 38.378
position_covariance: [7.929855999999999, 0.0, 0.0, 0.0, 7.929855999999999, 0.0, 0.0, 0.0, 21.921124000000002]
position_covariance_type: 2
---
header: 
  seq: 6368
  stamp: 
    secs: 1567281095
    nsecs: 4294875678
  frame_id: "gps"
status: 
  status: 0
  service: 3
latitude: 37.8722165
longitude: -122.2634472
altitude: 38.379
position_covariance: [7.756225000000001, 0.0, 0.0, 0.0, 7.756225000000001, 0.0, 0.0, 0.0, 21.270544]
position_covariance_type: 2
---
header: 
  seq: 6369
  stamp: 
    secs: 1567281096
    nsecs: 4294875841
  frame_id: "gps"
status: 
  status: 0
  service: 3
latitude: 37.8722521
longitude: -122.2634811
altitude: 38.382
position_covariance: [7.628644, 0.0, 0.0, 0.0, 7.628644, 0.0, 0.0, 0.0, 21.242881]
position_covariance_type: 2
---
header: 
  seq: 6370
  stamp: 
    secs: 1567281097
    nsecs: 4294876004
  frame_id: "gps"
status: 
  status: 0
  service: 3
latitude: 37.8722752
longitude: -122.2635306
altitude: 38.215
position_covariance: [7.628644, 0.0, 0.0, 0.0, 7.628644, 0.0, 0.0, 0.0, 20.994723999999998]
position_covariance_type: 2
---
header: 
  seq: 6371
  stamp: 
    secs: 1567281098
    nsecs: 4294876168
  frame_id: "gps"
status: 
  status: 0
  service: 3
latitude: 37.8722854
longitude: -122.2635913
altitude: 37.705
position_covariance: [7.579009000000001, 0.0, 0.0, 0.0, 7.579009000000001, 0.0, 0.0, 0.0, 20.322064]
position_covariance_type: 2
---
header: 
  seq: 6372
  stamp: 
    secs: 1567281099
    nsecs: 4294876331
  frame_id: "gps"
status: 
  status: 0
  service: 3
latitude: 37.8722766
longitude: -122.2636544
altitude: 37.304
position_covariance: [7.209225, 0.0, 0.0, 0.0, 7.209225, 0.0, 0.0, 0.0, 19.651488999999998]
position_covariance_type: 2
---
header: 
  seq: 6373
  stamp: 
    secs: 1567281100
    nsecs: 4294876495
  frame_id: "gps"
status: 
  status: 0
  service: 3
latitude: 37.8722528
longitude: -122.2637107
altitude: 36.676
position_covariance: [6.666723999999999, 0.0, 0.0, 0.0, 6.666723999999999, 0.0, 0.0, 0.0, 18.983449]
position_covariance_type: 2
---
header: 
  seq: 6374
  stamp: 
    secs: 1567281101
    nsecs: 4294876657
  frame_id: "gps"
status: 
  status: 0
  service: 3
latitude: 37.8722173
longitude: -122.2637603
altitude: 36.542
position_covariance: [6.395841, 0.0, 0.0, 0.0, 6.395841, 0.0, 0.0, 0.0, 18.584721]
position_covariance_type: 2
---
header: 
  seq: 6375
  stamp: 
    secs: 1567281102
    nsecs: 4294876820
  frame_id: "gps"
status: 
  status: 0
  service: 3
latitude: 37.8721767
longitude: -122.2638094
altitude: 36.218
position_covariance: [6.365529, 0.0, 0.0, 0.0, 6.365529, 0.0, 0.0, 0.0, 18.913801000000003]
position_covariance_type: 2
---
header: 
  seq: 6376
  stamp: 
    secs: 1567281103
    nsecs: 4294876983
  frame_id: "gps"
status: 
  status: 0
  service: 3
latitude: 37.872141
longitude: -122.2638655
altitude: 35.931
position_covariance: [6.579225, 0.0, 0.0, 0.0, 6.579225, 0.0, 0.0, 0.0, 19.404025]
position_covariance_type: 2
---
header: 
  seq: 6377
  stamp: 
    secs: 1567281104
    nsecs: 4294877146
  frame_id: "gps"
status: 
  status: 0
  service: 3
latitude: 37.8721146
longitude: -122.2639325
altitude: 35.653
position_covariance: [6.832996, 0.0, 0.0, 0.0, 6.832996, 0.0, 0.0, 0.0, 19.918369000000002]
position_covariance_type: 2
---
header: 
  seq: 6378
  stamp: 
    secs: 1567281105
    nsecs: 4294877307
  frame_id: "gps"
status: 
  status: 0
  service: 3
latitude: 37.872093
longitude: -122.2640085
altitude: 35.941
position_covariance: [6.7860249999999995, 0.0, 0.0, 0.0, 6.7860249999999995, 0.0, 0.0, 0.0, 20.232004000000003]
position_covariance_type: 2
---
header: 
  seq: 6379
  stamp: 
    secs: 1567281106
    nsecs: 4294877470
  frame_id: "gps"
status: 
  status: 0
  service: 3
latitude: 37.8720697
longitude: -122.2640874
altitude: 35.617
position_covariance: [6.7860249999999995, 0.0, 0.0, 0.0, 6.7860249999999995, 0.0, 0.0, 0.0, 20.666116000000002]
position_covariance_type: 2
---
header: 
  seq: 6380
  stamp: 
    secs: 1567281107
    nsecs: 4294877632
  frame_id: "gps"
status: 
  status: 0
  service: 3
latitude: 37.8720472
longitude: -122.2641679
altitude: 35.339
position_covariance: [6.806881, 0.0, 0.0, 0.0, 6.806881, 0.0, 0.0, 0.0, 21.316689]
position_covariance_type: 2
---
header: 
  seq: 6381
  stamp: 
    secs: 1567281108
    nsecs: 4294877793
  frame_id: "gps"
status: 
  status: 0
  service: 3
latitude: 37.872024
longitude: -122.2642533
altitude: 35.521
position_covariance: [6.770403999999999, 0.0, 0.0, 0.0, 6.770403999999999, 0.0, 0.0, 0.0, 21.855625]
position_covariance_type: 2
---
header: 
  seq: 6382
  stamp: 
    secs: 1567281109
    nsecs: 4294877955
  frame_id: "gps"
status: 
  status: 0
  service: 3
latitude: 37.8720019
longitude: -122.264344
altitude: 35.547
position_covariance: [6.718464, 0.0, 0.0, 0.0, 6.718464, 0.0, 0.0, 0.0, 22.810176]
position_covariance_type: 2
---
header: 
  seq: 6383
  stamp: 
    secs: 1567281110
    nsecs: 4294878118
  frame_id: "gps"
status: 
  status: 0
  service: 3
latitude: 37.8719831
longitude: -122.2644362
altitude: 35.238
position_covariance: [6.754801000000001, 0.0, 0.0, 0.0, 6.754801000000001, 0.0, 0.0, 0.0, 23.658496]
position_covariance_type: 2
---
header: 
  seq: 6384
  stamp: 
    secs: 1567281111
    nsecs: 4294878280
  frame_id: "gps"
status: 
  status: 0
  service: 3
latitude: 37.8719685
longitude: -122.2645217
altitude: 35.345
position_covariance: [6.739216000000001, 0.0, 0.0, 0.0, 6.739216000000001, 0.0, 0.0, 0.0, 25.120143999999996]
position_covariance_type: 2
---
header: 
  seq: 6385
  stamp: 
    secs: 1567281112
    nsecs: 4294878441
  frame_id: "gps"
status: 
  status: 0
  service: 3
latitude: 37.87196
longitude: -122.2645899
altitude: 35.543
position_covariance: [6.661561, 0.0, 0.0, 0.0, 6.661561, 0.0, 0.0, 0.0, 26.071236]
position_covariance_type: 2
---
header: 
  seq: 6386
  stamp: 
    secs: 1567281113
    nsecs: 4294878603
  frame_id: "gps"
status: 
  status: 0
  service: 3
latitude: 37.8719557
longitude: -122.2646459
altitude: 35.18
position_covariance: [6.640929, 0.0, 0.0, 0.0, 6.640929, 0.0, 0.0, 0.0, 26.770276000000003]
position_covariance_type: 2
---
header: 
  seq: 6387
  stamp: 
    secs: 1567281114
    nsecs: 4294878766
  frame_id: "gps"
status: 
  status: 0
  service: 3
latitude: 37.8719545
longitude: -122.2646983
altitude: 34.692
position_covariance: [6.5946240000000005, 0.0, 0.0, 0.0, 6.5946240000000005, 0.0, 0.0, 0.0, 26.306640999999996]
position_covariance_type: 2
---
header: 
  seq: 6388
  stamp: 
    secs: 1567281115
    nsecs: 4294878929
  frame_id: "gps"
status: 
  status: 0
  service: 3
latitude: 37.8719534
longitude: -122.2647567
altitude: 34.524
position_covariance: [6.625475999999999, 0.0, 0.0, 0.0, 6.625475999999999, 0.0, 0.0, 0.0, 26.275876000000004]
position_covariance_type: 2
---
header: 
  seq: 6389
  stamp: 
    secs: 1567281116
    nsecs: 4294879091
  frame_id: "gps"
status: 
  status: 0
  service: 3
latitude: 37.8719506
longitude: -122.2648209
altitude: 34.59
position_covariance: [6.901128999999999, 0.0, 0.0, 0.0, 6.901128999999999, 0.0, 0.0, 0.0, 27.237961000000002]
position_covariance_type: 2
---
header: 
  seq: 6390
  stamp: 
    secs: 1567281117
    nsecs: 4294879252
  frame_id: "gps"
status: 
  status: 0
  service: 3
latitude: 37.8719472
longitude: -122.2648843
altitude: 34.872
position_covariance: [7.112888999999999, 0.0, 0.0, 0.0, 7.112888999999999, 0.0, 0.0, 0.0, 26.009999999999998]
position_covariance_type: 2
---
header: 
  seq: 6391
  stamp: 
    secs: 1567281118
    nsecs: 4294879413
  frame_id: "gps"
status: 
  status: 0
  service: 3
latitude: 37.8719477
longitude: -122.2649484
altitude: 35.127
position_covariance: [7.102225, 0.0, 0.0, 0.0, 7.102225, 0.0, 0.0, 0.0, 26.183689]
position_covariance_type: 2
---
header: 
  seq: 6392
  stamp: 
    secs: 1567281119
    nsecs: 4294879575
  frame_id: "gps"
status: 
  status: 0
  service: 3
latitude: 37.8719551
longitude: -122.2650103
altitude: 35.38
position_covariance: [6.911641, 0.0, 0.0, 0.0, 6.911641, 0.0, 0.0, 0.0, 25.775928999999998]
position_covariance_type: 2
---
header: 
  seq: 6393
  stamp: 
    secs: 1567281120
    nsecs: 4294879736
  frame_id: "gps"
status: 
  status: 0
  service: 3
latitude: 37.8719758
longitude: -122.2650671
altitude: 35.786
position_covariance: [6.687396, 0.0, 0.0, 0.0, 6.687396, 0.0, 0.0, 0.0, 24.820324000000003]
position_covariance_type: 2
---
header: 
  seq: 6394
  stamp: 
    secs: 1567281121
    nsecs: 4294879897
  frame_id: "gps"
status: 
  status: 0
  service: 3
latitude: 37.8720115
longitude: -122.2651151
altitude: 35.965
position_covariance: [6.446521000000001, 0.0, 0.0, 0.0, 6.446521000000001, 0.0, 0.0, 0.0, 24.561936000000003]
position_covariance_type: 2
---
header: 
  seq: 6395
  stamp: 
    secs: 1567281122
    nsecs: 4294880060
  frame_id: "gps"
status: 
  status: 0
  service: 3
latitude: 37.8720581
longitude: -122.2651551
altitude: 35.702
position_covariance: [6.130576, 0.0, 0.0, 0.0, 6.130576, 0.0, 0.0, 0.0, 24.235929]
position_covariance_type: 2
---
header: 
  seq: 6396
  stamp: 
    secs: 1567281123
    nsecs: 4294880222
  frame_id: "gps"
status: 
  status: 0
  service: 3
latitude: 37.8721121
longitude: -122.2651965
altitude: 35.569
position_covariance: [5.938968999999999, 0.0, 0.0, 0.0, 5.938968999999999, 0.0, 0.0, 0.0, 24.860196]
position_covariance_type: 2
---
header: 
  seq: 6397
  stamp: 
    secs: 1567281124
    nsecs: 4294880384
  frame_id: "gps"
status: 
  status: 0
  service: 3
latitude: 37.8721682
longitude: -122.2652422
altitude: 35.159
position_covariance: [5.832225, 0.0, 0.0, 0.0, 5.832225, 0.0, 0.0, 0.0, 25.704900000000002]
position_covariance_type: 2
---
header: 
  seq: 6398
  stamp: 
    secs: 1567281125
    nsecs: 4294880546
  frame_id: "gps"
status: 
  status: 0
  service: 3
latitude: 37.8722244
longitude: -122.2652948
altitude: 34.603
position_covariance: [5.740816, 0.0, 0.0, 0.0, 5.740816, 0.0, 0.0, 0.0, 26.832399999999996]
position_covariance_type: 2
---
header: 
  seq: 6399
  stamp: 
    secs: 1567281126
    nsecs: 4294880709
  frame_id: "gps"
status: 
  status: 0
  service: 3
latitude: 37.8722808
longitude: -122.2653569
altitude: 33.456
position_covariance: [5.673924, 0.0, 0.0, 0.0, 5.673924, 0.0, 0.0, 0.0, 27.541504000000003]
position_covariance_type: 2
---
header: 
  seq: 6400
  stamp: 
    secs: 1567281127
    nsecs: 4294880873
  frame_id: "gps"
status: 
  status: 0
  service: 3
latitude: 37.8723359
longitude: -122.265428
altitude: 32.443
position_covariance: [5.626384, 0.0, 0.0, 0.0, 5.626384, 0.0, 0.0, 0.0, 26.873856]
position_covariance_type: 2
---
header: 
  seq: 6401
  stamp: 
    secs: 1567281128
    nsecs: 4294881035
  frame_id: "gps"
status: 
  status: 0
  service: 3
latitude: 37.8723871
longitude: -122.265503
altitude: 31.53
position_covariance: [5.373124000000001, 0.0, 0.0, 0.0, 5.373124000000001, 0.0, 0.0, 0.0, 25.492401000000005]
position_covariance_type: 2
---
header: 
  seq: 6402
  stamp: 
    secs: 1567281129
    nsecs: 4294881198
  frame_id: "gps"
status: 
  status: 0
  service: 3
latitude: 37.8724333
longitude: -122.2655793
altitude: 30.838
position_covariance: [5.116644, 0.0, 0.0, 0.0, 5.116644, 0.0, 0.0, 0.0, 24.196560999999996]
position_covariance_type: 2
---
header: 
  seq: 6403
  stamp: 
    secs: 1567281130
    nsecs: 4294881361
  frame_id: "gps"
status: 
  status: 0
  service: 3
latitude: 37.8724698
longitude: -122.2656567
altitude: 29.919
position_covariance: [4.888520999999999, 0.0, 0.0, 0.0, 4.888520999999999, 0.0, 0.0, 0.0, 23.512801000000003]
position_covariance_type: 2
---
header: 
  seq: 6404
  stamp: 
    secs: 1567281131
    nsecs: 4294881523
  frame_id: "gps"
status: 
  status: 0
  service: 3
latitude: 37.8724943
longitude: -122.2657338
altitude: 29.386
position_covariance: [4.7262759999999995, 0.0, 0.0, 0.0, 4.7262759999999995, 0.0, 0.0, 0.0, 23.377225]
position_covariance_type: 2
---
header: 
  seq: 6405
  stamp: 
    secs: 1567281132
    nsecs: 4294881685
  frame_id: "gps"
status: 
  status: 0
  service: 3
latitude: 37.8725055
longitude: -122.2658093
altitude: 29.173
position_covariance: [4.571044, 0.0, 0.0, 0.0, 4.571044, 0.0, 0.0, 0.0, 23.222761]
position_covariance_type: 2
---
header: 
  seq: 6406
  stamp: 
    secs: 1567281133
    nsecs: 4294881848
  frame_id: "gps"
status: 
  status: 0
  service: 3
latitude: 37.8725054
longitude: -122.2658816
altitude: 28.534
position_covariance: [4.414201, 0.0, 0.0, 0.0, 4.414201, 0.0, 0.0, 0.0, 22.686169]
position_covariance_type: 2
---
header: 
  seq: 6407
  stamp: 
    secs: 1567281134
    nsecs: 4294882011
  frame_id: "gps"
status: 
  status: 0
  service: 3
latitude: 37.8724932
longitude: -122.265951
altitude: 27.988
position_covariance: [4.334724, 0.0, 0.0, 0.0, 4.334724, 0.0, 0.0, 0.0, 22.146436000000005]
position_covariance_type: 2
---
header: 
  seq: 6408
  stamp: 
    secs: 1567281135
    nsecs: 4294882174
  frame_id: "gps"
status: 
  status: 0
  service: 3
latitude: 37.8724679
longitude: -122.2660141
altitude: 27.589
position_covariance: [4.2394810000000005, 0.0, 0.0, 0.0, 4.2394810000000005, 0.0, 0.0, 0.0, 20.720703999999998]
position_covariance_type: 2
---
header: 
  seq: 6409
  stamp: 
    secs: 1567281136
    nsecs: 4294882337
  frame_id: "gps"
status: 
  status: 0
  service: 3
latitude: 37.8724317
longitude: -122.2660659
altitude: 27.237
position_covariance: [4.227136, 0.0, 0.0, 0.0, 4.227136, 0.0, 0.0, 0.0, 20.394256]
position_covariance_type: 2
---
header: 
  seq: 6410
  stamp: 
    secs: 1567281137
    nsecs: 4294882500
  frame_id: "gps"
status: 
  status: 0
  service: 3
latitude: 37.8723885
longitude: -122.2661017
altitude: 27.086
position_covariance: [4.334724, 0.0, 0.0, 0.0, 4.334724, 0.0, 0.0, 0.0, 20.259001]
position_covariance_type: 2
---
header: 
  seq: 6411
  stamp: 
    secs: 1567281138
    nsecs: 4294882662
  frame_id: "gps"
status: 
  status: 0
  service: 3
latitude: 37.8723406
longitude: -122.2661178
altitude: 26.995
position_covariance: [4.473225000000001, 0.0, 0.0, 0.0, 4.473225000000001, 0.0, 0.0, 0.0, 19.900521]
position_covariance_type: 2
---
header: 
  seq: 6412
  stamp: 
    secs: 1567281139
    nsecs: 4294882824
  frame_id: "gps"
status: 
  status: 0
  service: 3
latitude: 37.8722858
longitude: -122.2661171
altitude: 27.146
position_covariance: [4.5796, 0.0, 0.0, 0.0, 4.5796, 0.0, 0.0, 0.0, 19.589476]
position_covariance_type: 2
---
header: 
  seq: 6413
  stamp: 
    secs: 1567281140
    nsecs: 4294882987
  frame_id: "gps"
status: 
  status: 0
  service: 3
latitude: 37.8722237
longitude: -122.2661099
altitude: 27.087
position_covariance: [4.674244, 0.0, 0.0, 0.0, 4.674244, 0.0, 0.0, 0.0, 19.412836]
position_covariance_type: 2
---
header: 
  seq: 6414
  stamp: 
    secs: 1567281141
    nsecs: 4294883150
  frame_id: "gps"
status: 
  status: 0
  service: 3
latitude: 37.8721537
longitude: -122.2661011
altitude: 27.028
position_covariance: [4.826809, 0.0, 0.0, 0.0, 4.826809, 0.0, 0.0, 0.0, 19.236996]
position_covariance_type: 2
---
header: 
  seq: 6415
  stamp: 
    secs: 1567281142
    nsecs: 4294883313
  frame_id: "gps"
status: 
  status: 0
  service: 3
latitude: 37.872075
longitude: -122.2660925
altitude: 26.56
position_covariance: [5.080516, 0.0, 0.0, 0.0, 5.080516, 0.0, 0.0, 0.0, 19.686969]
position_covariance_type: 2
---
header: 
  seq: 6416
  stamp: 
    secs: 1567281143
    nsecs: 4294883475
  frame_id: "gps"
status: 
  status: 0
  service: 3
latitude: 37.8719894
longitude: -122.2660839
altitude: 26.747
position_covariance: [5.322248999999999, 0.0, 0.0, 0.0, 5.322248999999999, 0.0, 0.0, 0.0, 20.223008999999998]
position_covariance_type: 2
---
header: 
  seq: 6417
  stamp: 
    secs: 1567281144
    nsecs: 4294883637
  frame_id: "gps"
status: 
  status: 0
  service: 3
latitude: 37.8718994
longitude: -122.2660738
altitude: 27.02
position_covariance: [5.513103999999999, 0.0, 0.0, 0.0, 5.513103999999999, 0.0, 0.0, 0.0, 20.205025000000003]
position_covariance_type: 2
---
header: 
  seq: 6418
  stamp: 
    secs: 1567281145
    nsecs: 4294883799
  frame_id: "gps"
status: 
  status: 0
  service: 3
latitude: 37.8718074
longitude: -122.2660618
altitude: 27.02
position_covariance: [5.7504040000000005, 0.0, 0.0, 0.0, 5.7504040000000005, 0.0, 0.0, 0.0, 20.958084000000003]
position_covariance_type: 2
---
header: 
  seq: 6419
  stamp: 
    secs: 1567281146
    nsecs: 4294883961
  frame_id: "gps"
status: 
  status: 0
  service: 3
latitude: 37.8717131
longitude: -122.2660512
altitude: 27.213
position_covariance: [5.958480999999999, 0.0, 0.0, 0.0, 5.958480999999999, 0.0, 0.0, 0.0, 21.270544]
position_covariance_type: 2
---
header: 
  seq: 6420
  stamp: 
    secs: 1567281147
    nsecs: 4294884124
  frame_id: "gps"
status: 
  status: 0
  service: 3
latitude: 37.8716176
longitude: -122.2660421
altitude: 27.091
position_covariance: [6.135528999999999, 0.0, 0.0, 0.0, 6.135528999999999, 0.0, 0.0, 0.0, 21.594609000000002]
position_covariance_type: 2
---
header: 
  seq: 6421
  stamp: 
    secs: 1567281148
    nsecs: 4294884286
  frame_id: "gps"
status: 
  status: 0
  service: 3
latitude: 37.8715231
longitude: -122.266033
altitude: 27.024
position_covariance: [6.280035999999999, 0.0, 0.0, 0.0, 6.280035999999999, 0.0, 0.0, 0.0, 21.855625]
position_covariance_type: 2
---
header: 
  seq: 6422
  stamp: 
    secs: 1567281149
    nsecs: 4294884449
  frame_id: "gps"
status: 
  status: 0
  service: 3
latitude: 37.8714305
longitude: -122.2660257
altitude: 26.644
position_covariance: [6.1652890000000005, 0.0, 0.0, 0.0, 6.1652890000000005, 0.0, 0.0, 0.0, 21.215235999999997]
position_covariance_type: 2
---
header: 
  seq: 6423
  stamp: 
    secs: 1567281150
    nsecs: 4294884612
  frame_id: "gps"
status: 
  status: 0
  service: 3
latitude: 37.8713386
longitude: -122.2660189
altitude: 26.126
position_covariance: [5.914624, 0.0, 0.0, 0.0, 5.914624, 0.0, 0.0, 0.0, 20.584369]
position_covariance_type: 2
---
header: 
  seq: 6424
  stamp: 
    secs: 1567281151
    nsecs: 4294884774
  frame_id: "gps"
status: 
  status: 0
  service: 3
latitude: 37.8712462
longitude: -122.266008
altitude: 26.061
position_covariance: [5.688224999999999, 0.0, 0.0, 0.0, 5.688224999999999, 0.0, 0.0, 0.0, 19.254544]
position_covariance_type: 2
---
header: 
  seq: 6425
  stamp: 
    secs: 1567281152
    nsecs: 4294884936
  frame_id: "gps"
status: 
  status: 0
  service: 3
latitude: 37.8711558
longitude: -122.2659939
altitude: 25.636
position_covariance: [5.531903999999999, 0.0, 0.0, 0.0, 5.531903999999999, 0.0, 0.0, 0.0, 18.636489]
position_covariance_type: 2
---
header: 
  seq: 6426
  stamp: 
    secs: 1567281153
    nsecs: 4294885099
  frame_id: "gps"
status: 
  status: 0
  service: 3
latitude: 37.871071
longitude: -122.2659745
altitude: 25.167
position_covariance: [5.3824, 0.0, 0.0, 0.0, 5.3824, 0.0, 0.0, 0.0, 18.003049000000004]
position_covariance_type: 2
---
header: 
  seq: 6427
  stamp: 
    secs: 1567281154
    nsecs: 4294885261
  frame_id: "gps"
status: 
  status: 0
  service: 3
latitude: 37.8709918
longitude: -122.2659533
altitude: 24.642
position_covariance: [5.271615999999999, 0.0, 0.0, 0.0, 5.271615999999999, 0.0, 0.0, 0.0, 18.326960999999997]
position_covariance_type: 2
---
header: 
  seq: 6428
  stamp: 
    secs: 1567281155
    nsecs: 4294885423
  frame_id: "gps"
status: 
  status: 0
  service: 3
latitude: 37.8709179
longitude: -122.2659367
altitude: 24.401
position_covariance: [5.267024999999999, 0.0, 0.0, 0.0, 5.267024999999999, 0.0, 0.0, 0.0, 19.088161]
position_covariance_type: 2
---
header: 
  seq: 6429
  stamp: 
    secs: 1567281156
    nsecs: 4294885586
  frame_id: "gps"
status: 
  status: 0
  service: 3
latitude: 37.8708503
longitude: -122.2659246
altitude: 24.005
position_covariance: [5.289999999999999, 0.0, 0.0, 0.0, 5.289999999999999, 0.0, 0.0, 0.0, 19.784704000000005]
position_covariance_type: 2
---
header: 
  seq: 6430
  stamp: 
    secs: 1567281157
    nsecs: 4294885749
  frame_id: "gps"
status: 
  status: 0
  service: 3
latitude: 37.8707926
longitude: -122.2659155
altitude: 23.436
position_covariance: [5.303808999999999, 0.0, 0.0, 0.0, 5.303808999999999, 0.0, 0.0, 0.0, 20.6116]
position_covariance_type: 2
---
header: 
  seq: 6431
  stamp: 
    secs: 1567281158
    nsecs: 4294885911
  frame_id: "gps"
status: 
  status: 0
  service: 3
latitude: 37.8707504
longitude: -122.2659089
altitude: 23.305
position_covariance: [5.317636, 0.0, 0.0, 0.0, 5.317636, 0.0, 0.0, 0.0, 21.381375999999996]
position_covariance_type: 2
---
header: 
  seq: 6432
  stamp: 
    secs: 1567281159
    nsecs: 4294886074
  frame_id: "gps"
status: 
  status: 0
  service: 3
latitude: 37.8707249
longitude: -122.2659041
altitude: 22.822
position_covariance: [5.326864, 0.0, 0.0, 0.0, 5.326864, 0.0, 0.0, 0.0, 21.930488999999998]
position_covariance_type: 2
---
header: 
  seq: 6433
  stamp: 
    secs: 1567281160
    nsecs: 4294886237
  frame_id: "gps"
status: 
  status: 0
  service: 3
latitude: 37.8707125
longitude: -122.2659007
altitude: 22.474
position_covariance: [5.326864, 0.0, 0.0, 0.0, 5.326864, 0.0, 0.0, 0.0, 22.572001000000004]
position_covariance_type: 2
---
header: 
  seq: 6434
  stamp: 
    secs: 1567281161
    nsecs: 4294886400
  frame_id: "gps"
status: 
  status: 0
  service: 3
latitude: 37.8707096
longitude: -122.2659007
altitude: 22.26
position_covariance: [5.276209000000001, 0.0, 0.0, 0.0, 5.276209000000001, 0.0, 0.0, 0.0, 22.515025]
position_covariance_type: 2
---
header: 
  seq: 6435
  stamp: 
    secs: 1567281162
    nsecs: 4294886562
  frame_id: "gps"
status: 
  status: 0
  service: 3
latitude: 37.8707091
longitude: -122.2659007
altitude: 22.194
position_covariance: [5.212089, 0.0, 0.0, 0.0, 5.212089, 0.0, 0.0, 0.0, 22.458121]
position_covariance_type: 2
---
header: 
  seq: 6436
  stamp: 
    secs: 1567281163
    nsecs: 4294886723
  frame_id: "gps"
status: 
  status: 0
  service: 3
latitude: 37.8707079
longitude: -122.2659011
altitude: 22.476
position_covariance: [5.148361, 0.0, 0.0, 0.0, 5.148361, 0.0, 0.0, 0.0, 22.231225]
position_covariance_type: 2
---
header: 
  seq: 6437
  stamp: 
    secs: 1567281164
    nsecs: 4294886884
  frame_id: "gps"
status: 
  status: 0
  service: 3
latitude: 37.8707077
longitude: -122.265902
altitude: 22.758
position_covariance: [5.076009000000001, 0.0, 0.0, 0.0, 5.076009000000001, 0.0, 0.0, 0.0, 22.024248999999998]
position_covariance_type: 2
---
header: 
  seq: 6438
  stamp: 
    secs: 1567281165
    nsecs: 4294887044
  frame_id: "gps"
status: 
  status: 0
  service: 3
latitude: 37.8707075
longitude: -122.2659026
altitude: 23.238
position_covariance: [5.026564, 0.0, 0.0, 0.0, 5.026564, 0.0, 0.0, 0.0, 21.883684]
position_covariance_type: 2
---
header: 
  seq: 6439
  stamp: 
    secs: 1567281166
    nsecs: 4294887205
  frame_id: "gps"
status: 
  status: 0
  service: 3
latitude: 37.8707078
longitude: -122.2659033
altitude: 23.532
position_covariance: [4.990756, 0.0, 0.0, 0.0, 4.990756, 0.0, 0.0, 0.0, 21.743569]
position_covariance_type: 2
---
header: 
  seq: 6440
  stamp: 
    secs: 1567281167
    nsecs: 4294887367
  frame_id: "gps"
status: 
  status: 0
  service: 3
latitude: 37.8707081
longitude: -122.2659037
altitude: 23.637
position_covariance: [4.9506250000000005, 0.0, 0.0, 0.0, 4.9506250000000005, 0.0, 0.0, 0.0, 21.566736000000002]
position_covariance_type: 2
---
header: 
  seq: 6441
  stamp: 
    secs: 1567281168
    nsecs: 4294887528
  frame_id: "gps"
status: 
  status: 0
  service: 3
latitude: 37.8707056
longitude: -122.2659035
altitude: 24.071
position_covariance: [4.923960999999999, 0.0, 0.0, 0.0, 4.923960999999999, 0.0, 0.0, 0.0, 21.159999999999997]
position_covariance_type: 2
---
header: 
  seq: 6442
  stamp: 
    secs: 1567281169
    nsecs: 4294887690
  frame_id: "gps"
status: 
  status: 0
  service: 3
latitude: 37.8706983
longitude: -122.2659024
altitude: 24.204
position_covariance: [4.888520999999999, 0.0, 0.0, 0.0, 4.888520999999999, 0.0, 0.0, 0.0, 20.903184]
position_covariance_type: 2
---
header: 
  seq: 6443
  stamp: 
    secs: 1567281170
    nsecs: 4294887852
  frame_id: "gps"
status: 
  status: 0
  service: 3
latitude: 37.8706879
longitude: -122.2659002
altitude: 24.44
position_covariance: [4.813636, 0.0, 0.0, 0.0, 4.813636, 0.0, 0.0, 0.0, 20.3401]
position_covariance_type: 2
---
header: 
  seq: 6444
  stamp: 
    secs: 1567281171
    nsecs: 4294888014
  frame_id: "gps"
status: 
  status: 0
  service: 3
latitude: 37.8706728
longitude: -122.265895
altitude: 24.468
position_covariance: [4.6785689999999995, 0.0, 0.0, 0.0, 4.6785689999999995, 0.0, 0.0, 0.0, 19.324816]
position_covariance_type: 2
---
header: 
  seq: 6445
  stamp: 
    secs: 1567281172
    nsecs: 4294888176
  frame_id: "gps"
status: 
  status: 0
  service: 3
latitude: 37.8706526
longitude: -122.2658826
altitude: 24.322
position_covariance: [4.4647689999999995, 0.0, 0.0, 0.0, 4.4647689999999995, 0.0, 0.0, 0.0, 18.207289000000003]
position_covariance_type: 2
---
header: 
  seq: 6446
  stamp: 
    secs: 1567281173
    nsecs: 4294888338
  frame_id: "gps"
status: 
  status: 0
  service: 3
latitude: 37.8706327
longitude: -122.2658575
altitude: 24.381
position_covariance: [4.264225, 0.0, 0.0, 0.0, 4.264225, 0.0, 0.0, 0.0, 18.011536]
position_covariance_type: 2
---
header: 
  seq: 6447
  stamp: 
    secs: 1567281174
    nsecs: 4294888500
  frame_id: "gps"
status: 
  status: 0
  service: 3
latitude: 37.8706204
longitude: -122.2658202
altitude: 24.393
position_covariance: [4.173849000000001, 0.0, 0.0, 0.0, 4.173849000000001, 0.0, 0.0, 0.0, 17.556100000000004]
position_covariance_type: 2
---
header: 
  seq: 6448
  stamp: 
    secs: 1567281175
    nsecs: 4294888661
  frame_id: "gps"
status: 
  status: 0
  service: 3
latitude: 37.8706188
longitude: -122.2657719
altitude: 24.564
position_covariance: [4.012009000000001, 0.0, 0.0, 0.0, 4.012009000000001, 0.0, 0.0, 0.0, 17.614809]
position_covariance_type: 2
---
header: 
  seq: 6449
  stamp: 
    secs: 1567281176
    nsecs: 4294888823
  frame_id: "gps"
status: 
  status: 0
  service: 3
latitude: 37.8706264
longitude: -122.2657151
altitude: 24.925
position_covariance: [3.968064, 0.0, 0.0, 0.0, 3.968064, 0.0, 0.0, 0.0, 17.682025]
position_covariance_type: 2
---
header: 
  seq: 6450
  stamp: 
    secs: 1567281177
    nsecs: 4294888985
  frame_id: "gps"
status: 
  status: 0
  service: 3
latitude: 37.8706429
longitude: -122.2656544
altitude: 25.068
position_covariance: [4.052168999999999, 0.0, 0.0, 0.0, 4.052168999999999, 0.0, 0.0, 0.0, 18.173168999999998]
position_covariance_type: 2
---
header: 
  seq: 6451
  stamp: 
    secs: 1567281178
    nsecs: 4294889147
  frame_id: "gps"
status: 
  status: 0
  service: 3
latitude: 37.870666
longitude: -122.2655893
altitude: 25.251
position_covariance: [4.173849000000001, 0.0, 0.0, 0.0, 4.173849000000001, 0.0, 0.0, 0.0, 19.027044]
position_covariance_type: 2
---
header: 
  seq: 6452
  stamp: 
    secs: 1567281179
    nsecs: 4294889308
  frame_id: "gps"
status: 
  status: 0
  service: 3
latitude: 37.8706917
longitude: -122.2655174
altitude: 25.964
position_covariance: [4.2973289999999995, 0.0, 0.0, 0.0, 4.2973289999999995, 0.0, 0.0, 0.0, 20.457528999999997]
position_covariance_type: 2
---
header: 
  seq: 6453
  stamp: 
    secs: 1567281180
    nsecs: 4294889470
  frame_id: "gps"
status: 
  status: 0
  service: 3
latitude: 37.8707219
longitude: -122.2654425
altitude: 26.609
position_covariance: [4.562496, 0.0, 0.0, 0.0, 4.562496, 0.0, 0.0, 0.0, 22.250088999999996]
position_covariance_type: 2
---
header: 
  seq: 6454
  stamp: 
    secs: 1567281181
    nsecs: 4294889633
  frame_id: "gps"
status: 
  status: 0
  service: 3
latitude: 37.870761
longitude: -122.2653722
altitude: 26.824
position_covariance: [4.804864000000001, 0.0, 0.0, 0.0, 4.804864000000001, 0.0, 0.0, 0.0, 23.338561000000006]
position_covariance_type: 2
---
header: 
  seq: 6455
  stamp: 
    secs: 1567281182
    nsecs: 4294889794
  frame_id: "gps"
status: 
  status: 0
  service: 3
latitude: 37.8708089
longitude: -122.2653111
altitude: 27.395
position_covariance: [5.257849000000001, 0.0, 0.0, 0.0, 5.257849000000001, 0.0, 0.0, 0.0, 26.286129]
position_covariance_type: 2
---
header: 
  seq: 6456
  stamp: 
    secs: 1567281183
    nsecs: 4294889956
  frame_id: "gps"
status: 
  status: 0
  service: 3
latitude: 37.8708628
longitude: -122.2652547
altitude: 28.123
position_covariance: [6.007401000000001, 0.0, 0.0, 0.0, 6.007401000000001, 0.0, 0.0, 0.0, 29.571844]
position_covariance_type: 2
---
header: 
  seq: 6457
  stamp: 
    secs: 1567281184
    nsecs: 4294890117
  frame_id: "gps"
status: 
  status: 0
  service: 3
latitude: 37.8709223
longitude: -122.2652037
altitude: 29.195
position_covariance: [6.220036000000001, 0.0, 0.0, 0.0, 6.220036000000001, 0.0, 0.0, 0.0, 32.9476]
position_covariance_type: 2
---
header: 
  seq: 6458
  stamp: 
    secs: 1567281185
    nsecs: 4294890280
  frame_id: "gps"
status: 
  status: 0
  service: 3
latitude: 37.8709883
longitude: -122.2651581
altitude: 29.549
position_covariance: [6.036848999999999, 0.0, 0.0, 0.0, 6.036848999999999, 0.0, 0.0, 0.0, 33.628401000000004]
position_covariance_type: 2
---
header: 
  seq: 6459
  stamp: 
    secs: 1567281186
    nsecs: 4294890441
  frame_id: "gps"
status: 
  status: 0
  service: 3
latitude: 37.8710601
longitude: -122.265118
altitude: 30.11
position_covariance: [5.740816, 0.0, 0.0, 0.0, 5.740816, 0.0, 0.0, 0.0, 32.024280999999995]
position_covariance_type: 2
---
header: 
  seq: 6460
  stamp: 
    secs: 1567281187
    nsecs: 4294890605
  frame_id: "gps"
status: 
  status: 0
  service: 3
latitude: 37.8711326
longitude: -122.2650801
altitude: 30.087
position_covariance: [5.484964000000001, 0.0, 0.0, 0.0, 5.484964000000001, 0.0, 0.0, 0.0, 31.472100000000005]
position_covariance_type: 2
---
header: 
  seq: 6461
  stamp: 
    secs: 1567281188
    nsecs: 4294890765
  frame_id: "gps"
status: 
  status: 0
  service: 3
latitude: 37.8712064
longitude: -122.2650506
altitude: 31.257
position_covariance: [5.326864, 0.0, 0.0, 0.0, 5.326864, 0.0, 0.0, 0.0, 31.393608999999998]
position_covariance_type: 2
---
header: 
  seq: 6462
  stamp: 
    secs: 1567281189
    nsecs: 4294890927
  frame_id: "gps"
status: 
  status: 0
  service: 3
latitude: 37.8712828
longitude: -122.2650251
altitude: 31.965
position_covariance: [5.116644, 0.0, 0.0, 0.0, 5.116644, 0.0, 0.0, 0.0, 30.669444000000002]
position_covariance_type: 2
---
header: 
  seq: 6463
  stamp: 
    secs: 1567281190
    nsecs: 4294891090
  frame_id: "gps"
status: 
  status: 0
  service: 3
latitude: 37.8713614
longitude: -122.2650036
altitude: 32.047
position_covariance: [4.892944000000001, 0.0, 0.0, 0.0, 4.892944000000001, 0.0, 0.0, 0.0, 29.354724]
position_covariance_type: 2
---
header: 
  seq: 6464
  stamp: 
    secs: 1567281191
    nsecs: 4294891252
  frame_id: "gps"
status: 
  status: 0
  service: 3
latitude: 37.8714367
longitude: -122.2649894
altitude: 32.71
position_covariance: [4.826809, 0.0, 0.0, 0.0, 4.826809, 0.0, 0.0, 0.0, 29.517488999999998]
position_covariance_type: 2
---
header: 
  seq: 6465
  stamp: 
    secs: 1567281192
    nsecs: 4294891414
  frame_id: "gps"
status: 
  status: 0
  service: 3
latitude: 37.8715033
longitude: -122.2649777
altitude: 33.042
position_covariance: [4.826809, 0.0, 0.0, 0.0, 4.826809, 0.0, 0.0, 0.0, 29.789764]
position_covariance_type: 2
---
header: 
  seq: 6466
  stamp: 
    secs: 1567281193
    nsecs: 4294891576
  frame_id: "gps"
status: 
  status: 0
  service: 3
latitude: 37.8715588
longitude: -122.2649692
altitude: 33.152
position_covariance: [5.004169, 0.0, 0.0, 0.0, 5.004169, 0.0, 0.0, 0.0, 30.459361]
position_covariance_type: 2
---
header: 
  seq: 6467
  stamp: 
    secs: 1567281194
    nsecs: 4294891738
  frame_id: "gps"
status: 
  status: 0
  service: 3
latitude: 37.8716046
longitude: -122.2649623
altitude: 32.975
position_covariance: [5.285400999999999, 0.0, 0.0, 0.0, 5.285400999999999, 0.0, 0.0, 0.0, 31.047184]
position_covariance_type: 2
---
header: 
  seq: 6468
  stamp: 
    secs: 1567281195
    nsecs: 4294891899
  frame_id: "gps"
status: 
  status: 0
  service: 3
latitude: 37.8716448
longitude: -122.2649522
altitude: 33.242
position_covariance: [5.368489000000001, 0.0, 0.0, 0.0, 5.368489000000001, 0.0, 0.0, 0.0, 31.438449000000002]
position_covariance_type: 2
---
header: 
  seq: 6469
  stamp: 
    secs: 1567281196
    nsecs: 4294892060
  frame_id: "gps"
status: 
  status: 0
  service: 3
latitude: 37.8716846
longitude: -122.2649324
altitude: 33.8
position_covariance: [5.234943999999999, 0.0, 0.0, 0.0, 5.234943999999999, 0.0, 0.0, 0.0, 30.547729]
position_covariance_type: 2
---
header: 
  seq: 6470
  stamp: 
    secs: 1567281197
    nsecs: 4294892221
  frame_id: "gps"
status: 
  status: 0
  service: 3
latitude: 37.8717212
longitude: -122.2649007
altitude: 34.215
position_covariance: [5.085025, 0.0, 0.0, 0.0, 5.085025, 0.0, 0.0, 0.0, 29.528356000000002]
position_covariance_type: 2
---
header: 
  seq: 6471
  stamp: 
    secs: 1567281198
    nsecs: 4294892383
  frame_id: "gps"
status: 
  status: 0
  service: 3
latitude: 37.8717521
longitude: -122.2648607
altitude: 34.393
position_covariance: [4.932841000000001, 0.0, 0.0, 0.0, 4.932841000000001, 0.0, 0.0, 0.0, 27.783441]
position_covariance_type: 2
---
header: 
  seq: 6472
  stamp: 
    secs: 1567281199
    nsecs: 4294892544
  frame_id: "gps"
status: 
  status: 0
  service: 3
latitude: 37.8717743
longitude: -122.2648227
altitude: 34.613
position_covariance: [4.932841000000001, 0.0, 0.0, 0.0, 4.932841000000001, 0.0, 0.0, 0.0, 26.708224]
position_covariance_type: 2
---
header: 
  seq: 6473
  stamp: 
    secs: 1567281200
    nsecs: 4294892706
  frame_id: "gps"
status: 
  status: 0
  service: 3
latitude: 37.8717877
longitude: -122.2647964
altitude: 34.646
position_covariance: [5.040025000000001, 0.0, 0.0, 0.0, 5.040025000000001, 0.0, 0.0, 0.0, 25.786084000000002]
position_covariance_type: 2
---
header: 
  seq: 6474
  stamp: 
    secs: 1567281201
    nsecs: 4294892868
  frame_id: "gps"
status: 
  status: 0
  service: 3
latitude: 37.8717976
longitude: -122.2647758
altitude: 34.519
position_covariance: [5.094049000000001, 0.0, 0.0, 0.0, 5.094049000000001, 0.0, 0.0, 0.0, 25.341155999999998]
position_covariance_type: 2
---
header: 
  seq: 6475
  stamp: 
    secs: 1567281202
    nsecs: 4294893030
  frame_id: "gps"
status: 
  status: 0
  service: 3
latitude: 37.8718093
longitude: -122.2647502
altitude: 34.796
position_covariance: [5.071503999999999, 0.0, 0.0, 0.0, 5.071503999999999, 0.0, 0.0, 0.0, 25.210441]
position_covariance_type: 2
---
header: 
  seq: 6476
  stamp: 
    secs: 1567281203
    nsecs: 4294893191
  frame_id: "gps"
status: 
  status: 0
  service: 3
latitude: 37.8718242
longitude: -122.2647242
altitude: 35.015
position_covariance: [5.171076, 0.0, 0.0, 0.0, 5.171076, 0.0, 0.0, 0.0, 25.180324]
position_covariance_type: 2
---
header: 
  seq: 6477
  stamp: 
    secs: 1567281204
    nsecs: 4294893353
  frame_id: "gps"
status: 
  status: 0
  service: 3
latitude: 37.8718399
longitude: -122.2647008
altitude: 35.097
position_covariance: [5.354596, 0.0, 0.0, 0.0, 5.354596, 0.0, 0.0, 0.0, 25.0]
position_covariance_type: 2
---
header: 
  seq: 6478
  stamp: 
    secs: 1567281205
    nsecs: 4294893512
  frame_id: "gps"
status: 
  status: 0
  service: 3
latitude: 37.8718557
longitude: -122.2646872
altitude: 36.301
position_covariance: [5.4662440000000005, 0.0, 0.0, 0.0, 5.4662440000000005, 0.0, 0.0, 0.0, 24.970008999999997]
position_covariance_type: 2
---
header: 
  seq: 6479
  stamp: 
    secs: 1567281206
    nsecs: 4294893673
  frame_id: "gps"
status: 
  status: 0
  service: 3
latitude: 37.8718726
longitude: -122.2646825
altitude: 36.531
position_covariance: [5.489649, 0.0, 0.0, 0.0, 5.489649, 0.0, 0.0, 0.0, 24.344356]
position_covariance_type: 2
---
header: 
  seq: 6480
  stamp: 
    secs: 1567281207
    nsecs: 4294893835
  frame_id: "gps"
status: 
  status: 0
  service: 3
latitude: 37.871895
longitude: -122.2646918
altitude: 36.808
position_covariance: [5.3130250000000006, 0.0, 0.0, 0.0, 5.3130250000000006, 0.0, 0.0, 0.0, 24.354224999999996]
position_covariance_type: 2
---
header: 
  seq: 6481
  stamp: 
    secs: 1567281208
    nsecs: 4294893997
  frame_id: "gps"
status: 
  status: 0
  service: 3
latitude: 37.8719176
longitude: -122.264718
altitude: 36.802
position_covariance: [5.193841, 0.0, 0.0, 0.0, 5.193841, 0.0, 0.0, 0.0, 23.912099999999995]
position_covariance_type: 2
---
header: 
  seq: 6482
  stamp: 
    secs: 1567281209
    nsecs: 4294894161
  frame_id: "gps"
status: 
  status: 0
  service: 3
latitude: 37.8719307
longitude: -122.2647601
altitude: 36.448
position_covariance: [5.026564, 0.0, 0.0, 0.0, 5.026564, 0.0, 0.0, 0.0, 22.972849]
position_covariance_type: 2
---
header: 
  seq: 6483
  stamp: 
    secs: 1567281210
    nsecs: 4294894323
  frame_id: "gps"
status: 
  status: 0
  service: 3
latitude: 37.8719315
longitude: -122.2648157
altitude: 36.147
position_covariance: [5.094049000000001, 0.0, 0.0, 0.0, 5.094049000000001, 0.0, 0.0, 0.0, 23.251684]
position_covariance_type: 2
---
header: 
  seq: 6484
  stamp: 
    secs: 1567281211
    nsecs: 4294894487
  frame_id: "gps"
status: 
  status: 0
  service: 3
latitude: 37.8719254
longitude: -122.2648764
altitude: 35.526
position_covariance: [5.262436, 0.0, 0.0, 0.0, 5.262436, 0.0, 0.0, 0.0, 23.097636]
position_covariance_type: 2
---
header: 
  seq: 6485
  stamp: 
    secs: 1567281212
    nsecs: 4294894651
  frame_id: "gps"
status: 
  status: 0
  service: 3
latitude: 37.8719175
longitude: -122.2649356
altitude: 34.819
position_covariance: [5.387041000000001, 0.0, 0.0, 0.0, 5.387041000000001, 0.0, 0.0, 0.0, 23.213123999999997]
position_covariance_type: 2
---
header: 
  seq: 6486
  stamp: 
    secs: 1567281213
    nsecs: 4294894814
  frame_id: "gps"
status: 
  status: 0
  service: 3
latitude: 37.8719047
longitude: -122.264984
altitude: 34.293
position_covariance: [5.387041000000001, 0.0, 0.0, 0.0, 5.387041000000001, 0.0, 0.0, 0.0, 23.270975999999997]
position_covariance_type: 2
---
header: 
  seq: 6487
  stamp: 
    secs: 1567281214
    nsecs: 4294894978
  frame_id: "gps"
status: 
  status: 0
  service: 3
latitude: 37.8718872
longitude: -122.2650196
altitude: 33.713
position_covariance: [5.1529, 0.0, 0.0, 0.0, 5.1529, 0.0, 0.0, 0.0, 22.524516000000006]
position_covariance_type: 2
---
header: 
  seq: 6488
  stamp: 
    secs: 1567281215
    nsecs: 4294895142
  frame_id: "gps"
status: 
  status: 0
  service: 3
latitude: 37.8718628
longitude: -122.2650415
altitude: 33.09
position_covariance: [4.915089, 0.0, 0.0, 0.0, 4.915089, 0.0, 0.0, 0.0, 21.086463999999996]
position_covariance_type: 2
---
header: 
  seq: 6489
  stamp: 
    secs: 1567281216
    nsecs: 4294895304
  frame_id: "gps"
status: 
  status: 0
  service: 3
latitude: 37.8718355
longitude: -122.26505
altitude: 33.126
position_covariance: [4.730624999999999, 0.0, 0.0, 0.0, 4.730624999999999, 0.0, 0.0, 0.0, 20.178064]
position_covariance_type: 2
---
header: 
  seq: 6490
  stamp: 
    secs: 1567281217
    nsecs: 4294895466
  frame_id: "gps"
status: 
  status: 0
  service: 3
latitude: 37.8718044
longitude: -122.2650456
altitude: 32.958
position_covariance: [4.588164, 0.0, 0.0, 0.0, 4.588164, 0.0, 0.0, 0.0, 19.324816]
position_covariance_type: 2
---
header: 
  seq: 6491
  stamp: 
    secs: 1567281218
    nsecs: 4294895627
  frame_id: "gps"
status: 
  status: 0
  service: 3
latitude: 37.8717665
longitude: -122.2650347
altitude: 32.978
position_covariance: [4.414201, 0.0, 0.0, 0.0, 4.414201, 0.0, 0.0, 0.0, 17.850624999999997]
position_covariance_type: 2
---
header: 
  seq: 6492
  stamp: 
    secs: 1567281219
    nsecs: 4294895789
  frame_id: "gps"
status: 
  status: 0
  service: 3
latitude: 37.8717209
longitude: -122.2650207
altitude: 32.746
position_covariance: [4.389025000000001, 0.0, 0.0, 0.0, 4.389025000000001, 0.0, 0.0, 0.0, 17.850624999999997]
position_covariance_type: 2
---
header: 
  seq: 6493
  stamp: 
    secs: 1567281220
    nsecs: 4294895951
  frame_id: "gps"
status: 
  status: 0
  service: 3
latitude: 37.8716708
longitude: -122.2650093
altitude: 32.694
position_covariance: [4.418404, 0.0, 0.0, 0.0, 4.418404, 0.0, 0.0, 0.0, 17.943696]
position_covariance_type: 2
---
header: 
  seq: 6494
  stamp: 
    secs: 1567281221
    nsecs: 4294896112
  frame_id: "gps"
status: 
  status: 0
  service: 3
latitude: 37.8716194
longitude: -122.2650059
altitude: 32.59
position_covariance: [4.443664, 0.0, 0.0, 0.0, 4.443664, 0.0, 0.0, 0.0, 17.952169]
position_covariance_type: 2
---
header: 
  seq: 6495
  stamp: 
    secs: 1567281222
    nsecs: 4294896274
  frame_id: "gps"
status: 
  status: 0
  service: 3
latitude: 37.871565
longitude: -122.2650051
altitude: 32.437
position_covariance: [4.549689, 0.0, 0.0, 0.0, 4.549689, 0.0, 0.0, 0.0, 18.105024999999998]
position_covariance_type: 2
---
header: 
  seq: 6496
  stamp: 
    secs: 1567281223
    nsecs: 4294896436
  frame_id: "gps"
status: 
  status: 0
  service: 3
latitude: 37.8715026
longitude: -122.2650031
altitude: 32.058
position_covariance: [4.761124, 0.0, 0.0, 0.0, 4.761124, 0.0, 0.0, 0.0, 18.948608999999998]
position_covariance_type: 2
---
header: 
  seq: 6497
  stamp: 
    secs: 1567281224
    nsecs: 4294896599
  frame_id: "gps"
status: 
  status: 0
  service: 3
latitude: 37.8714329
longitude: -122.2650019
altitude: 31.47
position_covariance: [4.923960999999999, 0.0, 0.0, 0.0, 4.923960999999999, 0.0, 0.0, 0.0, 20.052483999999996]
position_covariance_type: 2
---
header: 
  seq: 6498
  stamp: 
    secs: 1567281225
    nsecs: 4294896761
  frame_id: "gps"
status: 
  status: 0
  service: 3
latitude: 37.8713598
longitude: -122.2650056
altitude: 30.89
position_covariance: [4.932841000000001, 0.0, 0.0, 0.0, 4.932841000000001, 0.0, 0.0, 0.0, 20.043529000000003]
position_covariance_type: 2
---
header: 
  seq: 6499
  stamp: 
    secs: 1567281226
    nsecs: 4294896924
  frame_id: "gps"
status: 
  status: 0
  service: 3
latitude: 37.8712862
longitude: -122.2650206
altitude: 30.12
position_covariance: [4.946176000000001, 0.0, 0.0, 0.0, 4.946176000000001, 0.0, 0.0, 0.0, 20.178064]
position_covariance_type: 2
---
header: 
  seq: 6500
  stamp: 
    secs: 1567281227
    nsecs: 4294897086
  frame_id: "gps"
status: 
  status: 0
  service: 3
latitude: 37.8712167
longitude: -122.2650453
altitude: 29.356
position_covariance: [4.981824000000001, 0.0, 0.0, 0.0, 4.981824000000001, 0.0, 0.0, 0.0, 21.095648999999998]
position_covariance_type: 2
---
header: 
  seq: 6501
  stamp: 
    secs: 1567281228
    nsecs: 4294897248
  frame_id: "gps"
status: 
  status: 0
  service: 3
latitude: 37.87115
longitude: -122.2650729
altitude: 28.9
position_covariance: [5.022081000000001, 0.0, 0.0, 0.0, 5.022081000000001, 0.0, 0.0, 0.0, 22.316176000000002]
position_covariance_type: 2
---
header: 
  seq: 6502
  stamp: 
    secs: 1567281229
    nsecs: 4294897410
  frame_id: "gps"
status: 
  status: 0
  service: 3
latitude: 37.8710861
longitude: -122.2650989
altitude: 28.531
position_covariance: [5.076009000000001, 0.0, 0.0, 0.0, 5.076009000000001, 0.0, 0.0, 0.0, 23.435281000000003]
position_covariance_type: 2
---
header: 
  seq: 6503
  stamp: 
    secs: 1567281230
    nsecs: 4294897572
  frame_id: "gps"
status: 
  status: 0
  service: 3
latitude: 37.871028
longitude: -122.2651268
altitude: 28.059
position_covariance: [5.189284, 0.0, 0.0, 0.0, 5.189284, 0.0, 0.0, 0.0, 25.050024999999998]
position_covariance_type: 2
---
header: 
  seq: 6504
  stamp: 
    secs: 1567281231
    nsecs: 4294897732
  frame_id: "gps"
status: 
  status: 0
  service: 3
latitude: 37.8709732
longitude: -122.2651639
altitude: 27.951
position_covariance: [5.3592249999999995, 0.0, 0.0, 0.0, 5.3592249999999995, 0.0, 0.0, 0.0, 26.801328999999996]
position_covariance_type: 2
---
header: 
  seq: 6505
  stamp: 
    secs: 1567281232
    nsecs: 4294897894
  frame_id: "gps"
status: 
  status: 0
  service: 3
latitude: 37.8709182
longitude: -122.2652118
altitude: 27.565
position_covariance: [5.583769, 0.0, 0.0, 0.0, 5.583769, 0.0, 0.0, 0.0, 29.877156000000003]
position_covariance_type: 2
---
header: 
  seq: 6506
  stamp: 
    secs: 1567281233
    nsecs: 4294898055
  frame_id: "gps"
status: 
  status: 0
  service: 3
latitude: 37.8708611
longitude: -122.2652679
altitude: 27.048
position_covariance: [5.9049000000000005, 0.0, 0.0, 0.0, 5.9049000000000005, 0.0, 0.0, 0.0, 33.790969]
position_covariance_type: 2
---
header: 
  seq: 6507
  stamp: 
    secs: 1567281234
    nsecs: 4294898215
  frame_id: "gps"
status: 
  status: 0
  service: 3
latitude: 37.870805
longitude: -122.2653314
altitude: 27.508
position_covariance: [6.517809, 0.0, 0.0, 0.0, 6.517809, 0.0, 0.0, 0.0, 39.037504000000006]
position_covariance_type: 2
---
header: 
  seq: 6508
  stamp: 
    secs: 1567281235
    nsecs: 4294898375
  frame_id: "gps"
status: 
  status: 0
  service: 3
latitude: 37.8707548
longitude: -122.2653988
altitude: 27.458
position_covariance: [7.064964, 0.0, 0.0, 0.0, 7.064964, 0.0, 0.0, 0.0, 44.18260900000001]
position_covariance_type: 2
---
header: 
  seq: 6509
  stamp: 
    secs: 1567281236
    nsecs: 4294898536
  frame_id: "gps"
status: 
  status: 0
  service: 3
latitude: 37.8707121
longitude: -122.2654622
altitude: 27.617
position_covariance: [7.134240999999999, 0.0, 0.0, 0.0, 7.134240999999999, 0.0, 0.0, 0.0, 49.070025]
position_covariance_type: 2
---
header: 
  seq: 6510
  stamp: 
    secs: 1567281237
    nsecs: 4294898698
  frame_id: "gps"
status: 
  status: 0
  service: 3
latitude: 37.8706811
longitude: -122.2655195
altitude: 26.943
position_covariance: [7.107556, 0.0, 0.0, 0.0, 7.107556, 0.0, 0.0, 0.0, 52.475536]
position_covariance_type: 2
---
header: 
  seq: 6511
  stamp: 
    secs: 1567281238
    nsecs: 4294898861
  frame_id: "gps"
status: 
  status: 0
  service: 3
latitude: 37.8706626
longitude: -122.2655712
altitude: 26.001
position_covariance: [6.953769, 0.0, 0.0, 0.0, 6.953769, 0.0, 0.0, 0.0, 51.609856]
position_covariance_type: 2
---
header: 
  seq: 6512
  stamp: 
    secs: 1567281239
    nsecs: 4294899024
  frame_id: "gps"
status: 
  status: 0
  service: 3
latitude: 37.870653
longitude: -122.2656141
altitude: 25.291
position_covariance: [6.708099999999999, 0.0, 0.0, 0.0, 6.708099999999999, 0.0, 0.0, 0.0, 50.965321]
position_covariance_type: 2
---
header: 
  seq: 6513
  stamp: 
    secs: 1567281240
    nsecs: 4294899186
  frame_id: "gps"
status: 
  status: 0
  service: 3
latitude: 37.8706502
longitude: -122.2656524
altitude: 25.137
position_covariance: [6.4262250000000005, 0.0, 0.0, 0.0, 6.4262250000000005, 0.0, 0.0, 0.0, 46.867716]
position_covariance_type: 2
---
header: 
  seq: 6514
  stamp: 
    secs: 1567281241
    nsecs: 4294899349
  frame_id: "gps"
status: 
  status: 0
  service: 3
latitude: 37.8706507
longitude: -122.265683
altitude: 24.625
position_covariance: [6.1504, 0.0, 0.0, 0.0, 6.1504, 0.0, 0.0, 0.0, 44.595684]
position_covariance_type: 2
---
header: 
  seq: 6515
  stamp: 
    secs: 1567281242
    nsecs: 4294899511
  frame_id: "gps"
status: 
  status: 0
  service: 3
latitude: 37.8706531
longitude: -122.2657074
altitude: 24.322
position_covariance: [5.978024999999999, 0.0, 0.0, 0.0, 5.978024999999999, 0.0, 0.0, 0.0, 42.85011600000001]
position_covariance_type: 2
---
header: 
  seq: 6516
  stamp: 
    secs: 1567281243
    nsecs: 4294899673
  frame_id: "gps"
status: 
  status: 0
  service: 3
latitude: 37.870659
longitude: -122.2657357
altitude: 24.031
position_covariance: [5.866084000000001, 0.0, 0.0, 0.0, 5.866084000000001, 0.0, 0.0, 0.0, 41.938576]
position_covariance_type: 2
---
header: 
  seq: 6517
  stamp: 
    secs: 1567281244
    nsecs: 4294899835
  frame_id: "gps"
status: 
  status: 0
  service: 3
latitude: 37.8706723
longitude: -122.2657695
altitude: 23.977
position_covariance: [5.654884000000001, 0.0, 0.0, 0.0, 5.654884000000001, 0.0, 0.0, 0.0, 39.07500100000001]
position_covariance_type: 2
---
header: 
  seq: 6518
  stamp: 
    secs: 1567281245
    nsecs: 4294899996
  frame_id: "gps"
status: 
  status: 0
  service: 3
latitude: 37.8706981
longitude: -122.2658002
altitude: 24.344
position_covariance: [5.349969000000001, 0.0, 0.0, 0.0, 5.349969000000001, 0.0, 0.0, 0.0, 34.845409]
position_covariance_type: 2
---
header: 
  seq: 6519
  stamp: 
    secs: 1567281246
    nsecs: 4294900157
  frame_id: "gps"
status: 
  status: 0
