header: 
  seq: 9667
  stamp: 
    secs: 1567284402
    nsecs:    414104
  frame_id: "gps"
status: 
  status: 0
  service: 3
latitude: 37.8720186
longitude: -122.2640057
altitude: 36.326
position_covariance: [12.567025, 0.0, 0.0, 0.0, 12.567025, 0.0, 0.0, 0.0, 20.830096]
position_covariance_type: 2
---
header: 
  seq: 9668
  stamp: 
    secs: 1567284403
    nsecs:    414250
  frame_id: "gps"
status: 
  status: 0
  service: 3
latitude: 37.8720194
longitude: -122.2640022
altitude: 35.973
position_covariance: [12.362256, 0.0, 0.0, 0.0, 12.362256, 0.0, 0.0, 0.0, 20.304036000000004]
position_covariance_type: 2
---
header: 
  seq: 9669
  stamp: 
    secs: 1567284404
    nsecs:    414395
  frame_id: "gps"
status: 
  status: 0
  service: 3
latitude: 37.8720222
longitude: -122.2639908
altitude: 35.845
position_covariance: [12.334144, 0.0, 0.0, 0.0, 12.334144, 0.0, 0.0, 0.0, 19.989841000000002]
position_covariance_type: 2
---
header: 
  seq: 9670
  stamp: 
    secs: 1567284405
    nsecs:    414540
  frame_id: "gps"
status: 
  status: 0
  service: 3
latitude: 37.8720295
longitude: -122.2639641
altitude: 36.036
position_covariance: [12.047841, 0.0, 0.0, 0.0, 12.047841, 0.0, 0.0, 0.0, 19.430464000000004]
position_covariance_type: 2
---
header: 
  seq: 9671
  stamp: 
    secs: 1567284406
    nsecs:    414686
  frame_id: "gps"
status: 
  status: 0
  service: 3
latitude: 37.8720374
longitude: -122.2639137
altitude: 35.658
position_covariance: [11.464996000000001, 0.0, 0.0, 0.0, 11.464996000000001, 0.0, 0.0, 0.0, 19.149376000000004]
position_covariance_type: 2
---
header: 
  seq: 9672
  stamp: 
    secs: 1567284407
    nsecs:    414831
  frame_id: "gps"
status: 
  status: 0
  service: 3
latitude: 37.8720405
longitude: -122.2638462
altitude: 35.515
position_covariance: [11.009124, 0.0, 0.0, 0.0, 11.009124, 0.0, 0.0, 0.0, 18.983449]
position_covariance_type: 2
---
header: 
  seq: 9673
  stamp: 
    secs: 1567284408
    nsecs:    414976
  frame_id: "gps"
status: 
  status: 0
  service: 3
latitude: 37.8720349
longitude: -122.2637647
altitude: 35.353
position_covariance: [10.843849, 0.0, 0.0, 0.0, 10.843849, 0.0, 0.0, 0.0, 19.4481]
position_covariance_type: 2
---
header: 
  seq: 9674
  stamp: 
    secs: 1567284409
    nsecs:    415122
  frame_id: "gps"
status: 
  status: 0
  service: 3
latitude: 37.8720272
longitude: -122.2636759
altitude: 35.058
position_covariance: [10.530025, 0.0, 0.0, 0.0, 10.530025, 0.0, 0.0, 0.0, 19.589476]
position_covariance_type: 2
---
header: 
  seq: 9675
  stamp: 
    secs: 1567284410
    nsecs:    415268
  frame_id: "gps"
status: 
  status: 0
  service: 3
latitude: 37.8720315
longitude: -122.2635992
altitude: 34.679
position_covariance: [10.916415999999998, 0.0, 0.0, 0.0, 10.916415999999998, 0.0, 0.0, 0.0, 20.367169]
position_covariance_type: 2
---
header: 
  seq: 9676
  stamp: 
    secs: 1567284411
    nsecs:    415414
  frame_id: "gps"
status: 
  status: 0
  service: 3
latitude: 37.8720478
longitude: -122.2635381
altitude: 34.242
position_covariance: [11.282881, 0.0, 0.0, 0.0, 11.282881, 0.0, 0.0, 0.0, 21.706280999999997]
position_covariance_type: 2
---
header: 
  seq: 9677
  stamp: 
    secs: 1567284412
    nsecs:    415561
  frame_id: "gps"
status: 
  status: 0
  service: 3
latitude: 37.8720729
longitude: -122.2634912
altitude: 33.988
position_covariance: [11.202409, 0.0, 0.0, 0.0, 11.202409, 0.0, 0.0, 0.0, 21.399876000000003]
position_covariance_type: 2
---
header: 
  seq: 9678
  stamp: 
    secs: 1567284413
    nsecs:    415706
  frame_id: "gps"
status: 
  status: 0
  service: 3
latitude: 37.8721039
longitude: -122.263464
altitude: 34.193
position_covariance: [10.163344, 0.0, 0.0, 0.0, 10.163344, 0.0, 0.0, 0.0, 20.6116]
position_covariance_type: 2
---
header: 
  seq: 9679
  stamp: 
    secs: 1567284414
    nsecs:    415852
  frame_id: "gps"
status: 
  status: 0
  service: 3
latitude: 37.8721352
longitude: -122.2634458
altitude: 34.148
position_covariance: [9.265936, 0.0, 0.0, 0.0, 9.265936, 0.0, 0.0, 0.0, 19.713600000000003]
position_covariance_type: 2
---
header: 
  seq: 9680
  stamp: 
    secs: 1567284415
    nsecs:    415996
  frame_id: "gps"
status: 
  status: 0
  service: 3
latitude: 37.872178
longitude: -122.2634427
altitude: 34.393
position_covariance: [8.526399999999999, 0.0, 0.0, 0.0, 8.526399999999999, 0.0, 0.0, 0.0, 19.562929]
position_covariance_type: 2
---
header: 
  seq: 9681
  stamp: 
    secs: 1567284416
    nsecs:    416142
  frame_id: "gps"
status: 
  status: 0
  service: 3
latitude: 37.8722238
longitude: -122.2634598
altitude: 34.222
position_covariance: [7.868025000000001, 0.0, 0.0, 0.0, 7.868025000000001, 0.0, 0.0, 0.0, 19.228225]
position_covariance_type: 2
---
header: 
  seq: 9682
  stamp: 
    secs: 1567284417
    nsecs:    416287
  frame_id: "gps"
status: 
  status: 0
  service: 3
latitude: 37.8722631
longitude: -122.2635012
altitude: 34.414
position_covariance: [7.155624999999999, 0.0, 0.0, 0.0, 7.155624999999999, 0.0, 0.0, 0.0, 18.464208999999997]
position_covariance_type: 2
---
header: 
  seq: 9683
  stamp: 
    secs: 1567284418
    nsecs:    416432
  frame_id: "gps"
status: 
  status: 0
  service: 3
latitude: 37.8722864
longitude: -122.2635632
altitude: 34.528
position_covariance: [6.487209000000001, 0.0, 0.0, 0.0, 6.487209000000001, 0.0, 0.0, 0.0, 18.156121000000002]
position_covariance_type: 2
---
header: 
  seq: 9684
  stamp: 
    secs: 1567284419
    nsecs:    416576
  frame_id: "gps"
status: 
  status: 0
  service: 3
latitude: 37.8722934
longitude: -122.2636338
altitude: 34.659
position_covariance: [5.8951839999999995, 0.0, 0.0, 0.0, 5.8951839999999995, 0.0, 0.0, 0.0, 17.280649]
position_covariance_type: 2
---
header: 
  seq: 9685
  stamp: 
    secs: 1567284420
    nsecs:    416721
  frame_id: "gps"
status: 
  status: 0
  service: 3
latitude: 37.8722767
longitude: -122.2637041
altitude: 34.65
position_covariance: [5.650128999999999, 0.0, 0.0, 0.0, 5.650128999999999, 0.0, 0.0, 0.0, 17.497488999999998]
position_covariance_type: 2
---
header: 
  seq: 9686
  stamp: 
    secs: 1567284421
    nsecs:    416865
  frame_id: "gps"
status: 
  status: 0
  service: 3
latitude: 37.8722403
longitude: -122.263772
altitude: 34.639
position_covariance: [5.583769, 0.0, 0.0, 0.0, 5.583769, 0.0, 0.0, 0.0, 17.623204000000005]
position_covariance_type: 2
---
header: 
  seq: 9687
  stamp: 
    secs: 1567284422
    nsecs:    417010
  frame_id: "gps"
status: 
  status: 0
  service: 3
latitude: 37.8721971
longitude: -122.2638408
altitude: 34.718
position_covariance: [5.550736, 0.0, 0.0, 0.0, 5.550736, 0.0, 0.0, 0.0, 17.969120999999998]
position_covariance_type: 2
---
header: 
  seq: 9688
  stamp: 
    secs: 1567284423
    nsecs:    417154
  frame_id: "gps"
status: 
  status: 0
  service: 3
latitude: 37.8721546
longitude: -122.2639156
altitude: 34.667
position_covariance: [5.683456, 0.0, 0.0, 0.0, 5.683456, 0.0, 0.0, 0.0, 18.696976]
position_covariance_type: 2
---
header: 
  seq: 9689
  stamp: 
    secs: 1567284424
    nsecs:    417299
  frame_id: "gps"
status: 
  status: 0
  service: 3
latitude: 37.8721172
longitude: -122.2640004
altitude: 34.468
position_covariance: [5.900040999999999, 0.0, 0.0, 0.0, 5.900040999999999, 0.0, 0.0, 0.0, 19.360000000000003]
position_covariance_type: 2
---
header: 
  seq: 9690
  stamp: 
    secs: 1567284425
    nsecs:    417444
  frame_id: "gps"
status: 
  status: 0
  service: 3
latitude: 37.8720849
longitude: -122.2640983
altitude: 33.982
position_covariance: [6.235009, 0.0, 0.0, 0.0, 6.235009, 0.0, 0.0, 0.0, 20.079361]
position_covariance_type: 2
---
header: 
  seq: 9691
  stamp: 
    secs: 1567284426
    nsecs:    417590
  frame_id: "gps"
status: 
  status: 0
  service: 3
latitude: 37.8720568
longitude: -122.2642101
altitude: 33.562
position_covariance: [6.563844, 0.0, 0.0, 0.0, 6.563844, 0.0, 0.0, 0.0, 20.657025]
position_covariance_type: 2
---
header: 
  seq: 9692
  stamp: 
    secs: 1567284427
    nsecs:    417736
  frame_id: "gps"
status: 
  status: 0
  service: 3
latitude: 37.8720298
longitude: -122.2643326
altitude: 32.869
position_covariance: [6.754801000000001, 0.0, 0.0, 0.0, 6.754801000000001, 0.0, 0.0, 0.0, 21.483224999999997]
position_covariance_type: 2
---
header: 
  seq: 9693
  stamp: 
    secs: 1567284428
    nsecs:    417880
  frame_id: "gps"
status: 
  status: 0
  service: 3
latitude: 37.8720028
longitude: -122.2644606
altitude: 32.857
position_covariance: [6.796449000000001, 0.0, 0.0, 0.0, 6.796449000000001, 0.0, 0.0, 0.0, 21.883684]
position_covariance_type: 2
---
header: 
  seq: 9694
  stamp: 
    secs: 1567284429
    nsecs:    418026
  frame_id: "gps"
status: 
  status: 0
  service: 3
latitude: 37.8719786
longitude: -122.2645862
altitude: 32.471
position_covariance: [6.911641, 0.0, 0.0, 0.0, 6.911641, 0.0, 0.0, 0.0, 22.4676]
position_covariance_type: 2
---
header: 
  seq: 9695
  stamp: 
    secs: 1567284430
    nsecs:    418170
  frame_id: "gps"
status: 
  status: 0
  service: 3
latitude: 37.8719635
longitude: -122.2646998
altitude: 32.553
position_covariance: [7.091568999999999, 0.0, 0.0, 0.0, 7.091568999999999, 0.0, 0.0, 0.0, 23.049601000000003]
position_covariance_type: 2
---
header: 
  seq: 9696
  stamp: 
    secs: 1567284431
    nsecs:    418315
  frame_id: "gps"
status: 
  status: 0
  service: 3
latitude: 37.8719564
longitude: -122.2647944
altitude: 32.207
position_covariance: [7.177040999999999, 0.0, 0.0, 0.0, 7.177040999999999, 0.0, 0.0, 0.0, 23.980609]
position_covariance_type: 2
---
header: 
  seq: 9697
  stamp: 
    secs: 1567284432
    nsecs:    418459
  frame_id: "gps"
status: 
  status: 0
  service: 3
latitude: 37.8719506
longitude: -122.2648735
altitude: 32.417
position_covariance: [7.387524, 0.0, 0.0, 0.0, 7.387524, 0.0, 0.0, 0.0, 25.010001000000003]
position_covariance_type: 2
---
header: 
  seq: 9698
  stamp: 
    secs: 1567284433
    nsecs:    418605
  frame_id: "gps"
status: 
  status: 0
  service: 3
latitude: 37.8719498
longitude: -122.264947
altitude: 31.986
position_covariance: [7.584516, 0.0, 0.0, 0.0, 7.584516, 0.0, 0.0, 0.0, 26.030404000000004]
position_covariance_type: 2
---
header: 
  seq: 9699
  stamp: 
    secs: 1567284434
    nsecs:    418751
  frame_id: "gps"
status: 
  status: 0
  service: 3
latitude: 37.871961
longitude: -122.2650174
altitude: 31.679
position_covariance: [7.617599999999999, 0.0, 0.0, 0.0, 7.617599999999999, 0.0, 0.0, 0.0, 26.625600000000002]
position_covariance_type: 2
---
header: 
  seq: 9700
  stamp: 
    secs: 1567284435
    nsecs:    418895
  frame_id: "gps"
status: 
  status: 0
  service: 3
latitude: 37.8719892
longitude: -122.2650806
altitude: 31.871
position_covariance: [7.5625, 0.0, 0.0, 0.0, 7.5625, 0.0, 0.0, 0.0, 26.894596]
position_covariance_type: 2
---
header: 
  seq: 9701
  stamp: 
    secs: 1567284436
    nsecs:    419041
  frame_id: "gps"
status: 
  status: 0
  service: 3
latitude: 37.872027
longitude: -122.2651337
altitude: 31.528
position_covariance: [7.322436, 0.0, 0.0, 0.0, 7.322436, 0.0, 0.0, 0.0, 26.429881]
position_covariance_type: 2
---
header: 
  seq: 9702
  stamp: 
    secs: 1567284437
    nsecs:    419185
  frame_id: "gps"
status: 
  status: 0
  service: 3
latitude: 37.8720741
longitude: -122.265181
altitude: 31.478
position_covariance: [7.027800999999999, 0.0, 0.0, 0.0, 7.027800999999999, 0.0, 0.0, 0.0, 25.847055999999995]
position_covariance_type: 2
---
header: 
  seq: 9703
  stamp: 
    secs: 1567284438
    nsecs:    419330
  frame_id: "gps"
status: 
  status: 0
  service: 3
latitude: 37.8721338
longitude: -122.2652304
altitude: 31.391
position_covariance: [6.775609000000001, 0.0, 0.0, 0.0, 6.775609000000001, 0.0, 0.0, 0.0, 25.542916]
position_covariance_type: 2
---
header: 
  seq: 9704
  stamp: 
    secs: 1567284439
    nsecs:    419473
  frame_id: "gps"
status: 
  status: 0
  service: 3
latitude: 37.8721998
longitude: -122.2652868
altitude: 31.673
position_covariance: [6.466849000000001, 0.0, 0.0, 0.0, 6.466849000000001, 0.0, 0.0, 0.0, 23.8144]
position_covariance_type: 2
---
header: 
  seq: 9705
  stamp: 
    secs: 1567284440
    nsecs:    419618
  frame_id: "gps"
status: 
  status: 0
  service: 3
latitude: 37.8722667
longitude: -122.2653557
altitude: 30.993
position_covariance: [6.041764000000001, 0.0, 0.0, 0.0, 6.041764000000001, 0.0, 0.0, 0.0, 22.714756]
position_covariance_type: 2
---
header: 
  seq: 9706
  stamp: 
    secs: 1567284441
    nsecs:    419763
  frame_id: "gps"
status: 
  status: 0
  service: 3
latitude: 37.87233
longitude: -122.2654359
altitude: 30.356
position_covariance: [5.659641, 0.0, 0.0, 0.0, 5.659641, 0.0, 0.0, 0.0, 21.836929]
position_covariance_type: 2
---
header: 
  seq: 9707
  stamp: 
    secs: 1567284442
    nsecs:    419907
  frame_id: "gps"
status: 
  status: 0
  service: 3
latitude: 37.8723896
longitude: -122.2655213
altitude: 29.844
position_covariance: [5.3592249999999995, 0.0, 0.0, 0.0, 5.3592249999999995, 0.0, 0.0, 0.0, 21.325924000000004]
position_covariance_type: 2
---
header: 
  seq: 9708
  stamp: 
    secs: 1567284443
    nsecs:    420052
  frame_id: "gps"
status: 
  status: 0
  service: 3
latitude: 37.8724384
longitude: -122.265603
altitude: 29.104
position_covariance: [5.193841, 0.0, 0.0, 0.0, 5.193841, 0.0, 0.0, 0.0, 20.903184]
position_covariance_type: 2
---
header: 
  seq: 9709
  stamp: 
    secs: 1567284444
    nsecs:    420197
  frame_id: "gps"
status: 
  status: 0
  service: 3
latitude: 37.8724699
longitude: -122.2656782
altitude: 28.732
position_covariance: [4.977360999999999, 0.0, 0.0, 0.0, 4.977360999999999, 0.0, 0.0, 0.0, 20.097288999999996]
position_covariance_type: 2
---
header: 
  seq: 9710
  stamp: 
    secs: 1567284445
    nsecs:    420342
  frame_id: "gps"
status: 
  status: 0
  service: 3
latitude: 37.8724887
longitude: -122.2657434
altitude: 28.236
position_covariance: [4.7262759999999995, 0.0, 0.0, 0.0, 4.7262759999999995, 0.0, 0.0, 0.0, 19.377604]
position_covariance_type: 2
---
header: 
  seq: 9711
  stamp: 
    secs: 1567284446
    nsecs:    420488
  frame_id: "gps"
status: 
  status: 0
  service: 3
latitude: 37.8724984
longitude: -122.2657914
altitude: 27.712
position_covariance: [4.596736000000001, 0.0, 0.0, 0.0, 4.596736000000001, 0.0, 0.0, 0.0, 19.377604]
position_covariance_type: 2
---
header: 
  seq: 9712
  stamp: 
    secs: 1567284447
    nsecs:    420633
  frame_id: "gps"
status: 
  status: 0
  service: 3
latitude: 37.8725021
longitude: -122.2658196
altitude: 27.259
position_covariance: [4.502884, 0.0, 0.0, 0.0, 4.502884, 0.0, 0.0, 0.0, 19.228225]
position_covariance_type: 2
---
header: 
  seq: 9713
  stamp: 
    secs: 1567284448
    nsecs:    420778
  frame_id: "gps"
status: 
  status: 0
  service: 3
latitude: 37.872503
longitude: -122.2658302
altitude: 27.14
position_covariance: [4.4521, 0.0, 0.0, 0.0, 4.4521, 0.0, 0.0, 0.0, 19.749136]
position_covariance_type: 2
---
header: 
  seq: 9714
  stamp: 
    secs: 1567284449
    nsecs:    420924
  frame_id: "gps"
status: 
  status: 0
  service: 3
latitude: 37.8725037
longitude: -122.2658318
altitude: 27.119
position_covariance: [4.468996, 0.0, 0.0, 0.0, 4.468996, 0.0, 0.0, 0.0, 20.331081000000005]
position_covariance_type: 2
---
header: 
  seq: 9715
  stamp: 
    secs: 1567284450
    nsecs:    421068
  frame_id: "gps"
status: 
  status: 0
  service: 3
latitude: 37.8725046
longitude: -122.2658324
altitude: 27.153
position_covariance: [4.519875999999999, 0.0, 0.0, 0.0, 4.519875999999999, 0.0, 0.0, 0.0, 20.930625000000003]
position_covariance_type: 2
---
header: 
  seq: 9716
  stamp: 
    secs: 1567284451
    nsecs:    421214
  frame_id: "gps"
status: 
  status: 0
  service: 3
latitude: 37.8725056
longitude: -122.2658334
altitude: 27.118
position_covariance: [4.5796, 0.0, 0.0, 0.0, 4.5796, 0.0, 0.0, 0.0, 21.576024999999998]
position_covariance_type: 2
---
header: 
  seq: 9717
  stamp: 
    secs: 1567284452
    nsecs:    421359
  frame_id: "gps"
status: 
  status: 0
  service: 3
latitude: 37.8725069
longitude: -122.2658342
altitude: 27.008
position_covariance: [4.639716, 0.0, 0.0, 0.0, 4.639716, 0.0, 0.0, 0.0, 22.287841]
position_covariance_type: 2
---
header: 
  seq: 9718
  stamp: 
    secs: 1567284453
    nsecs:    421504
  frame_id: "gps"
status: 
  status: 0
  service: 3
latitude: 37.8725078
longitude: -122.2658352
altitude: 26.946
position_covariance: [4.700224, 0.0, 0.0, 0.0, 4.700224, 0.0, 0.0, 0.0, 22.896225]
position_covariance_type: 2
---
header: 
  seq: 9719
  stamp: 
    secs: 1567284454
    nsecs:    421649
  frame_id: "gps"
status: 
  status: 0
  service: 3
latitude: 37.8725086
longitude: -122.2658368
altitude: 26.885
position_covariance: [4.769856000000001, 0.0, 0.0, 0.0, 4.769856000000001, 0.0, 0.0, 0.0, 23.541904000000002]
position_covariance_type: 2
---
header: 
  seq: 9720
  stamp: 
    secs: 1567284455
    nsecs:    421794
  frame_id: "gps"
status: 
  status: 0
  service: 3
latitude: 37.872509
longitude: -122.2658383
altitude: 26.835
position_covariance: [4.840000000000001, 0.0, 0.0, 0.0, 4.840000000000001, 0.0, 0.0, 0.0, 24.137569000000003]
position_covariance_type: 2
---
header: 
  seq: 9721
  stamp: 
    secs: 1567284456
    nsecs:    421940
  frame_id: "gps"
status: 
  status: 0
  service: 3
latitude: 37.8725094
longitude: -122.2658395
altitude: 26.707
position_covariance: [4.879681000000001, 0.0, 0.0, 0.0, 4.879681000000001, 0.0, 0.0, 0.0, 24.561936000000003]
position_covariance_type: 2
---
header: 
  seq: 9722
  stamp: 
    secs: 1567284457
    nsecs:    422084
  frame_id: "gps"
status: 
  status: 0
  service: 3
latitude: 37.8725102
longitude: -122.2658461
altitude: 26.948
position_covariance: [4.840000000000001, 0.0, 0.0, 0.0, 4.840000000000001, 0.0, 0.0, 0.0, 24.581764000000003]
position_covariance_type: 2
---
header: 
  seq: 9723
  stamp: 
    secs: 1567284458
    nsecs:    422229
  frame_id: "gps"
status: 
  status: 0
  service: 3
latitude: 37.8725131
longitude: -122.2658686
altitude: 27.005
position_covariance: [4.765489, 0.0, 0.0, 0.0, 4.765489, 0.0, 0.0, 0.0, 24.522304]
position_covariance_type: 2
---
header: 
  seq: 9724
  stamp: 
    secs: 1567284459
    nsecs:    422374
  frame_id: "gps"
status: 
  status: 0
  service: 3
latitude: 37.8725158
longitude: -122.2659082
altitude: 27.049
position_covariance: [4.691555999999999, 0.0, 0.0, 0.0, 4.691555999999999, 0.0, 0.0, 0.0, 24.621443999999997]
position_covariance_type: 2
---
header: 
  seq: 9725
  stamp: 
    secs: 1567284460
    nsecs:    422518
  frame_id: "gps"
status: 
  status: 0
  service: 3
latitude: 37.8725155
longitude: -122.2659494
altitude: 27.378
position_covariance: [4.639716, 0.0, 0.0, 0.0, 4.639716, 0.0, 0.0, 0.0, 25.140196000000003]
position_covariance_type: 2
---
header: 
  seq: 9726
  stamp: 
    secs: 1567284461
    nsecs:    422663
  frame_id: "gps"
status: 
  status: 0
  service: 3
latitude: 37.8725146
longitude: -122.2659837
altitude: 27.435
position_covariance: [4.652649, 0.0, 0.0, 0.0, 4.652649, 0.0, 0.0, 0.0, 25.532809]
position_covariance_type: 2
---
header: 
  seq: 9727
  stamp: 
    secs: 1567284462
    nsecs:    422807
  frame_id: "gps"
status: 
  status: 0
  service: 3
latitude: 37.8725117
longitude: -122.2660224
altitude: 27.822
position_covariance: [4.687225, 0.0, 0.0, 0.0, 4.687225, 0.0, 0.0, 0.0, 25.816561000000004]
position_covariance_type: 2
---
header: 
  seq: 9728
  stamp: 
    secs: 1567284463
    nsecs:    422953
  frame_id: "gps"
status: 
  status: 0
  service: 3
latitude: 37.8725059
longitude: -122.2660797
altitude: 27.753
position_covariance: [4.613904000000001, 0.0, 0.0, 0.0, 4.613904000000001, 0.0, 0.0, 0.0, 25.775928999999998]
position_covariance_type: 2
---
header: 
  seq: 9729
  stamp: 
    secs: 1567284464
    nsecs:    423096
  frame_id: "gps"
status: 
  status: 0
  service: 3
latitude: 37.8724928
longitude: -122.2661567
altitude: 28.196
position_covariance: [4.4226090000000005, 0.0, 0.0, 0.0, 4.4226090000000005, 0.0, 0.0, 0.0, 24.850225000000002]
position_covariance_type: 2
---
header: 
  seq: 9730
  stamp: 
    secs: 1567284465
    nsecs:    423240
  frame_id: "gps"
status: 
  status: 0
  service: 3
latitude: 37.8724759
longitude: -122.2662534
altitude: 28.274
position_covariance: [4.272489000000001, 0.0, 0.0, 0.0, 4.272489000000001, 0.0, 0.0, 0.0, 24.235929]
position_covariance_type: 2
---
header: 
  seq: 9731
  stamp: 
    secs: 1567284466
    nsecs:    423386
  frame_id: "gps"
status: 
  status: 0
  service: 3
latitude: 37.8724589
longitude: -122.2663698
altitude: 27.782
position_covariance: [4.165680999999999, 0.0, 0.0, 0.0, 4.165680999999999, 0.0, 0.0, 0.0, 23.902321]
position_covariance_type: 2
---
header: 
  seq: 9732
  stamp: 
    secs: 1567284467
    nsecs:    423531
  frame_id: "gps"
status: 
  status: 0
  service: 3
latitude: 37.8724429
longitude: -122.2665011
altitude: 26.991
position_covariance: [4.251843999999999, 0.0, 0.0, 0.0, 4.251843999999999, 0.0, 0.0, 0.0, 24.373969000000002]
position_covariance_type: 2
---
header: 
  seq: 9733
  stamp: 
    secs: 1567284468
    nsecs:    423677
  frame_id: "gps"
status: 
  status: 0
  service: 3
latitude: 37.872426
longitude: -122.2666395
altitude: 26.345
position_covariance: [4.431025, 0.0, 0.0, 0.0, 4.431025, 0.0, 0.0, 0.0, 24.790441]
position_covariance_type: 2
---
header: 
  seq: 9734
  stamp: 
    secs: 1567284469
    nsecs:    423822
  frame_id: "gps"
status: 
  status: 0
  service: 3
latitude: 37.8724064
longitude: -122.266777
altitude: 26.236
position_covariance: [4.498641, 0.0, 0.0, 0.0, 4.498641, 0.0, 0.0, 0.0, 24.621443999999997]
position_covariance_type: 2
---
header: 
  seq: 9735
  stamp: 
    secs: 1567284470
    nsecs:    423967
  frame_id: "gps"
status: 
  status: 0
  service: 3
latitude: 37.8723869
longitude: -122.266903
altitude: 26.229
position_covariance: [4.439449000000001, 0.0, 0.0, 0.0, 4.439449000000001, 0.0, 0.0, 0.0, 24.176889]
position_covariance_type: 2
---
header: 
  seq: 9736
  stamp: 
    secs: 1567284471
    nsecs:    424112
  frame_id: "gps"
status: 
  status: 0
  service: 3
latitude: 37.8723708
longitude: -122.2670136
altitude: 26.041
position_covariance: [4.351395999999999, 0.0, 0.0, 0.0, 4.351395999999999, 0.0, 0.0, 0.0, 23.843689]
position_covariance_type: 2
---
header: 
  seq: 9737
  stamp: 
    secs: 1567284472
    nsecs:    424258
  frame_id: "gps"
status: 
  status: 0
  service: 3
latitude: 37.8723567
longitude: -122.2671112
altitude: 25.859
position_covariance: [4.247720999999999, 0.0, 0.0, 0.0, 4.247720999999999, 0.0, 0.0, 0.0, 23.001616000000002]
position_covariance_type: 2
---
header: 
  seq: 9738
  stamp: 
    secs: 1567284473
    nsecs:    424402
  frame_id: "gps"
status: 
  status: 0
  service: 3
latitude: 37.8723466
longitude: -122.2671934
altitude: 25.977
position_covariance: [4.194304, 0.0, 0.0, 0.0, 4.194304, 0.0, 0.0, 0.0, 22.915369]
position_covariance_type: 2
---
header: 
  seq: 9739
  stamp: 
    secs: 1567284474
    nsecs:    424548
  frame_id: "gps"
status: 
  status: 0
  service: 3
latitude: 37.8723411
longitude: -122.2672579
altitude: 25.854
position_covariance: [4.120899999999999, 0.0, 0.0, 0.0, 4.120899999999999, 0.0, 0.0, 0.0, 23.126481000000002]
position_covariance_type: 2
---
header: 
  seq: 9740
  stamp: 
    secs: 1567284475
    nsecs:    424694
  frame_id: "gps"
status: 
  status: 0
  service: 3
latitude: 37.8723338
longitude: -122.2673086
altitude: 25.327
position_covariance: [4.072323999999999, 0.0, 0.0, 0.0, 4.072323999999999, 0.0, 0.0, 0.0, 23.059203999999998]
position_covariance_type: 2
---
header: 
  seq: 9741
  stamp: 
    secs: 1567284476
    nsecs:    424840
  frame_id: "gps"
status: 
  status: 0
  service: 3
latitude: 37.8723255
longitude: -122.2673541
altitude: 24.898
position_covariance: [4.072323999999999, 0.0, 0.0, 0.0, 4.072323999999999, 0.0, 0.0, 0.0, 22.896225]
position_covariance_type: 2
---
header: 
  seq: 9742
  stamp: 
    secs: 1567284477
    nsecs:    424985
  frame_id: "gps"
status: 
  status: 0
  service: 3
latitude: 37.8723212
longitude: -122.2673913
altitude: 24.873
position_covariance: [4.141225, 0.0, 0.0, 0.0, 4.141225, 0.0, 0.0, 0.0, 23.309584000000005]
position_covariance_type: 2
---
header: 
  seq: 9743
  stamp: 
    secs: 1567284478
    nsecs:    425131
  frame_id: "gps"
status: 
  status: 0
  service: 3
latitude: 37.8723191
longitude: -122.2674168
altitude: 24.576
position_covariance: [4.218915999999999, 0.0, 0.0, 0.0, 4.218915999999999, 0.0, 0.0, 0.0, 23.319240999999998]
position_covariance_type: 2
---
header: 
  seq: 9744
  stamp: 
    secs: 1567284479
    nsecs:    425276
  frame_id: "gps"
status: 
  status: 0
  service: 3
latitude: 37.8723184
longitude: -122.267429
altitude: 24.665
position_covariance: [4.2973289999999995, 0.0, 0.0, 0.0, 4.2973289999999995, 0.0, 0.0, 0.0, 23.746129000000003]
position_covariance_type: 2
---
header: 
  seq: 9745
  stamp: 
    secs: 1567284480
    nsecs:    425422
  frame_id: "gps"
status: 
  status: 0
  service: 3
latitude: 37.8723189
longitude: -122.2674313
altitude: 24.634
position_covariance: [4.368099999999999, 0.0, 0.0, 0.0, 4.368099999999999, 0.0, 0.0, 0.0, 24.304899999999996]
position_covariance_type: 2
---
header: 
  seq: 9746
  stamp: 
    secs: 1567284481
    nsecs:    425568
  frame_id: "gps"
status: 
  status: 0
  service: 3
latitude: 37.8723191
longitude: -122.2674309
altitude: 24.609
position_covariance: [4.447881, 0.0, 0.0, 0.0, 4.447881, 0.0, 0.0, 0.0, 24.820324000000003]
position_covariance_type: 2
---
header: 
  seq: 9747
  stamp: 
    secs: 1567284482
    nsecs:    425713
  frame_id: "gps"
status: 
  status: 0
  service: 3
latitude: 37.8723188
longitude: -122.2674364
altitude: 24.684
position_covariance: [4.515625, 0.0, 0.0, 0.0, 4.515625, 0.0, 0.0, 0.0, 25.250625000000003]
position_covariance_type: 2
---
header: 
  seq: 9748
  stamp: 
    secs: 1567284483
    nsecs:    425859
  frame_id: "gps"
status: 
  status: 0
  service: 3
latitude: 37.872317
longitude: -122.2674566
altitude: 24.556
position_covariance: [4.566769, 0.0, 0.0, 0.0, 4.566769, 0.0, 0.0, 0.0, 25.704900000000002]
position_covariance_type: 2
---
header: 
  seq: 9749
  stamp: 
    secs: 1567284484
    nsecs:    426005
  frame_id: "gps"
status: 
  status: 0
  service: 3
latitude: 37.8723126
longitude: -122.2674935
altitude: 24.273
position_covariance: [4.674244, 0.0, 0.0, 0.0, 4.674244, 0.0, 0.0, 0.0, 26.419599999999996]
position_covariance_type: 2
---
header: 
  seq: 9750
  stamp: 
    secs: 1567284485
    nsecs:    426152
  frame_id: "gps"
status: 
  status: 0
  service: 3
latitude: 37.8723064
longitude: -122.2675464
altitude: 23.635
position_covariance: [4.8224160000000005, 0.0, 0.0, 0.0, 4.8224160000000005, 0.0, 0.0, 0.0, 27.154521000000003]
position_covariance_type: 2
---
header: 
  seq: 9751
  stamp: 
    secs: 1567284486
    nsecs:    426299
  frame_id: "gps"
status: 
  status: 0
  service: 3
latitude: 37.8722988
longitude: -122.2676123
altitude: 23.113
position_covariance: [5.040025000000001, 0.0, 0.0, 0.0, 5.040025000000001, 0.0, 0.0, 0.0, 28.005263999999997]
position_covariance_type: 2
---
header: 
  seq: 9752
  stamp: 
    secs: 1567284487
    nsecs:    426447
  frame_id: "gps"
status: 
  status: 0
  service: 3
latitude: 37.8722921
longitude: -122.2676872
altitude: 22.013
position_covariance: [5.345343999999999, 0.0, 0.0, 0.0, 5.345343999999999, 0.0, 0.0, 0.0, 28.815424000000004]
position_covariance_type: 2
---
header: 
  seq: 9753
  stamp: 
    secs: 1567284488
    nsecs:    426594
  frame_id: "gps"
status: 
  status: 0
  service: 3
latitude: 37.8722811
longitude: -122.2677716
altitude: 21.627
position_covariance: [5.550736, 0.0, 0.0, 0.0, 5.550736, 0.0, 0.0, 0.0, 29.278920999999997]
position_covariance_type: 2
---
header: 
  seq: 9754
  stamp: 
    secs: 1567284489
    nsecs:    426740
  frame_id: "gps"
status: 
  status: 0
  service: 3
latitude: 37.8722659
longitude: -122.2678687
altitude: 21.159
position_covariance: [5.885476000000001, 0.0, 0.0, 0.0, 5.885476000000001, 0.0, 0.0, 0.0, 30.030400000000004]
position_covariance_type: 2
---
header: 
  seq: 9755
  stamp: 
    secs: 1567284490
    nsecs:    426886
  frame_id: "gps"
status: 
  status: 0
  service: 3
latitude: 37.8722506
longitude: -122.2679693
altitude: 21.048
position_covariance: [6.012303999999999, 0.0, 0.0, 0.0, 6.012303999999999, 0.0, 0.0, 0.0, 30.780304]
position_covariance_type: 2
---
header: 
  seq: 9756
  stamp: 
    secs: 1567284491
    nsecs:    427033
  frame_id: "gps"
status: 
  status: 0
  service: 3
latitude: 37.8722377
longitude: -122.2680647
altitude: 20.519
position_covariance: [5.973135999999999, 0.0, 0.0, 0.0, 5.973135999999999, 0.0, 0.0, 0.0, 30.880249000000003]
position_covariance_type: 2
---
header: 
  seq: 9757
  stamp: 
    secs: 1567284492
    nsecs:    427176
  frame_id: "gps"
status: 
  status: 0
  service: 3
latitude: 37.8722246
longitude: -122.2681439
altitude: 21.29
position_covariance: [5.702544, 0.0, 0.0, 0.0, 5.702544, 0.0, 0.0, 0.0, 30.052324000000002]
position_covariance_type: 2
---
header: 
  seq: 9758
  stamp: 
    secs: 1567284493
    nsecs:    427321
  frame_id: "gps"
status: 
  status: 0
  service: 3
latitude: 37.8722151
longitude: -122.2682052
altitude: 21.421
position_covariance: [5.400975999999999, 0.0, 0.0, 0.0, 5.400975999999999, 0.0, 0.0, 0.0, 28.912128999999997]
position_covariance_type: 2
---
header: 
  seq: 9759
  stamp: 
    secs: 1567284494
    nsecs:    427466
  frame_id: "gps"
status: 
  status: 0
  service: 3
latitude: 37.8722072
longitude: -122.2682458
altitude: 21.82
position_covariance: [5.112121, 0.0, 0.0, 0.0, 5.112121, 0.0, 0.0, 0.0, 27.793984000000002]
position_covariance_type: 2
---
header: 
  seq: 9760
  stamp: 
    secs: 1567284495
    nsecs:    427612
  frame_id: "gps"
status: 
  status: 0
  service: 3
latitude: 37.8722025
longitude: -122.2682724
altitude: 21.634
position_covariance: [4.870849, 0.0, 0.0, 0.0, 4.870849, 0.0, 0.0, 0.0, 26.936100000000003]
position_covariance_type: 2
---
header: 
  seq: 9761
  stamp: 
    secs: 1567284496
    nsecs:    427756
  frame_id: "gps"
status: 
  status: 0
  service: 3
latitude: 37.8721982
longitude: -122.2682878
altitude: 21.992
position_covariance: [4.687225, 0.0, 0.0, 0.0, 4.687225, 0.0, 0.0, 0.0, 26.152995999999998]
position_covariance_type: 2
---
header: 
  seq: 9762
  stamp: 
    secs: 1567284497
    nsecs:    427900
  frame_id: "gps"
status: 
  status: 0
  service: 3
latitude: 37.8721956
longitude: -122.268294
altitude: 22.432
position_covariance: [4.515625, 0.0, 0.0, 0.0, 4.515625, 0.0, 0.0, 0.0, 25.472208999999996]
position_covariance_type: 2
---
header: 
  seq: 9763
  stamp: 
    secs: 1567284498
    nsecs:    428045
  frame_id: "gps"
status: 
  status: 0
  service: 3
latitude: 37.8721924
longitude: -122.2683002
altitude: 22.853
position_covariance: [4.355569000000001, 0.0, 0.0, 0.0, 4.355569000000001, 0.0, 0.0, 0.0, 24.611521000000003]
position_covariance_type: 2
---
header: 
  seq: 9764
  stamp: 
    secs: 1567284499
    nsecs:    428189
  frame_id: "gps"
status: 
  status: 0
  service: 3
latitude: 37.8721883
longitude: -122.2683112
altitude: 23.151
position_covariance: [4.223025000000001, 0.0, 0.0, 0.0, 4.223025000000001, 0.0, 0.0, 0.0, 23.794884]
position_covariance_type: 2
---
header: 
  seq: 9765
  stamp: 
    secs: 1567284500
    nsecs:    428335
  frame_id: "gps"
status: 
  status: 0
  service: 3
latitude: 37.8721815
longitude: -122.2683318
altitude: 23.066
position_covariance: [4.141225, 0.0, 0.0, 0.0, 4.141225, 0.0, 0.0, 0.0, 23.251684]
position_covariance_type: 2
---
header: 
  seq: 9766
  stamp: 
    secs: 1567284501
    nsecs:    428480
  frame_id: "gps"
status: 
  status: 0
  service: 3
latitude: 37.8721623
longitude: -122.2683617
altitude: 23.084
position_covariance: [4.060225000000001, 0.0, 0.0, 0.0, 4.060225000000001, 0.0, 0.0, 0.0, 22.325624999999995]
position_covariance_type: 2
---
header: 
  seq: 9767
  stamp: 
    secs: 1567284502
    nsecs:    428627
  frame_id: "gps"
status: 
  status: 0
  service: 3
latitude: 37.872123
longitude: -122.2683901
altitude: 22.594
position_covariance: [3.9204, 0.0, 0.0, 0.0, 3.9204, 0.0, 0.0, 0.0, 20.566225000000003]
position_covariance_type: 2
---
header: 
  seq: 9768
  stamp: 
    secs: 1567284503
    nsecs:    428773
  frame_id: "gps"
status: 
  status: 0
  service: 3
latitude: 37.872063
longitude: -122.2684019
altitude: 22.487
position_covariance: [4.060225000000001, 0.0, 0.0, 0.0, 4.060225000000001, 0.0, 0.0, 0.0, 20.6116]
position_covariance_type: 2
---
header: 
  seq: 9769
  stamp: 
    secs: 1567284504
    nsecs:    428918
  frame_id: "gps"
status: 
  status: 0
  service: 3
latitude: 37.8719853
longitude: -122.2684014
altitude: 22.353
position_covariance: [4.405801000000001, 0.0, 0.0, 0.0, 4.405801000000001, 0.0, 0.0, 0.0, 20.802721]
position_covariance_type: 2
---
header: 
  seq: 9770
  stamp: 
    secs: 1567284505
    nsecs:    429064
  frame_id: "gps"
status: 
  status: 0
  service: 3
latitude: 37.8718944
longitude: -122.2683956
altitude: 22.116
position_covariance: [4.695888999999999, 0.0, 0.0, 0.0, 4.695888999999999, 0.0, 0.0, 0.0, 21.040568999999998]
position_covariance_type: 2
---
header: 
  seq: 9771
  stamp: 
    secs: 1567284506
    nsecs:    429208
  frame_id: "gps"
status: 
  status: 0
  service: 3
latitude: 37.8717999
longitude: -122.2683838
altitude: 22.217
position_covariance: [4.955076, 0.0, 0.0, 0.0, 4.955076, 0.0, 0.0, 0.0, 21.678335999999998]
position_covariance_type: 2
---
header: 
  seq: 9772
  stamp: 
    secs: 1567284507
    nsecs:    429355
  frame_id: "gps"
status: 
  status: 0
  service: 3
latitude: 37.8717076
longitude: -122.2683708
altitude: 21.739
position_covariance: [5.134756, 0.0, 0.0, 0.0, 5.134756, 0.0, 0.0, 0.0, 21.483224999999997]
position_covariance_type: 2
---
header: 
  seq: 9773
  stamp: 
    secs: 1567284508
    nsecs:    429500
  frame_id: "gps"
status: 
  status: 0
  service: 3
latitude: 37.8716164
longitude: -122.2683584
altitude: 21.758
position_covariance: [5.3592249999999995, 0.0, 0.0, 0.0, 5.3592249999999995, 0.0, 0.0, 0.0, 22.429695999999996]
position_covariance_type: 2
---
header: 
  seq: 9774
  stamp: 
    secs: 1567284509
    nsecs:    429646
  frame_id: "gps"
status: 
  status: 0
  service: 3
latitude: 37.8715206
longitude: -122.268344
altitude: 21.722
position_covariance: [5.631129000000001, 0.0, 0.0, 0.0, 5.631129000000001, 0.0, 0.0, 0.0, 23.290275999999995]
position_covariance_type: 2
---
header: 
  seq: 9775
  stamp: 
    secs: 1567284510
    nsecs:    429791
  frame_id: "gps"
status: 
  status: 0
  service: 3
latitude: 37.8714219
longitude: -122.2683272
altitude: 21.898
position_covariance: [5.870929, 0.0, 0.0, 0.0, 5.870929, 0.0, 0.0, 0.0, 23.824161000000004]
position_covariance_type: 2
---
header: 
  seq: 9776
  stamp: 
    secs: 1567284511
    nsecs:    429937
  frame_id: "gps"
status: 
  status: 0
  service: 3
latitude: 37.8713222
longitude: -122.268312
altitude: 21.821
position_covariance: [6.240004000000001, 0.0, 0.0, 0.0, 6.240004000000001, 0.0, 0.0, 0.0, 25.160256]
position_covariance_type: 2
---
header: 
  seq: 9777
  stamp: 
    secs: 1567284512
    nsecs:    430083
  frame_id: "gps"
status: 
  status: 0
  service: 3
latitude: 37.8712239
longitude: -122.2682995
altitude: 21.731
position_covariance: [6.5946240000000005, 0.0, 0.0, 0.0, 6.5946240000000005, 0.0, 0.0, 0.0, 26.512201]
position_covariance_type: 2
---
header: 
  seq: 9778
  stamp: 
    secs: 1567284513
    nsecs:    430229
  frame_id: "gps"
status: 
  status: 0
  service: 3
latitude: 37.8711274
longitude: -122.2682857
altitude: 21.837
position_covariance: [6.853923999999999, 0.0, 0.0, 0.0, 6.853923999999999, 0.0, 0.0, 0.0, 27.520516000000004]
position_covariance_type: 2
---
header: 
  seq: 9779
  stamp: 
    secs: 1567284514
    nsecs:    430376
  frame_id: "gps"
status: 
  status: 0
  service: 3
latitude: 37.8710313
longitude: -122.2682676
altitude: 21.569
position_covariance: [7.112888999999999, 0.0, 0.0, 0.0, 7.112888999999999, 0.0, 0.0, 0.0, 28.847641000000003]
position_covariance_type: 2
---
header: 
  seq: 9780
  stamp: 
    secs: 1567284515
    nsecs:    430523
  frame_id: "gps"
status: 
  status: 0
  service: 3
latitude: 37.8709374
longitude: -122.2682459
altitude: 21.205
position_covariance: [7.3441, 0.0, 0.0, 0.0, 7.3441, 0.0, 0.0, 0.0, 29.354724]
position_covariance_type: 2
---
header: 
  seq: 9781
  stamp: 
    secs: 1567284516
    nsecs:    430671
  frame_id: "gps"
status: 
  status: 0
  service: 3
latitude: 37.8708459
longitude: -122.2682263
altitude: 20.791
position_covariance: [7.606564, 0.0, 0.0, 0.0, 7.606564, 0.0, 0.0, 0.0, 30.140100000000004]
position_covariance_type: 2
---
header: 
  seq: 9782
  stamp: 
    secs: 1567284517
    nsecs:    430816
  frame_id: "gps"
status: 
  status: 0
  service: 3
latitude: 37.8707602
longitude: -122.268206
altitude: 21.176
position_covariance: [7.969329, 0.0, 0.0, 0.0, 7.969329, 0.0, 0.0, 0.0, 31.573161]
position_covariance_type: 2
---
header: 
  seq: 9783
  stamp: 
    secs: 1567284518
    nsecs:    430963
  frame_id: "gps"
status: 
  status: 0
  service: 3
latitude: 37.8706841
longitude: -122.268187
altitude: 21.0
position_covariance: [8.328996, 0.0, 0.0, 0.0, 8.328996, 0.0, 0.0, 0.0, 32.649796]
position_covariance_type: 2
---
header: 
  seq: 9784
  stamp: 
    secs: 1567284519
    nsecs:    431110
  frame_id: "gps"
status: 
  status: 0
  service: 3
latitude: 37.8706196
longitude: -122.2681663
altitude: 20.778
position_covariance: [8.767520999999999, 0.0, 0.0, 0.0, 8.767520999999999, 0.0, 0.0, 0.0, 34.117281000000006]
position_covariance_type: 2
---
header: 
  seq: 9785
  stamp: 
    secs: 1567284520
    nsecs:    431256
  frame_id: "gps"
status: 
  status: 0
  service: 3
latitude: 37.8705652
longitude: -122.2681459
altitude: 20.864
position_covariance: [9.054081, 0.0, 0.0, 0.0, 9.054081, 0.0, 0.0, 0.0, 32.3761]
position_covariance_type: 2
---
header: 
  seq: 9786
  stamp: 
    secs: 1567284521
    nsecs:    431403
  frame_id: "gps"
status: 
  status: 0
  service: 3
latitude: 37.8705273
longitude: -122.2681324
altitude: 20.724
position_covariance: [9.162729, 0.0, 0.0, 0.0, 9.162729, 0.0, 0.0, 0.0, 30.924720999999998]
position_covariance_type: 2
---
header: 
  seq: 9787
  stamp: 
    secs: 1567284522
    nsecs:    431552
  frame_id: "gps"
status: 
  status: 0
  service: 3
latitude: 37.8705078
longitude: -122.2681268
altitude: 20.386
position_covariance: [9.320808999999999, 0.0, 0.0, 0.0, 9.320808999999999, 0.0, 0.0, 0.0, 30.294015999999996]
position_covariance_type: 2
---
header: 
  seq: 9788
  stamp: 
    secs: 1567284523
    nsecs:    431699
  frame_id: "gps"
status: 
  status: 0
  service: 3
latitude: 37.8705014
longitude: -122.2681263
altitude: 20.139
position_covariance: [9.628609, 0.0, 0.0, 0.0, 9.628609, 0.0, 0.0, 0.0, 29.986576]
position_covariance_type: 2
---
header: 
  seq: 9789
  stamp: 
    secs: 1567284524
    nsecs:    431848
  frame_id: "gps"
status: 
  status: 0
  service: 3
latitude: 37.8704995
longitude: -122.2681257
altitude: 19.769
position_covariance: [9.790641, 0.0, 0.0, 0.0, 9.790641, 0.0, 0.0, 0.0, 29.626248999999994]
position_covariance_type: 2
---
header: 
  seq: 9790
  stamp: 
    secs: 1567284525
    nsecs:    431995
  frame_id: "gps"
status: 
  status: 0
  service: 3
latitude: 37.8704964
longitude: -122.2681251
altitude: 19.81
position_covariance: [9.891025, 0.0, 0.0, 0.0, 9.891025, 0.0, 0.0, 0.0, 29.778848999999997]
position_covariance_type: 2
---
header: 
  seq: 9791
  stamp: 
    secs: 1567284526
    nsecs:    432141
  frame_id: "gps"
status: 
  status: 0
  service: 3
latitude: 37.8704954
longitude: -122.2681242
altitude: 19.87
position_covariance: [10.265616000000001, 0.0, 0.0, 0.0, 10.265616000000001, 0.0, 0.0, 0.0, 29.844369]
position_covariance_type: 2
---
header: 
  seq: 9792
  stamp: 
    secs: 1567284527
    nsecs:    432288
  frame_id: "gps"
status: 
  status: 0
  service: 3
latitude: 37.8704954
longitude: -122.2681231
altitude: 19.899
position_covariance: [10.870209000000001, 0.0, 0.0, 0.0, 10.870209000000001, 0.0, 0.0, 0.0, 29.452328999999995]
position_covariance_type: 2
---
header: 
  seq: 9793
  stamp: 
    secs: 1567284528
    nsecs:    432435
  frame_id: "gps"
status: 
  status: 0
  service: 3
latitude: 37.8704949
longitude: -122.2681229
altitude: 20.038
position_covariance: [11.404129, 0.0, 0.0, 0.0, 11.404129, 0.0, 0.0, 0.0, 29.160000000000004]
position_covariance_type: 2
---
header: 
  seq: 9794
  stamp: 
    secs: 1567284529
    nsecs:    432582
  frame_id: "gps"
status: 
  status: 0
  service: 3
latitude: 37.8704952
longitude: -122.2681218
altitude: 19.902
position_covariance: [11.930116000000002, 0.0, 0.0, 0.0, 11.930116000000002, 0.0, 0.0, 0.0, 28.955161000000004]
position_covariance_type: 2
---
header: 
  seq: 9795
  stamp: 
    secs: 1567284530
    nsecs:    432729
  frame_id: "gps"
status: 
  status: 0
  service: 3
latitude: 37.8704956
longitude: -122.268121
altitude: 19.862
position_covariance: [12.446784000000001, 0.0, 0.0, 0.0, 12.446784000000001, 0.0, 0.0, 0.0, 28.922884]
position_covariance_type: 2
---
header: 
  seq: 9796
  stamp: 
    secs: 1567284531
    nsecs:    432876
  frame_id: "gps"
status: 
  status: 0
  service: 3
latitude: 37.8704957
longitude: -122.2681202
altitude: 20.091
position_covariance: [12.845056000000001, 0.0, 0.0, 0.0, 12.845056000000001, 0.0, 0.0, 0.0, 28.826161]
position_covariance_type: 2
---
header: 
  seq: 9797
  stamp: 
    secs: 1567284532
    nsecs:    433021
  frame_id: "gps"
status: 
  status: 0
  service: 3
latitude: 37.8704949
longitude: -122.2681197
altitude: 20.504
position_covariance: [13.1769, 0.0, 0.0, 0.0, 13.1769, 0.0, 0.0, 0.0, 28.686736]
position_covariance_type: 2
---
header: 
  seq: 9798
  stamp: 
    secs: 1567284533
    nsecs:    433166
  frame_id: "gps"
status: 
  status: 0
  service: 3
latitude: 37.8704928
longitude: -122.2681218
altitude: 21.094
position_covariance: [13.461561, 0.0, 0.0, 0.0, 13.461561, 0.0, 0.0, 0.0, 28.494244000000002]
position_covariance_type: 2
---
header: 
  seq: 9799
  stamp: 
    secs: 1567284534
    nsecs:    433311
  frame_id: "gps"
status: 
  status: 0
  service: 3
latitude: 37.8704898
longitude: -122.2681259
altitude: 21.782
position_covariance: [13.630864, 0.0, 0.0, 0.0, 13.630864, 0.0, 0.0, 0.0, 28.164249000000005]
position_covariance_type: 2
---
header: 
  seq: 9800
  stamp: 
    secs: 1567284535
    nsecs:    433456
  frame_id: "gps"
status: 
  status: 0
  service: 3
latitude: 37.8704869
longitude: -122.2681302
altitude: 22.361
position_covariance: [13.801224999999999, 0.0, 0.0, 0.0, 13.801224999999999, 0.0, 0.0, 0.0, 28.121809]
position_covariance_type: 2
---
header: 
  seq: 9801
  stamp: 
    secs: 1567284536
    nsecs:    433601
  frame_id: "gps"
status: 
  status: 0
  service: 3
latitude: 37.8704839
longitude: -122.2681349
altitude: 22.829
position_covariance: [13.972644, 0.0, 0.0, 0.0, 13.972644, 0.0, 0.0, 0.0, 28.068804]
position_covariance_type: 2
---
header: 
  seq: 9802
  stamp: 
    secs: 1567284537
    nsecs:    433747
  frame_id: "gps"
status: 
  status: 0
  service: 3
latitude: 37.8704816
longitude: -122.2681391
altitude: 23.28
position_covariance: [14.092516, 0.0, 0.0, 0.0, 14.092516, 0.0, 0.0, 0.0, 28.132416000000003]
position_covariance_type: 2
---
header: 
  seq: 9803
  stamp: 
    secs: 1567284538
    nsecs:    433892
  frame_id: "gps"
status: 
  status: 0
  service: 3
latitude: 37.870478
longitude: -122.2681454
altitude: 23.847
position_covariance: [14.160169, 0.0, 0.0, 0.0, 14.160169, 0.0, 0.0, 0.0, 28.196099999999994]
position_covariance_type: 2
---
header: 
  seq: 9804
  stamp: 
    secs: 1567284539
    nsecs:    434037
  frame_id: "gps"
status: 
  status: 0
  service: 3
latitude: 37.8704747
longitude: -122.2681512
altitude: 24.212
position_covariance: [14.258175999999999, 0.0, 0.0, 0.0, 14.258175999999999, 0.0, 0.0, 0.0, 28.344976]
position_covariance_type: 2
---
header: 
  seq: 9805
  stamp: 
    secs: 1567284540
    nsecs:    434183
  frame_id: "gps"
status: 
  status: 0
  service: 3
latitude: 37.8704723
longitude: -122.2681559
altitude: 24.338
position_covariance: [14.417209000000001, 0.0, 0.0, 0.0, 14.417209000000001, 0.0, 0.0, 0.0, 28.376929]
position_covariance_type: 2
---
header: 
  seq: 9806
  stamp: 
    secs: 1567284541
    nsecs:    434330
  frame_id: "gps"
status: 
  status: 0
  service: 3
latitude: 37.8704705
longitude: -122.2681594
altitude: 24.546
position_covariance: [14.630625000000002, 0.0, 0.0, 0.0, 14.630625000000002, 0.0, 0.0, 0.0, 28.569024999999996]
position_covariance_type: 2
---
header: 
  seq: 9807
  stamp: 
    secs: 1567284542
    nsecs:    434476
  frame_id: "gps"
status: 
  status: 0
  service: 3
latitude: 37.8704689
longitude: -122.2681623
altitude: 24.671
position_covariance: [14.845609000000001, 0.0, 0.0, 0.0, 14.845609000000001, 0.0, 0.0, 0.0, 28.590409000000005]
position_covariance_type: 2
---
header: 
  seq: 9808
  stamp: 
    secs: 1567284543
    nsecs:    434623
  frame_id: "gps"
status: 
  status: 0
  service: 3
latitude: 37.87047
longitude: -122.2681631
altitude: 24.369
position_covariance: [15.147663999999999, 0.0, 0.0, 0.0, 15.147663999999999, 0.0, 0.0, 0.0, 28.462225]
position_covariance_type: 2
---
header: 
  seq: 9809
  stamp: 
    secs: 1567284544
    nsecs:    434771
  frame_id: "gps"
status: 
  status: 0
  service: 3
latitude: 37.8704716
longitude: -122.2681637
altitude: 24.028
position_covariance: [15.492096, 0.0, 0.0, 0.0, 15.492096, 0.0, 0.0, 0.0, 28.558336000000004]
position_covariance_type: 2
---
header: 
  seq: 9810
  stamp: 
    secs: 1567284545
    nsecs:    434914
  frame_id: "gps"
status: 
  status: 0
  service: 3
latitude: 37.8704681
longitude: -122.2681687
altitude: 25.196
position_covariance: [15.657848999999999, 0.0, 0.0, 0.0, 15.657848999999999, 0.0, 0.0, 0.0, 28.09]
position_covariance_type: 2
---
header: 
  seq: 9811
  stamp: 
    secs: 1567284546
    nsecs:    435059
  frame_id: "gps"
status: 
  status: 0
  service: 3
latitude: 37.8704651
longitude: -122.2681748
altitude: 25.823
position_covariance: [15.713296, 0.0, 0.0, 0.0, 15.713296, 0.0, 0.0, 0.0, 27.436644000000005]
position_covariance_type: 2
---
header: 
  seq: 9812
  stamp: 
    secs: 1567284547
    nsecs:    435204
  frame_id: "gps"
status: 
  status: 0
  service: 3
latitude: 37.8704624
longitude: -122.2681801
altitude: 26.399
position_covariance: [15.776784, 0.0, 0.0, 0.0, 15.776784, 0.0, 0.0, 0.0, 26.967248999999995]
position_covariance_type: 2
---
header: 
  seq: 9813
  stamp: 
    secs: 1567284548
    nsecs:    435348
  frame_id: "gps"
status: 
  status: 0
  service: 3
latitude: 37.8704594
longitude: -122.2681853
altitude: 27.242
position_covariance: [15.832441000000001, 0.0, 0.0, 0.0, 15.832441000000001, 0.0, 0.0, 0.0, 26.687556000000004]
position_covariance_type: 2
---
header: 
  seq: 9814
  stamp: 
    secs: 1567284549
    nsecs:    435492
  frame_id: "gps"
status: 
  status: 0
  service: 3
latitude: 37.8704564
longitude: -122.2681915
altitude: 28.012
position_covariance: [15.816529, 0.0, 0.0, 0.0, 15.816529, 0.0, 0.0, 0.0, 26.245129000000002]
position_covariance_type: 2
---
header: 
  seq: 9815
  stamp: 
    secs: 1567284550
    nsecs:    435637
  frame_id: "gps"
status: 
  status: 0
  service: 3
latitude: 37.8704525
longitude: -122.2681982
altitude: 28.827
position_covariance: [15.713296, 0.0, 0.0, 0.0, 15.713296, 0.0, 0.0, 0.0, 25.674489]
position_covariance_type: 2
---
header: 
  seq: 9816
  stamp: 
    secs: 1567284551
    nsecs:    435781
  frame_id: "gps"
status: 
  status: 0
  service: 3
latitude: 37.8704494
longitude: -122.2682037
altitude: 29.646
position_covariance: [15.872256, 0.0, 0.0, 0.0, 15.872256, 0.0, 0.0, 0.0, 25.735329000000004]
position_covariance_type: 2
---
header: 
  seq: 9817
  stamp: 
    secs: 1567284552
    nsecs:    435925
  frame_id: "gps"
status: 
  status: 0
  service: 3
latitude: 37.8704455
longitude: -122.2682102
altitude: 30.636
position_covariance: [16.687224999999998, 0.0, 0.0, 0.0, 16.687224999999998, 0.0, 0.0, 0.0, 26.853124000000005]
position_covariance_type: 2
---
header: 
  seq: 9818
  stamp: 
    secs: 1567284553
    nsecs:    436069
  frame_id: "gps"
status: 
  status: 0
  service: 3
latitude: 37.8704421
longitude: -122.268216
altitude: 31.518
position_covariance: [17.825284000000003, 0.0, 0.0, 0.0, 17.825284000000003, 0.0, 0.0, 0.0, 28.270489]
position_covariance_type: 2
---
header: 
  seq: 9819
  stamp: 
    secs: 1567284554
    nsecs:    436213
  frame_id: "gps"
status: 
  status: 0
  service: 3
latitude: 37.8704391
longitude: -122.2682208
altitude: 32.331
position_covariance: [18.948608999999998, 0.0, 0.0, 0.0, 18.948608999999998, 0.0, 0.0, 0.0, 29.942784000000003]
position_covariance_type: 2
---
header: 
  seq: 9820
  stamp: 
    secs: 1567284555
    nsecs:    436358
  frame_id: "gps"
status: 
  status: 0
  service: 3
latitude: 37.8704371
longitude: -122.2682244
altitude: 32.736
position_covariance: [19.035769000000005, 0.0, 0.0, 0.0, 19.035769000000005, 0.0, 0.0, 0.0, 30.008483999999996]
position_covariance_type: 2
---
header: 
  seq: 9821
  stamp: 
    secs: 1567284556
    nsecs:    436503
  frame_id: "gps"
status: 
  status: 0
  service: 3
latitude: 37.8704345
longitude: -122.2682285
altitude: 33.203
position_covariance: [19.298448999999998, 0.0, 0.0, 0.0, 19.298448999999998, 0.0, 0.0, 0.0, 30.470399999999994]
position_covariance_type: 2
---
header: 
  seq: 9822
  stamp: 
    secs: 1567284557
    nsecs:    436647
  frame_id: "gps"
status: 
  status: 0
  service: 3
latitude: 37.8704324
longitude: -122.2682322
altitude: 33.825
position_covariance: [19.642624000000005, 0.0, 0.0, 0.0, 19.642624000000005, 0.0, 0.0, 0.0, 31.259281]
position_covariance_type: 2
---
header: 
  seq: 9823
  stamp: 
    secs: 1567284558
    nsecs:    436792
  frame_id: "gps"
status: 
  status: 0
  service: 3
latitude: 37.8704297
longitude: -122.2682371
altitude: 34.397
position_covariance: [19.580624999999998, 0.0, 0.0, 0.0, 19.580624999999998, 0.0, 0.0, 0.0, 31.404816]
position_covariance_type: 2
---
header: 
  seq: 9824
  stamp: 
    secs: 1567284559
    nsecs:    436936
  frame_id: "gps"
status: 
  status: 0
  service: 3
latitude: 37.8704262
longitude: -122.2682423
altitude: 35.0
position_covariance: [19.527560999999995, 0.0, 0.0, 0.0, 19.527560999999995, 0.0, 0.0, 0.0, 31.618129000000003]
position_covariance_type: 2
---
header: 
  seq: 9825
  stamp: 
    secs: 1567284560
    nsecs:    437080
  frame_id: "gps"
status: 
  status: 0
  service: 3
latitude: 37.8704288
longitude: -122.2682339
altitude: 35.508
position_covariance: [15.626209, 0.0, 0.0, 0.0, 15.626209, 0.0, 0.0, 0.0, 28.890625]
position_covariance_type: 2
---
header: 
  seq: 9826
  stamp: 
    secs: 1567284561
    nsecs:    437226
  frame_id: "gps"
status: 
  status: 0
  service: 3
latitude: 37.8704259
longitude: -122.268232
altitude: 35.661
position_covariance: [13.786369, 0.0, 0.0, 0.0, 13.786369, 0.0, 0.0, 0.0, 27.394756]
position_covariance_type: 2
---
header: 
  seq: 9827
  stamp: 
    secs: 1567284562
    nsecs:    437375
  frame_id: "gps"
status: 
  status: 0
  service: 3
latitude: 37.870425
longitude: -122.2682338
altitude: 34.922
position_covariance: [13.162384000000001, 0.0, 0.0, 0.0, 13.162384000000001, 0.0, 0.0, 0.0, 25.160256]
position_covariance_type: 2
---
header: 
  seq: 9828
  stamp: 
    secs: 1567284563
    nsecs:    437523
  frame_id: "gps"
status: 
  status: 0
  service: 3
latitude: 37.8704243
longitude: -122.2682273
altitude: 34.531
position_covariance: [11.478544, 0.0, 0.0, 0.0, 11.478544, 0.0, 0.0, 0.0, 22.743361]
position_covariance_type: 2
---
header: 
  seq: 9829
  stamp: 
    secs: 1567284564
    nsecs:    437672
  frame_id: "gps"
status: 
  status: 0
  service: 3
latitude: 37.8704154
longitude: -122.2682154
altitude: 33.857
position_covariance: [10.452289, 0.0, 0.0, 0.0, 10.452289, 0.0, 0.0, 0.0, 21.492496000000003]
position_covariance_type: 2
---
header: 
  seq: 9830
  stamp: 
    secs: 1567284565
    nsecs:    437820
  frame_id: "gps"
status: 
  status: 0
  service: 3
latitude: 37.8704017
longitude: -122.2681961
altitude: 33.328
position_covariance: [9.784384000000001, 0.0, 0.0, 0.0, 9.784384000000001, 0.0, 0.0, 0.0, 20.875761]
position_covariance_type: 2
---
header: 
  seq: 9831
  stamp: 
    secs: 1567284566
    nsecs:    437967
  frame_id: "gps"
status: 
  status: 0
  service: 3
latitude: 37.8703798
longitude: -122.2681758
altitude: 33.16
position_covariance: [8.922169, 0.0, 0.0, 0.0, 8.922169, 0.0, 0.0, 0.0, 20.403289000000004]
position_covariance_type: 2
---
header: 
  seq: 9832
  stamp: 
    secs: 1567284567
    nsecs:    438118
  frame_id: "gps"
status: 
  status: 0
  service: 3
latitude: 37.8703585
longitude: -122.2681415
altitude: 31.646
position_covariance: [8.111104, 0.0, 0.0, 0.0, 8.111104, 0.0, 0.0, 0.0, 19.784704000000005]
position_covariance_type: 2
---
header: 
  seq: 9833
  stamp: 
    secs: 1567284568
    nsecs:    438268
  frame_id: "gps"
status: 
  status: 0
  service: 3
latitude: 37.8703391
longitude: -122.2681084
altitude: 30.554
position_covariance: [7.354944000000001, 0.0, 0.0, 0.0, 7.354944000000001, 0.0, 0.0, 0.0, 19.053225]
position_covariance_type: 2
---
header: 
  seq: 9834
  stamp: 
    secs: 1567284569
    nsecs:    438418
  frame_id: "gps"
status: 
  status: 0
  service: 3
latitude: 37.8703254
longitude: -122.2680757
altitude: 29.319
position_covariance: [6.874884, 0.0, 0.0, 0.0, 6.874884, 0.0, 0.0, 0.0, 17.64]
position_covariance_type: 2
---
header: 
  seq: 9835
  stamp: 
    secs: 1567284570
    nsecs:    438567
  frame_id: "gps"
status: 
  status: 0
  service: 3
latitude: 37.870321
longitude: -122.2680454
altitude: 28.68
position_covariance: [6.760000000000001, 0.0, 0.0, 0.0, 6.760000000000001, 0.0, 0.0, 0.0, 17.106496]
position_covariance_type: 2
---
header: 
  seq: 9836
  stamp: 
    secs: 1567284571
    nsecs:    438715
  frame_id: "gps"
status: 
  status: 0
  service: 3
latitude: 37.8703226
longitude: -122.2680196
altitude: 28.195
position_covariance: [6.625475999999999, 0.0, 0.0, 0.0, 6.625475999999999, 0.0, 0.0, 0.0, 15.992001]
position_covariance_type: 2
---
header: 
  seq: 9837
  stamp: 
    secs: 1567284572
    nsecs:    438862
  frame_id: "gps"
status: 
  status: 0
  service: 3
latitude: 37.8703283
longitude: -122.2679988
altitude: 28.056
position_covariance: [6.461763999999999, 0.0, 0.0, 0.0, 6.461763999999999, 0.0, 0.0, 0.0, 15.023375999999999]
position_covariance_type: 2
---
header: 
  seq: 9838
  stamp: 
    secs: 1567284573
    nsecs:    439009
  frame_id: "gps"
status: 
  status: 0
  service: 3
latitude: 37.8703321
longitude: -122.2679862
altitude: 27.653
position_covariance: [6.441443999999999, 0.0, 0.0, 0.0, 6.441443999999999, 0.0, 0.0, 0.0, 14.561855999999999]
position_covariance_type: 2
---
header: 
  seq: 9839
  stamp: 
    secs: 1567284574
    nsecs:    439157
  frame_id: "gps"
status: 
  status: 0
  service: 3
latitude: 37.8703338
longitude: -122.2679852
altitude: 27.359
position_covariance: [6.471936, 0.0, 0.0, 0.0, 6.471936, 0.0, 0.0, 0.0, 14.182756]
position_covariance_type: 2
---
header: 
  seq: 9840
  stamp: 
    secs: 1567284575
    nsecs:    439305
  frame_id: "gps"
status: 
  status: 0
  service: 3
latitude: 37.8703358
longitude: -122.2679849
altitude: 26.972
position_covariance: [6.533136, 0.0, 0.0, 0.0, 6.533136, 0.0, 0.0, 0.0, 13.883075999999999]
position_covariance_type: 2
---
header: 
  seq: 9841
  stamp: 
    secs: 1567284576
    nsecs:    439452
  frame_id: "gps"
status: 
  status: 0
  service: 3
latitude: 37.8703373
longitude: -122.2679856
altitude: 26.795
position_covariance: [6.579225, 0.0, 0.0, 0.0, 6.579225, 0.0, 0.0, 0.0, 13.608721000000001]
position_covariance_type: 2
---
header: 
  seq: 9842
  stamp: 
    secs: 1567284577
    nsecs:    439599
  frame_id: "gps"
status: 
  status: 0
  service: 3
latitude: 37.8703395
longitude: -122.2679856
altitude: 26.671
position_covariance: [6.630625000000001, 0.0, 0.0, 0.0, 6.630625000000001, 0.0, 0.0, 0.0, 13.520329]
position_covariance_type: 2
---
header: 
  seq: 9843
  stamp: 
    secs: 1567284578
    nsecs:    439747
  frame_id: "gps"
status: 
  status: 0
  service: 3
latitude: 37.8703419
longitude: -122.2679845
altitude: 26.335
position_covariance: [6.687396, 0.0, 0.0, 0.0, 6.687396, 0.0, 0.0, 0.0, 13.329800999999998]
position_covariance_type: 2
---
header: 
  seq: 9844
  stamp: 
    secs: 1567284579
    nsecs:    439895
  frame_id: "gps"
status: 
  status: 0
  service: 3
latitude: 37.8703435
longitude: -122.2679835
altitude: 25.968
position_covariance: [6.723649, 0.0, 0.0, 0.0, 6.723649, 0.0, 0.0, 0.0, 13.155128999999999]
position_covariance_type: 2
---
header: 
  seq: 9845
  stamp: 
    secs: 1567284580
    nsecs:    440043
  frame_id: "gps"
status: 
  status: 0
  service: 3
latitude: 37.8703446
longitude: -122.2679817
altitude: 25.507
position_covariance: [6.749604, 0.0, 0.0, 0.0, 6.749604, 0.0, 0.0, 0.0, 12.996025]
position_covariance_type: 2
---
header: 
  seq: 9846
  stamp: 
    secs: 1567284581
    nsecs:    440190
  frame_id: "gps"
status: 
  status: 0
  service: 3
latitude: 37.8703459
longitude: -122.2679795
altitude: 25.085
position_covariance: [6.760000000000001, 0.0, 0.0, 0.0, 6.760000000000001, 0.0, 0.0, 0.0, 12.845056000000001]
position_covariance_type: 2
---
header: 
  seq: 9847
  stamp: 
    secs: 1567284582
    nsecs:    440338
  frame_id: "gps"
status: 
  status: 0
  service: 3
latitude: 37.870347
longitude: -122.2679774
altitude: 24.614
position_covariance: [6.765201, 0.0, 0.0, 0.0, 6.765201, 0.0, 0.0, 0.0, 12.709225]
position_covariance_type: 2
---
header: 
  seq: 9848
  stamp: 
    secs: 1567284583
    nsecs:    440486
  frame_id: "gps"
status: 
  status: 0
  service: 3
latitude: 37.8703483
longitude: -122.2679752
altitude: 24.139
position_covariance: [6.770403999999999, 0.0, 0.0, 0.0, 6.770403999999999, 0.0, 0.0, 0.0, 12.680721]
position_covariance_type: 2
---
header: 
  seq: 9849
  stamp: 
    secs: 1567284584
    nsecs:    440634
  frame_id: "gps"
status: 
  status: 0
  service: 3
latitude: 37.8703495
longitude: -122.2679732
altitude: 23.751
position_covariance: [6.7860249999999995, 0.0, 0.0, 0.0, 6.7860249999999995, 0.0, 0.0, 0.0, 12.659363999999998]
position_covariance_type: 2
---
header: 
  seq: 9850
  stamp: 
    secs: 1567284585
    nsecs:    440782
  frame_id: "gps"
status: 
  status: 0
  service: 3
latitude: 37.8703501
longitude: -122.2679713
altitude: 23.288
position_covariance: [6.791236, 0.0, 0.0, 0.0, 6.791236, 0.0, 0.0, 0.0, 12.552849000000002]
position_covariance_type: 2
---
header: 
  seq: 9851
  stamp: 
    secs: 1567284586
    nsecs:    440930
  frame_id: "gps"
status: 
  status: 0
  service: 3
latitude: 37.8703506
longitude: -122.2679687
altitude: 22.906
position_covariance: [6.796449000000001, 0.0, 0.0, 0.0, 6.796449000000001, 0.0, 0.0, 0.0, 12.439729000000002]
position_covariance_type: 2
---
header: 
  seq: 9852
  stamp: 
    secs: 1567284587
    nsecs:    441078
  frame_id: "gps"
status: 
  status: 0
  service: 3
latitude: 37.870351
longitude: -122.2679661
altitude: 22.475
position_covariance: [6.791236, 0.0, 0.0, 0.0, 6.791236, 0.0, 0.0, 0.0, 12.411529000000002]
position_covariance_type: 2
---
header: 
  seq: 9853
  stamp: 
    secs: 1567284588
    nsecs:    441226
  frame_id: "gps"
status: 
  status: 0
  service: 3
latitude: 37.8703514
longitude: -122.2679639
altitude: 22.088
position_covariance: [6.806881, 0.0, 0.0, 0.0, 6.806881, 0.0, 0.0, 0.0, 12.418576]
position_covariance_type: 2
---
header: 
  seq: 9854
  stamp: 
    secs: 1567284589
    nsecs:    441374
  frame_id: "gps"
status: 
  status: 0
  service: 3
latitude: 37.8703517
longitude: -122.2679618
altitude: 21.754
position_covariance: [6.812099999999999, 0.0, 0.0, 0.0, 6.812099999999999, 0.0, 0.0, 0.0, 12.327121]
position_covariance_type: 2
---
header: 
  seq: 9855
  stamp: 
    secs: 1567284590
    nsecs:    441521
  frame_id: "gps"
status: 
  status: 0
  service: 3
latitude: 37.870352
longitude: -122.2679603
altitude: 21.487
position_covariance: [6.832996, 0.0, 0.0, 0.0, 6.832996, 0.0, 0.0, 0.0, 12.341168999999999]
position_covariance_type: 2
---
header: 
  seq: 9856
  stamp: 
    secs: 1567284591
    nsecs:    441669
  frame_id: "gps"
status: 
  status: 0
  service: 3
latitude: 37.8703525
