header: 
  seq: 20178
  stamp: 
    secs: 1567281056
    nsecs: 974877119
  frame_id: "odom"
status: 
  status: 2
  service: 1
latitude: 37.8719675385
longitude: -122.263969013
altitude: 71.6325234156
position_covariance: [1.0356229511030035, 0.0, 0.0, 0.0, 1.0185038442441814, 0.0, 0.0, 0.0, 1.0489923654541402]
position_covariance_type: 2
---
header: 
  seq: 20179
  stamp: 
    secs: 1567281057
    nsecs:  28498888
  frame_id: "odom"
status: 
  status: 2
  service: 1
latitude: 37.8719675406
longitude: -122.263969014
altitude: 71.6324090185
position_covariance: [1.0356229511030035, 0.0, 0.0, 0.0, 1.0185038442441814, 0.0, 0.0, 0.0, 1.0489923654541402]
position_covariance_type: 2
---
header: 
  seq: 20180
  stamp: 
    secs: 1567281057
    nsecs:  81859111
  frame_id: "odom"
status: 
  status: 2
  service: 1
latitude: 37.8719675426
longitude: -122.263969014
altitude: 71.6322943112
position_covariance: [1.0356229511030035, 0.0, 0.0, 0.0, 1.0185038442441814, 0.0, 0.0, 0.0, 1.0489923654541402]
position_covariance_type: 2
---
header: 
  seq: 20181
  stamp: 
    secs: 1567281057
    nsecs: 135464906
  frame_id: "odom"
status: 
  status: 2
  service: 1
latitude: 37.8719675441
longitude: -122.263969014
altitude: 71.6322082523
position_covariance: [1.0345200336719373, 0.0, 0.0, 0.0, 1.018128927760668, 0.0, 0.0, 0.0, 1.0479181003278832]
position_covariance_type: 2
---
header: 
  seq: 20182
  stamp: 
    secs: 1567281057
    nsecs: 188741922
  frame_id: "odom"
status: 
  status: 2
  service: 1
latitude: 37.8719675456
longitude: -122.263969015
altitude: 71.6321093943
position_covariance: [1.0345200336719373, 0.0, 0.0, 0.0, 1.018128927760668, 0.0, 0.0, 0.0, 1.0479181003278832]
position_covariance_type: 2
---
header: 
  seq: 20183
  stamp: 
    secs: 1567281057
    nsecs: 220066070
  frame_id: "odom"
status: 
  status: 2
  service: 1
latitude: 37.8719675472
longitude: -122.263969015
altitude: 71.6320153484
position_covariance: [1.0345200336719373, 0.0, 0.0, 0.0, 1.018128927760668, 0.0, 0.0, 0.0, 1.0479181003278832]
position_covariance_type: 2
---
header: 
  seq: 20184
  stamp: 
    secs: 1567281057
    nsecs: 273003101
  frame_id: "odom"
status: 
  status: 2
  service: 1
latitude: 37.8719675488
longitude: -122.263969015
altitude: 71.6319477549
position_covariance: [1.0345200336719373, 0.0, 0.0, 0.0, 1.018128927760668, 0.0, 0.0, 0.0, 1.0479181003278832]
position_covariance_type: 2
---
header: 
  seq: 20185
  stamp: 
    secs: 1567281057
    nsecs: 326525926
  frame_id: "odom"
status: 
  status: 2
  service: 1
latitude: 37.8719675505
longitude: -122.263969015
altitude: 71.6318553211
position_covariance: [1.0345200336719373, 0.0, 0.0, 0.0, 1.018128927760668, 0.0, 0.0, 0.0, 1.0479181003278832]
position_covariance_type: 2
---
header: 
  seq: 20186
  stamp: 
    secs: 1567281057
    nsecs: 366168022
  frame_id: "odom"
status: 
  status: 2
  service: 1
latitude: 37.8719675521
longitude: -122.263969015
altitude: 71.6317679463
position_covariance: [1.0345200336719373, 0.0, 0.0, 0.0, 1.018128927760668, 0.0, 0.0, 0.0, 1.0479181003278832]
position_covariance_type: 2
---
header: 
  seq: 20187
  stamp: 
    secs: 1567281057
    nsecs: 419697999
  frame_id: "odom"
status: 
  status: 2
  service: 1
latitude: 37.8719675538
longitude: -122.263969016
altitude: 71.6316687111
position_covariance: [1.0345200336719373, 0.0, 0.0, 0.0, 1.018128927760668, 0.0, 0.0, 0.0, 1.0479181003278832]
position_covariance_type: 2
---
header: 
  seq: 20188
  stamp: 
    secs: 1567281057
    nsecs: 473159074
  frame_id: "odom"
status: 
  status: 2
  service: 1
latitude: 37.8719675554
longitude: -122.263969016
altitude: 71.6315656425
position_covariance: [1.0345200336719373, 0.0, 0.0, 0.0, 1.018128927760668, 0.0, 0.0, 0.0, 1.0479181003278832]
position_covariance_type: 2
---
header: 
  seq: 20189
  stamp: 
    secs: 1567281057
    nsecs: 518635988
  frame_id: "odom"
status: 
  status: 2
  service: 1
latitude: 37.871967557
longitude: -122.263969016
altitude: 71.6314616036
position_covariance: [1.0345200336719373, 0.0, 0.0, 0.0, 1.018128927760668, 0.0, 0.0, 0.0, 1.0479181003278832]
position_covariance_type: 2
---
header: 
  seq: 20190
  stamp: 
    secs: 1567281057
    nsecs: 572031021
  frame_id: "odom"
status: 
  status: 2
  service: 1
latitude: 37.8719675586
longitude: -122.263969016
altitude: 71.6313648941
position_covariance: [1.0345200336719373, 0.0, 0.0, 0.0, 1.018128927760668, 0.0, 0.0, 0.0, 1.0479181003278832]
position_covariance_type: 2
---
header: 
  seq: 20191
  stamp: 
    secs: 1567281057
    nsecs: 625400066
  frame_id: "odom"
status: 
  status: 2
  service: 1
latitude: 37.8719675603
longitude: -122.263969017
altitude: 71.631273414
position_covariance: [1.0345200336719373, 0.0, 0.0, 0.0, 1.018128927760668, 0.0, 0.0, 0.0, 1.0479181003278832]
position_covariance_type: 2
---
header: 
  seq: 20192
  stamp: 
    secs: 1567281057
    nsecs: 678739070
  frame_id: "odom"
status: 
  status: 2
  service: 1
latitude: 37.8719675621
longitude: -122.263969017
altitude: 71.6311739674
position_covariance: [1.0345200336719373, 0.0, 0.0, 0.0, 1.018128927760668, 0.0, 0.0, 0.0, 1.0479181003278832]
position_covariance_type: 2
---
header: 
  seq: 20193
  stamp: 
    secs: 1567281057
    nsecs: 732455015
  frame_id: "odom"
status: 
  status: 2
  service: 1
latitude: 37.8719675639
longitude: -122.263969018
altitude: 71.6310670804
position_covariance: [1.0345200336719373, 0.0, 0.0, 0.0, 1.018128927760668, 0.0, 0.0, 0.0, 1.0479181003278832]
position_covariance_type: 2
---
header: 
  seq: 20194
  stamp: 
    secs: 1567281057
    nsecs: 785670042
  frame_id: "odom"
status: 
  status: 2
  service: 1
latitude: 37.8719675658
longitude: -122.263969018
altitude: 71.6309537552
position_covariance: [1.0345200336719373, 0.0, 0.0, 0.0, 1.018128927760668, 0.0, 0.0, 0.0, 1.0479181003278832]
position_covariance_type: 2
---
header: 
  seq: 20195
  stamp: 
    secs: 1567281057
    nsecs: 839135885
  frame_id: "odom"
status: 
  status: 2
  service: 1
latitude: 37.8719675675
longitude: -122.263969019
altitude: 71.6308486238
position_covariance: [1.0345200336719373, 0.0, 0.0, 0.0, 1.018128927760668, 0.0, 0.0, 0.0, 1.0479181003278832]
position_covariance_type: 2
---
header: 
  seq: 20196
  stamp: 
    secs: 1567281057
    nsecs: 870095968
  frame_id: "odom"
status: 
  status: 2
  service: 1
latitude: 37.8719675693
longitude: -122.263969019
altitude: 71.6307530133
position_covariance: [1.0345200336719373, 0.0, 0.0, 0.0, 1.018128927760668, 0.0, 0.0, 0.0, 1.0479181003278832]
position_covariance_type: 2
---
header: 
  seq: 20197
  stamp: 
    secs: 1567281057
    nsecs: 968291997
  frame_id: "odom"
status: 
  status: 2
  service: 1
latitude: 37.871967573
longitude: -122.26396902
altitude: 71.6305771591
position_covariance: [1.0345200336719373, 0.0, 0.0, 0.0, 1.018128927760668, 0.0, 0.0, 0.0, 1.0479181003278832]
position_covariance_type: 2
---
header: 
  seq: 20198
  stamp: 
    secs: 1567281058
    nsecs:   7879972
  frame_id: "odom"
status: 
  status: 2
  service: 1
latitude: 37.8719675751
longitude: -122.26396902
altitude: 71.6304970002
position_covariance: [1.0345200336719373, 0.0, 0.0, 0.0, 1.018128927760668, 0.0, 0.0, 0.0, 1.0479181003278832]
position_covariance_type: 2
---
header: 
  seq: 20199
  stamp: 
    secs: 1567281058
    nsecs:  61336040
  frame_id: "odom"
status: 
  status: 2
  service: 1
latitude: 37.871967577
longitude: -122.263969021
altitude: 71.6304124361
position_covariance: [1.0345200336719373, 0.0, 0.0, 0.0, 1.018128927760668, 0.0, 0.0, 0.0, 1.0479181003278832]
position_covariance_type: 2
---
header: 
  seq: 20200
  stamp: 
    secs: 1567281058
    nsecs: 114870071
  frame_id: "odom"
status: 
  status: 2
  service: 1
latitude: 37.8719675781
longitude: -122.263969021
altitude: 71.6303378893
position_covariance: [1.033544858596447, 0.0, 0.0, 0.0, 1.0178125284552342, 0.0, 0.0, 0.0, 1.0469321313429523]
position_covariance_type: 2
---
header: 
  seq: 20201
  stamp: 
    secs: 1567281058
    nsecs: 168248891
  frame_id: "odom"
status: 
  status: 2
  service: 1
latitude: 37.8719675794
longitude: -122.263969021
altitude: 71.630232973
position_covariance: [1.033544858596447, 0.0, 0.0, 0.0, 1.0178125284552342, 0.0, 0.0, 0.0, 1.0469321313429523]
position_covariance_type: 2
---
header: 
  seq: 20202
  stamp: 
    secs: 1567281058
    nsecs: 221679925
  frame_id: "odom"
status: 
  status: 2
  service: 1
latitude: 37.8719675808
longitude: -122.263969021
altitude: 71.6301254285
position_covariance: [1.033544858596447, 0.0, 0.0, 0.0, 1.0178125284552342, 0.0, 0.0, 0.0, 1.0469321313429523]
position_covariance_type: 2
---
header: 
  seq: 20203
  stamp: 
    secs: 1567281058
    nsecs: 275089025
  frame_id: "odom"
status: 
  status: 2
  service: 1
latitude: 37.871967582
longitude: -122.263969022
altitude: 71.6300202105
position_covariance: [1.033544858596447, 0.0, 0.0, 0.0, 1.0178125284552342, 0.0, 0.0, 0.0, 1.0469321313429523]
position_covariance_type: 2
---
header: 
  seq: 20204
  stamp: 
    secs: 1567281058
    nsecs: 328721046
  frame_id: "odom"
status: 
  status: 2
  service: 1
latitude: 37.8719675834
longitude: -122.263969022
altitude: 71.629908029
position_covariance: [1.033544858596447, 0.0, 0.0, 0.0, 1.0178125284552342, 0.0, 0.0, 0.0, 1.0469321313429523]
position_covariance_type: 2
---
header: 
  seq: 20205
  stamp: 
    secs: 1567281058
    nsecs: 381999015
  frame_id: "odom"
status: 
  status: 2
  service: 1
latitude: 37.8719675847
longitude: -122.263969022
altitude: 71.6297920244
position_covariance: [1.033544858596447, 0.0, 0.0, 0.0, 1.0178125284552342, 0.0, 0.0, 0.0, 1.0469321313429523]
position_covariance_type: 2
---
header: 
  seq: 20206
  stamp: 
    secs: 1567281058
    nsecs: 435517072
  frame_id: "odom"
status: 
  status: 2
  service: 1
latitude: 37.8719675859
longitude: -122.263969022
altitude: 71.6296704458
position_covariance: [1.033544858596447, 0.0, 0.0, 0.0, 1.0178125284552342, 0.0, 0.0, 0.0, 1.0469321313429523]
position_covariance_type: 2
---
header: 
  seq: 20207
  stamp: 
    secs: 1567281058
    nsecs: 488898992
  frame_id: "odom"
status: 
  status: 2
  service: 1
latitude: 37.8719675871
longitude: -122.263969022
altitude: 71.6295512831
position_covariance: [1.033544858596447, 0.0, 0.0, 0.0, 1.0178125284552342, 0.0, 0.0, 0.0, 1.0469321313429523]
position_covariance_type: 2
---
header: 
  seq: 20208
  stamp: 
    secs: 1567281058
    nsecs: 534432888
  frame_id: "odom"
status: 
  status: 2
  service: 1
latitude: 37.8719675885
longitude: -122.263969022
altitude: 71.6294259699
position_covariance: [1.033544858596447, 0.0, 0.0, 0.0, 1.0178125284552342, 0.0, 0.0, 0.0, 1.0469321313429523]
position_covariance_type: 2
---
header: 
  seq: 20209
  stamp: 
    secs: 1567281058
    nsecs: 587778091
  frame_id: "odom"
status: 
  status: 2
  service: 1
latitude: 37.8719675897
longitude: -122.263969022
altitude: 71.6293061776
position_covariance: [1.033544858596447, 0.0, 0.0, 0.0, 1.0178125284552342, 0.0, 0.0, 0.0, 1.0469321313429523]
position_covariance_type: 2
---
header: 
  seq: 20210
  stamp: 
    secs: 1567281058
    nsecs: 618690967
  frame_id: "odom"
status: 
  status: 2
  service: 1
latitude: 37.871967591
longitude: -122.263969022
altitude: 71.6291880039
position_covariance: [1.033544858596447, 0.0, 0.0, 0.0, 1.0178125284552342, 0.0, 0.0, 0.0, 1.0469321313429523]
position_covariance_type: 2
---
header: 
  seq: 20211
  stamp: 
    secs: 1567281058
    nsecs: 672077894
  frame_id: "odom"
status: 
  status: 2
  service: 1
latitude: 37.8719675924
longitude: -122.263969022
altitude: 71.6290704533
position_covariance: [1.033544858596447, 0.0, 0.0, 0.0, 1.0178125284552342, 0.0, 0.0, 0.0, 1.0469321313429523]
position_covariance_type: 2
---
header: 
  seq: 20212
  stamp: 
    secs: 1567281058
    nsecs: 725528955
  frame_id: "odom"
status: 
  status: 2
  service: 1
latitude: 37.8719675939
longitude: -122.263969022
altitude: 71.6289399229
position_covariance: [1.033544858596447, 0.0, 0.0, 0.0, 1.0178125284552342, 0.0, 0.0, 0.0, 1.0469321313429523]
position_covariance_type: 2
---
header: 
  seq: 20213
  stamp: 
    secs: 1567281058
    nsecs: 778973102
  frame_id: "odom"
status: 
  status: 2
  service: 1
latitude: 37.8719675955
longitude: -122.263969022
altitude: 71.6288202927
position_covariance: [1.033544858596447, 0.0, 0.0, 0.0, 1.0178125284552342, 0.0, 0.0, 0.0, 1.0469321313429523]
position_covariance_type: 2
---
header: 
  seq: 20214
  stamp: 
    secs: 1567281058
    nsecs: 824404001
  frame_id: "odom"
status: 
  status: 2
  service: 1
latitude: 37.871967597
longitude: -122.263969023
altitude: 71.6287185438
position_covariance: [1.033544858596447, 0.0, 0.0, 0.0, 1.0178125284552342, 0.0, 0.0, 0.0, 1.0469321313429523]
position_covariance_type: 2
---
header: 
  seq: 20215
  stamp: 
    secs: 1567281058
    nsecs: 877728939
  frame_id: "odom"
status: 
  status: 2
  service: 1
latitude: 37.8719675985
longitude: -122.263969023
altitude: 71.6286103409
position_covariance: [1.033544858596447, 0.0, 0.0, 0.0, 1.0178125284552342, 0.0, 0.0, 0.0, 1.0469321313429523]
position_covariance_type: 2
---
header: 
  seq: 20216
  stamp: 
    secs: 1567281058
    nsecs: 931271076
  frame_id: "odom"
status: 
  status: 2
  service: 1
latitude: 37.8719676001
longitude: -122.263969023
altitude: 71.6285086218
position_covariance: [1.033544858596447, 0.0, 0.0, 0.0, 1.0178125284552342, 0.0, 0.0, 0.0, 1.0469321313429523]
position_covariance_type: 2
---
header: 
  seq: 20217
  stamp: 
    secs: 1567281059
    nsecs:  20466089
  frame_id: "odom"
status: 
  status: 2
  service: 1
latitude: 37.8719676033
longitude: -122.263969023
altitude: 71.6282949084
position_covariance: [1.033544858596447, 0.0, 0.0, 0.0, 1.0178125284552342, 0.0, 0.0, 0.0, 1.0469321313429523]
position_covariance_type: 2
---
header: 
  seq: 20218
  stamp: 
    secs: 1567281059
    nsecs:  73848009
  frame_id: "odom"
status: 
  status: 2
  service: 1
latitude: 37.8719676049
longitude: -122.263969023
altitude: 71.6281930627
position_covariance: [1.033544858596447, 0.0, 0.0, 0.0, 1.0178125284552342, 0.0, 0.0, 0.0, 1.0469321313429523]
position_covariance_type: 2
---
header: 
  seq: 20219
  stamp: 
    secs: 1567281059
    nsecs: 127383947
  frame_id: "odom"
status: 
  status: 2
  service: 1
latitude: 37.8719676061
longitude: -122.263969024
altitude: 71.6281174906
position_covariance: [1.0326766247218604, 0.0, 0.0, 0.0, 1.0175436050040696, 0.0, 0.0, 0.0, 1.0460236340191955]
position_covariance_type: 2
---
header: 
  seq: 20220
  stamp: 
    secs: 1567281059
    nsecs: 180792093
  frame_id: "odom"
status: 
  status: 2
  service: 1
latitude: 37.8719676072
longitude: -122.263969024
altitude: 71.6280415002
position_covariance: [1.0326766247218604, 0.0, 0.0, 0.0, 1.0175436050040696, 0.0, 0.0, 0.0, 1.0460236340191955]
position_covariance_type: 2
---
header: 
  seq: 20221
  stamp: 
    secs: 1567281059
    nsecs: 234241008
  frame_id: "odom"
status: 
  status: 2
  service: 1
latitude: 37.8719676084
longitude: -122.263969025
altitude: 71.6279578134
position_covariance: [1.0326766247218604, 0.0, 0.0, 0.0, 1.0175436050040696, 0.0, 0.0, 0.0, 1.0460236340191955]
position_covariance_type: 2
---
header: 
  seq: 20222
  stamp: 
    secs: 1567281059
    nsecs: 324174880
  frame_id: "odom"
status: 
  status: 2
  service: 1
latitude: 37.8719676111
longitude: -122.263969026
altitude: 71.6277868608
position_covariance: [1.0326766247218604, 0.0, 0.0, 0.0, 1.0175436050040696, 0.0, 0.0, 0.0, 1.0460236340191955]
position_covariance_type: 2
---
header: 
  seq: 20223
  stamp: 
    secs: 1567281059
    nsecs: 377497911
  frame_id: "odom"
status: 
  status: 2
  service: 1
latitude: 37.8719676123
longitude: -122.263969026
altitude: 71.6277095769
position_covariance: [1.0326766247218604, 0.0, 0.0, 0.0, 1.0175436050040696, 0.0, 0.0, 0.0, 1.0460236340191955]
position_covariance_type: 2
---
header: 
  seq: 20224
  stamp: 
    secs: 1567281059
    nsecs: 430944919
  frame_id: "odom"
status: 
  status: 2
  service: 1
latitude: 37.8719676136
longitude: -122.263969027
altitude: 71.6276358999
position_covariance: [1.0326766247218604, 0.0, 0.0, 0.0, 1.0175436050040696, 0.0, 0.0, 0.0, 1.0460236340191955]
position_covariance_type: 2
---
header: 
  seq: 20225
  stamp: 
    secs: 1567281059
    nsecs: 484272956
  frame_id: "odom"
status: 
  status: 2
  service: 1
latitude: 37.871967615
longitude: -122.263969027
altitude: 71.6275539109
position_covariance: [1.0326766247218604, 0.0, 0.0, 0.0, 1.0175436050040696, 0.0, 0.0, 0.0, 1.0460236340191955]
position_covariance_type: 2
---
header: 
  seq: 20226
  stamp: 
    secs: 1567281059
    nsecs: 568468093
  frame_id: "odom"
status: 
  status: 2
  service: 1
latitude: 37.8719676179
longitude: -122.263969029
altitude: 71.6273971377
position_covariance: [1.0326766247218604, 0.0, 0.0, 0.0, 1.0175436050040696, 0.0, 0.0, 0.0, 1.0460236340191955]
position_covariance_type: 2
---
header: 
  seq: 20227
  stamp: 
    secs: 1567281059
    nsecs: 621922969
  frame_id: "odom"
status: 
  status: 2
  service: 1
latitude: 37.8719676194
longitude: -122.263969029
altitude: 71.6273076413
position_covariance: [1.0326766247218604, 0.0, 0.0, 0.0, 1.0175436050040696, 0.0, 0.0, 0.0, 1.0460236340191955]
position_covariance_type: 2
---
header: 
  seq: 20228
  stamp: 
    secs: 1567281059
    nsecs: 675308942
  frame_id: "odom"
status: 
  status: 2
  service: 1
latitude: 37.8719676209
longitude: -122.263969029
altitude: 71.6272156043
position_covariance: [1.0326766247218604, 0.0, 0.0, 0.0, 1.0175436050040696, 0.0, 0.0, 0.0, 1.0460236340191955]
position_covariance_type: 2
---
header: 
  seq: 20229
  stamp: 
    secs: 1567281059
    nsecs: 728810071
  frame_id: "odom"
status: 
  status: 2
  service: 1
latitude: 37.8719676223
longitude: -122.26396903
altitude: 71.6271374989
position_covariance: [1.0326766247218604, 0.0, 0.0, 0.0, 1.0175436050040696, 0.0, 0.0, 0.0, 1.0460236340191955]
position_covariance_type: 2
---
header: 
  seq: 20230
  stamp: 
    secs: 1567281059
    nsecs: 782098054
  frame_id: "odom"
status: 
  status: 2
  service: 1
latitude: 37.8719676238
longitude: -122.26396903
altitude: 71.6270604171
position_covariance: [1.0326766247218604, 0.0, 0.0, 0.0, 1.0175436050040696, 0.0, 0.0, 0.0, 1.0460236340191955]
position_covariance_type: 2
---
header: 
  seq: 20231
  stamp: 
    secs: 1567281059
    nsecs: 835741996
  frame_id: "odom"
status: 
  status: 2
  service: 1
latitude: 37.8719676254
longitude: -122.263969031
altitude: 71.6269914694
position_covariance: [1.0326766247218604, 0.0, 0.0, 0.0, 1.0175436050040696, 0.0, 0.0, 0.0, 1.0460236340191955]
position_covariance_type: 2
---
header: 
  seq: 20232
  stamp: 
    secs: 1567281059
    nsecs: 889111995
  frame_id: "odom"
status: 
  status: 2
  service: 1
latitude: 37.8719676268
longitude: -122.263969031
altitude: 71.6269239755
position_covariance: [1.0326766247218604, 0.0, 0.0, 0.0, 1.0175436050040696, 0.0, 0.0, 0.0, 1.0460236340191955]
position_covariance_type: 2
---
header: 
  seq: 20233
  stamp: 
    secs: 1567281059
    nsecs: 942554950
  frame_id: "odom"
status: 
  status: 2
  service: 1
latitude: 37.8719676283
longitude: -122.263969032
altitude: 71.6268524285
position_covariance: [1.0326766247218604, 0.0, 0.0, 0.0, 1.0175436050040696, 0.0, 0.0, 0.0, 1.0460236340191955]
position_covariance_type: 2
---
header: 
  seq: 20234
  stamp: 
    secs: 1567281059
    nsecs: 973332881
  frame_id: "odom"
status: 
  status: 2
  service: 1
latitude: 37.8719676299
longitude: -122.263969032
altitude: 71.6267908951
position_covariance: [1.0326766247218604, 0.0, 0.0, 0.0, 1.0175436050040696, 0.0, 0.0, 0.0, 1.0460236340191955]
position_covariance_type: 2
---
header: 
  seq: 20235
  stamp: 
    secs: 1567281060
    nsecs:  26808023
  frame_id: "odom"
status: 
  status: 2
  service: 1
latitude: 37.8719676314
longitude: -122.263969032
altitude: 71.6267289044
position_covariance: [1.0326766247218604, 0.0, 0.0, 0.0, 1.0175436050040696, 0.0, 0.0, 0.0, 1.0460236340191955]
position_covariance_type: 2
---
header: 
  seq: 20236
  stamp: 
    secs: 1567281060
    nsecs:  72333097
  frame_id: "odom"
status: 
  status: 2
  service: 1
latitude: 37.871967633
longitude: -122.263969033
altitude: 71.626671141
position_covariance: [1.0326766247218604, 0.0, 0.0, 0.0, 1.0175436050040696, 0.0, 0.0, 0.0, 1.0460236340191955]
position_covariance_type: 2
---
header: 
  seq: 20237
  stamp: 
    secs: 1567281060
    nsecs: 125720977
  frame_id: "odom"
status: 
  status: 2
  service: 1
latitude: 37.8719676336
longitude: -122.263969033
altitude: 71.6265997849
position_covariance: [1.0318992791109285, 0.0, 0.0, 0.0, 1.0173145898327018, 0.0, 0.0, 0.0, 1.0451837826660388]
position_covariance_type: 2
---
header: 
  seq: 20238
  stamp: 
    secs: 1567281060
    nsecs: 179177045
  frame_id: "odom"
status: 
  status: 2
  service: 1
latitude: 37.8719676344
longitude: -122.263969033
altitude: 71.6265080031
position_covariance: [1.0318992791109285, 0.0, 0.0, 0.0, 1.0173145898327018, 0.0, 0.0, 0.0, 1.0451837826660388]
position_covariance_type: 2
---
header: 
  seq: 20239
  stamp: 
    secs: 1567281060
    nsecs: 232662916
  frame_id: "odom"
status: 
  status: 2
  service: 1
latitude: 37.8719676352
longitude: -122.263969034
altitude: 71.6264126003
position_covariance: [1.0318992791109285, 0.0, 0.0, 0.0, 1.0173145898327018, 0.0, 0.0, 0.0, 1.0451837826660388]
position_covariance_type: 2
---
header: 
  seq: 20240
  stamp: 
    secs: 1567281060
    nsecs: 330445051
  frame_id: "odom"
status: 
  status: 2
  service: 1
latitude: 37.8719676371
longitude: -122.263969034
altitude: 71.626222251
position_covariance: [1.0318992791109285, 0.0, 0.0, 0.0, 1.0173145898327018, 0.0, 0.0, 0.0, 1.0451837826660388]
position_covariance_type: 2
---
header: 
  seq: 20241
  stamp: 
    secs: 1567281060
    nsecs: 370156049
  frame_id: "odom"
status: 
  status: 2
  service: 1
latitude: 37.8719676379
longitude: -122.263969035
altitude: 71.6261274014
position_covariance: [1.0318992791109285, 0.0, 0.0, 0.0, 1.0173145898327018, 0.0, 0.0, 0.0, 1.0451837826660388]
position_covariance_type: 2
---
header: 
  seq: 20242
  stamp: 
    secs: 1567281060
    nsecs: 423556089
  frame_id: "odom"
status: 
  status: 2
  service: 1
latitude: 37.8719676387
longitude: -122.263969035
altitude: 71.6260240749
position_covariance: [1.0318992791109285, 0.0, 0.0, 0.0, 1.0173145898327018, 0.0, 0.0, 0.0, 1.0451837826660388]
position_covariance_type: 2
---
header: 
  seq: 20243
  stamp: 
    secs: 1567281060
    nsecs: 476985931
  frame_id: "odom"
status: 
  status: 2
  service: 1
latitude: 37.8719676396
longitude: -122.263969035
altitude: 71.625909335
position_covariance: [1.0318992791109285, 0.0, 0.0, 0.0, 1.0173145898327018, 0.0, 0.0, 0.0, 1.0451837826660388]
position_covariance_type: 2
---
header: 
  seq: 20244
  stamp: 
    secs: 1567281060
    nsecs: 530508995
  frame_id: "odom"
status: 
  status: 2
  service: 1
latitude: 37.8719676406
longitude: -122.263969036
altitude: 71.6258008014
position_covariance: [1.0318992791109285, 0.0, 0.0, 0.0, 1.0173145898327018, 0.0, 0.0, 0.0, 1.0451837826660388]
position_covariance_type: 2
---
header: 
  seq: 20245
  stamp: 
    secs: 1567281060
    nsecs: 561275959
  frame_id: "odom"
status: 
  status: 2
  service: 1
latitude: 37.8719676416
longitude: -122.263969036
altitude: 71.6256988002
position_covariance: [1.0318992791109285, 0.0, 0.0, 0.0, 1.0173145898327018, 0.0, 0.0, 0.0, 1.0451837826660388]
position_covariance_type: 2
---
header: 
  seq: 20246
  stamp: 
    secs: 1567281060
    nsecs: 614885091
  frame_id: "odom"
status: 
  status: 2
  service: 1
latitude: 37.8719676426
longitude: -122.263969036
altitude: 71.6255989224
position_covariance: [1.0318992791109285, 0.0, 0.0, 0.0, 1.0173145898327018, 0.0, 0.0, 0.0, 1.0451837826660388]
position_covariance_type: 2
---
header: 
  seq: 20247
  stamp: 
    secs: 1567281060
    nsecs: 668210029
  frame_id: "odom"
status: 
  status: 2
  service: 1
latitude: 37.8719676437
longitude: -122.263969037
altitude: 71.6254941477
position_covariance: [1.0318992791109285, 0.0, 0.0, 0.0, 1.0173145898327018, 0.0, 0.0, 0.0, 1.0451837826660388]
position_covariance_type: 2
---
header: 
  seq: 20248
  stamp: 
    secs: 1567281060
    nsecs: 721761941
  frame_id: "odom"
status: 
  status: 2
  service: 1
latitude: 37.8719676448
longitude: -122.263969037
altitude: 71.6253768681
position_covariance: [1.0318992791109285, 0.0, 0.0, 0.0, 1.0173145898327018, 0.0, 0.0, 0.0, 1.0451837826660388]
position_covariance_type: 2
---
header: 
  seq: 20249
  stamp: 
    secs: 1567281060
    nsecs: 775211095
  frame_id: "odom"
status: 
  status: 2
  service: 1
latitude: 37.871967646
longitude: -122.263969038
altitude: 71.6252613068
position_covariance: [1.0318992791109285, 0.0, 0.0, 0.0, 1.0173145898327018, 0.0, 0.0, 0.0, 1.0451837826660388]
position_covariance_type: 2
---
header: 
  seq: 20250
  stamp: 
    secs: 1567281060
    nsecs: 828650951
  frame_id: "odom"
status: 
  status: 2
  service: 1
latitude: 37.8719676471
longitude: -122.263969038
altitude: 71.6251459252
position_covariance: [1.0318992791109285, 0.0, 0.0, 0.0, 1.0173145898327018, 0.0, 0.0, 0.0, 1.0451837826660388]
position_covariance_type: 2
---
header: 
  seq: 20251
  stamp: 
    secs: 1567281060
    nsecs: 874058961
  frame_id: "odom"
status: 
  status: 2
  service: 1
latitude: 37.8719676482
longitude: -122.263969039
altitude: 71.6250356669
position_covariance: [1.0318992791109285, 0.0, 0.0, 0.0, 1.0173145898327018, 0.0, 0.0, 0.0, 1.0451837826660388]
position_covariance_type: 2
---
header: 
  seq: 20252
  stamp: 
    secs: 1567281060
    nsecs: 904706001
  frame_id: "odom"
status: 
  status: 2
  service: 1
latitude: 37.8719676493
longitude: -122.263969039
altitude: 71.6249074778
position_covariance: [1.0318992791109285, 0.0, 0.0, 0.0, 1.0173145898327018, 0.0, 0.0, 0.0, 1.0451837826660388]
position_covariance_type: 2
---
header: 
  seq: 20253
  stamp: 
    secs: 1567281060
    nsecs: 958197116
  frame_id: "odom"
status: 
  status: 2
  service: 1
latitude: 37.8719676505
longitude: -122.26396904
altitude: 71.6247864785
position_covariance: [1.0318992791109285, 0.0, 0.0, 0.0, 1.0173145898327018, 0.0, 0.0, 0.0, 1.0451837826660388]
position_covariance_type: 2
---
header: 
  seq: 20254
  stamp: 
    secs: 1567281061
    nsecs:  11665105
  frame_id: "odom"
status: 
  status: 2
  service: 1
latitude: 37.8719676516
longitude: -122.26396904
altitude: 71.6246602107
position_covariance: [1.0318992791109285, 0.0, 0.0, 0.0, 1.0173145898327018, 0.0, 0.0, 0.0, 1.0451837826660388]
position_covariance_type: 2
---
header: 
  seq: 20255
  stamp: 
    secs: 1567281061
    nsecs:  65114021
  frame_id: "odom"
status: 
  status: 2
  service: 1
latitude: 37.8719676528
longitude: -122.263969041
altitude: 71.6245367061
position_covariance: [1.0318992791109285, 0.0, 0.0, 0.0, 1.0173145898327018, 0.0, 0.0, 0.0, 1.0451837826660388]
position_covariance_type: 2
---
header: 
  seq: 20256
  stamp: 
    secs: 1567281061
    nsecs: 104868888
  frame_id: "odom"
status: 
  status: 2
  service: 1
latitude: 37.8719676532
longitude: -122.263969041
altitude: 71.6244385475
position_covariance: [1.0312004221321804, 0.0, 0.0, 0.0, 1.0171193115908828, 0.0, 0.0, 0.0, 1.0444052233603769]
position_covariance_type: 2
---
header: 
  seq: 20257
  stamp: 
    secs: 1567281061
    nsecs: 158237934
  frame_id: "odom"
status: 
  status: 2
  service: 1
latitude: 37.8719676537
longitude: -122.263969041
altitude: 71.6243268214
position_covariance: [1.0312004221321804, 0.0, 0.0, 0.0, 1.0171193115908828, 0.0, 0.0, 0.0, 1.0444052233603769]
position_covariance_type: 2
---
header: 
  seq: 20258
  stamp: 
    secs: 1567281061
    nsecs: 211749076
  frame_id: "odom"
status: 
  status: 2
  service: 1
latitude: 37.8719676541
longitude: -122.263969041
altitude: 71.6242216956
position_covariance: [1.0312004221321804, 0.0, 0.0, 0.0, 1.0171193115908828, 0.0, 0.0, 0.0, 1.0444052233603769]
position_covariance_type: 2
---
header: 
  seq: 20259
  stamp: 
    secs: 1567281061
    nsecs: 265069961
  frame_id: "odom"
status: 
  status: 2
  service: 1
latitude: 37.8719676546
longitude: -122.263969041
altitude: 71.6241235062
position_covariance: [1.0312004221321804, 0.0, 0.0, 0.0, 1.0171193115908828, 0.0, 0.0, 0.0, 1.0444052233603769]
position_covariance_type: 2
---
header: 
  seq: 20260
  stamp: 
    secs: 1567281061
    nsecs: 304819107
  frame_id: "odom"
status: 
  status: 2
  service: 1
latitude: 37.8719676549
longitude: -122.263969041
altitude: 71.6240357179
position_covariance: [1.0312004221321804, 0.0, 0.0, 0.0, 1.0171193115908828, 0.0, 0.0, 0.0, 1.0444052233603769]
position_covariance_type: 2
---
header: 
  seq: 20261
  stamp: 
    secs: 1567281061
    nsecs: 358264923
  frame_id: "odom"
status: 
  status: 2
  service: 1
latitude: 37.8719676554
longitude: -122.263969041
altitude: 71.6239440124
position_covariance: [1.0312004221321804, 0.0, 0.0, 0.0, 1.0171193115908828, 0.0, 0.0, 0.0, 1.0444052233603769]
position_covariance_type: 2
---
header: 
  seq: 20262
  stamp: 
    secs: 1567281061
    nsecs: 411741971
  frame_id: "odom"
status: 
  status: 2
  service: 1
latitude: 37.871967656
longitude: -122.263969041
altitude: 71.6238250369
position_covariance: [1.0312004221321804, 0.0, 0.0, 0.0, 1.0171193115908828, 0.0, 0.0, 0.0, 1.0444052233603769]
position_covariance_type: 2
---
header: 
  seq: 20263
  stamp: 
    secs: 1567281061
    nsecs: 465122938
  frame_id: "odom"
status: 
  status: 2
  service: 1
latitude: 37.8719676566
longitude: -122.263969041
altitude: 71.6237201896
position_covariance: [1.0312004221321804, 0.0, 0.0, 0.0, 1.0171193115908828, 0.0, 0.0, 0.0, 1.0444052233603769]
position_covariance_type: 2
---
header: 
  seq: 20264
  stamp: 
    secs: 1567281061
    nsecs: 518640995
  frame_id: "odom"
status: 
  status: 2
  service: 1
latitude: 37.8719676573
longitude: -122.263969041
altitude: 71.623590759
position_covariance: [1.0312004221321804, 0.0, 0.0, 0.0, 1.0171193115908828, 0.0, 0.0, 0.0, 1.0444052233603769]
position_covariance_type: 2
---
header: 
  seq: 20265
  stamp: 
    secs: 1567281061
    nsecs: 572009086
  frame_id: "odom"
status: 
  status: 2
  service: 1
latitude: 37.8719676579
longitude: -122.263969041
altitude: 71.6234652037
position_covariance: [1.0312004221321804, 0.0, 0.0, 0.0, 1.0171193115908828, 0.0, 0.0, 0.0, 1.0444052233603769]
position_covariance_type: 2
---
header: 
  seq: 20266
  stamp: 
    secs: 1567281061
    nsecs: 625564098
  frame_id: "odom"
status: 
  status: 2
  service: 1
latitude: 37.8719676585
longitude: -122.263969041
altitude: 71.6233554296
position_covariance: [1.0312004221321804, 0.0, 0.0, 0.0, 1.0171193115908828, 0.0, 0.0, 0.0, 1.0444052233603769]
position_covariance_type: 2
---
header: 
  seq: 20267
  stamp: 
    secs: 1567281061
    nsecs: 678940057
  frame_id: "odom"
status: 
  status: 2
  service: 1
latitude: 37.871967659
longitude: -122.26396904
altitude: 71.623236469
position_covariance: [1.0312004221321804, 0.0, 0.0, 0.0, 1.0171193115908828, 0.0, 0.0, 0.0, 1.0444052233603769]
position_covariance_type: 2
---
header: 
  seq: 20268
  stamp: 
    secs: 1567281061
    nsecs: 732496976
  frame_id: "odom"
status: 
  status: 2
  service: 1
latitude: 37.8719676596
longitude: -122.26396904
altitude: 71.6231287867
position_covariance: [1.0312004221321804, 0.0, 0.0, 0.0, 1.0171193115908828, 0.0, 0.0, 0.0, 1.0444052233603769]
position_covariance_type: 2
---
header: 
  seq: 20269
  stamp: 
    secs: 1567281061
    nsecs: 830254077
  frame_id: "odom"
status: 
  status: 2
  service: 1
latitude: 37.8719676607
longitude: -122.26396904
altitude: 71.6229016334
position_covariance: [1.0312004221321804, 0.0, 0.0, 0.0, 1.0171193115908828, 0.0, 0.0, 0.0, 1.0444052233603769]
position_covariance_type: 2
---
header: 
  seq: 20270
  stamp: 
    secs: 1567281061
    nsecs: 869874954
  frame_id: "odom"
status: 
  status: 2
  service: 1
latitude: 37.8719676615
longitude: -122.263969039
altitude: 71.6227618959
position_covariance: [1.0312004221321804, 0.0, 0.0, 0.0, 1.0171193115908828, 0.0, 0.0, 0.0, 1.0444052233603769]
position_covariance_type: 2
---
header: 
  seq: 20271
  stamp: 
    secs: 1567281061
    nsecs: 923379898
  frame_id: "odom"
status: 
  status: 2
  service: 1
latitude: 37.8719676624
longitude: -122.263969039
altitude: 71.6226465898
position_covariance: [1.0312004221321804, 0.0, 0.0, 0.0, 1.0171193115908828, 0.0, 0.0, 0.0, 1.0444052233603769]
position_covariance_type: 2
---
header: 
  seq: 20272
  stamp: 
    secs: 1567281061
    nsecs: 976787090
  frame_id: "odom"
status: 
  status: 2
  service: 1
latitude: 37.8719676632
longitude: -122.263969039
altitude: 71.6225422267
position_covariance: [1.0312004221321804, 0.0, 0.0, 0.0, 1.0171193115908828, 0.0, 0.0, 0.0, 1.0444052233603769]
position_covariance_type: 2
---
header: 
  seq: 20273
  stamp: 
    secs: 1567281062
    nsecs:  30431032
  frame_id: "odom"
status: 
  status: 2
  service: 1
latitude: 37.8719676641
longitude: -122.26396904
altitude: 71.6224355549
position_covariance: [1.0312004221321804, 0.0, 0.0, 0.0, 1.0171193115908828, 0.0, 0.0, 0.0, 1.0444052233603769]
position_covariance_type: 2
---
header: 
  seq: 20274
  stamp: 
    secs: 1567281062
    nsecs:  61254978
  frame_id: "odom"
status: 
  status: 2
  service: 1
latitude: 37.8719676649
longitude: -122.26396904
altitude: 71.6223221654
position_covariance: [1.0312004221321804, 0.0, 0.0, 0.0, 1.0171193115908828, 0.0, 0.0, 0.0, 1.0444052233603769]
position_covariance_type: 2
---
header: 
  seq: 20275
  stamp: 
    secs: 1567281062
    nsecs: 100889921
  frame_id: "odom"
status: 
  status: 2
  service: 1
latitude: 37.8719676657
longitude: -122.26396904
altitude: 71.6222461825
position_covariance: [1.0305696763486927, 0.0, 0.0, 0.0, 1.0169522901948296, 0.0, 0.0, 0.0, 1.0436818291659016]
position_covariance_type: 2
---
header: 
  seq: 20276
  stamp: 
    secs: 1567281062
    nsecs: 154331922
  frame_id: "odom"
status: 
  status: 2
  service: 1
latitude: 37.8719676665
longitude: -122.263969041
altitude: 71.6221704921
position_covariance: [1.0305696763486927, 0.0, 0.0, 0.0, 1.0169522901948296, 0.0, 0.0, 0.0, 1.0436818291659016]
position_covariance_type: 2
---
header: 
  seq: 20277
  stamp: 
    secs: 1567281062
    nsecs: 207828044
  frame_id: "odom"
status: 
  status: 2
  service: 1
latitude: 37.8719676675
longitude: -122.263969041
altitude: 71.6220927611
position_covariance: [1.0305696763486927, 0.0, 0.0, 0.0, 1.0169522901948296, 0.0, 0.0, 0.0, 1.0436818291659016]
position_covariance_type: 2
---
header: 
  seq: 20278
  stamp: 
    secs: 1567281062
    nsecs: 261288881
  frame_id: "odom"
status: 
  status: 2
  service: 1
latitude: 37.8719676686
longitude: -122.263969042
altitude: 71.6220261911
position_covariance: [1.0305696763486927, 0.0, 0.0, 0.0, 1.0169522901948296, 0.0, 0.0, 0.0, 1.0436818291659016]
position_covariance_type: 2
---
header: 
  seq: 20279
  stamp: 
    secs: 1567281062
    nsecs: 306704044
  frame_id: "odom"
status: 
  status: 2
  service: 1
latitude: 37.8719676697
longitude: -122.263969043
altitude: 71.6219438752
position_covariance: [1.0305696763486927, 0.0, 0.0, 0.0, 1.0169522901948296, 0.0, 0.0, 0.0, 1.0436818291659016]
position_covariance_type: 2
---
header: 
  seq: 20280
  stamp: 
    secs: 1567281062
    nsecs: 360100984
  frame_id: "odom"
status: 
  status: 2
  service: 1
latitude: 37.871967671
longitude: -122.263969043
altitude: 71.6218739394
position_covariance: [1.0305696763486927, 0.0, 0.0, 0.0, 1.0169522901948296, 0.0, 0.0, 0.0, 1.0436818291659016]
position_covariance_type: 2
---
header: 
  seq: 20281
  stamp: 
    secs: 1567281062
    nsecs: 413696050
  frame_id: "odom"
status: 
  status: 2
  service: 1
latitude: 37.8719676722
longitude: -122.263969044
altitude: 71.621803008
position_covariance: [1.0305696763486927, 0.0, 0.0, 0.0, 1.0169522901948296, 0.0, 0.0, 0.0, 1.0436818291659016]
position_covariance_type: 2
---
header: 
  seq: 20282
  stamp: 
    secs: 1567281062
    nsecs: 468206882
  frame_id: "odom"
status: 
  status: 2
  service: 1
latitude: 37.8719676734
longitude: -122.263969045
altitude: 71.6217622897
position_covariance: [1.0305696763486927, 0.0, 0.0, 0.0, 1.0169522901948296, 0.0, 0.0, 0.0, 1.0436818291659016]
position_covariance_type: 2
---
header: 
  seq: 20283
  stamp: 
    secs: 1567281062
    nsecs: 521915912
  frame_id: "odom"
status: 
  status: 2
  service: 1
latitude: 37.8719676745
longitude: -122.263969046
altitude: 71.6217114739
position_covariance: [1.0305696763486927, 0.0, 0.0, 0.0, 1.0169522901948296, 0.0, 0.0, 0.0, 1.0436818291659016]
position_covariance_type: 2
---
header: 
  seq: 20284
  stamp: 
    secs: 1567281062
    nsecs: 575087070
  frame_id: "odom"
status: 
  status: 2
  service: 1
latitude: 37.8719676757
longitude: -122.263969046
altitude: 71.621668444
position_covariance: [1.0305696763486927, 0.0, 0.0, 0.0, 1.0169522901948296, 0.0, 0.0, 0.0, 1.0436818291659016]
position_covariance_type: 2
---
header: 
  seq: 20285
  stamp: 
    secs: 1567281062
    nsecs: 620750904
  frame_id: "odom"
status: 
  status: 2
  service: 1
latitude: 37.8719676769
longitude: -122.263969047
altitude: 71.6216185223
position_covariance: [1.0305696763486927, 0.0, 0.0, 0.0, 1.0169522901948296, 0.0, 0.0, 0.0, 1.0436818291659016]
position_covariance_type: 2
---
header: 
  seq: 20286
  stamp: 
    secs: 1567281062
    nsecs: 718491077
  frame_id: "odom"
status: 
  status: 2
  service: 1
latitude: 37.8719676793
longitude: -122.263969049
altitude: 71.6215279382
position_covariance: [1.0305696763486927, 0.0, 0.0, 0.0, 1.0169522901948296, 0.0, 0.0, 0.0, 1.0436818291659016]
position_covariance_type: 2
---
header: 
  seq: 20287
  stamp: 
    secs: 1567281062
    nsecs: 771840095
  frame_id: "odom"
status: 
  status: 2
  service: 1
latitude: 37.8719676806
longitude: -122.263969049
altitude: 71.6214859011
position_covariance: [1.0305696763486927, 0.0, 0.0, 0.0, 1.0169522901948296, 0.0, 0.0, 0.0, 1.0436818291659016]
position_covariance_type: 2
---
header: 
  seq: 20288
  stamp: 
    secs: 1567281062
    nsecs: 825392961
  frame_id: "odom"
status: 
  status: 2
  service: 1
latitude: 37.871967682
longitude: -122.26396905
altitude: 71.6214435762
position_covariance: [1.0305696763486927, 0.0, 0.0, 0.0, 1.0169522901948296, 0.0, 0.0, 0.0, 1.0436818291659016]
position_covariance_type: 2
---
header: 
  seq: 20289
  stamp: 
    secs: 1567281062
    nsecs: 878669977
  frame_id: "odom"
status: 
  status: 2
  service: 1
latitude: 37.8719676833
longitude: -122.263969051
altitude: 71.621395817
position_covariance: [1.0305696763486927, 0.0, 0.0, 0.0, 1.0169522901948296, 0.0, 0.0, 0.0, 1.0436818291659016]
position_covariance_type: 2
---
header: 
  seq: 20290
  stamp: 
    secs: 1567281062
    nsecs: 932332992
  frame_id: "odom"
status: 
  status: 2
  service: 1
latitude: 37.8719676846
longitude: -122.263969051
altitude: 71.6213450134
position_covariance: [1.0305696763486927, 0.0, 0.0, 0.0, 1.0169522901948296, 0.0, 0.0, 0.0, 1.0436818291659016]
position_covariance_type: 2
---
header: 
  seq: 20291
  stamp: 
    secs: 1567281063
    nsecs:  16383886
  frame_id: "odom"
status: 
  status: 2
  service: 1
latitude: 37.8719676869
longitude: -122.263969052
altitude: 71.6212648861
position_covariance: [1.0305696763486927, 0.0, 0.0, 0.0, 1.0169522901948296, 0.0, 0.0, 0.0, 1.0436818291659016]
position_covariance_type: 2
---
header: 
  seq: 20292
  stamp: 
    secs: 1567281063
    nsecs:  61712980
  frame_id: "odom"
status: 
  status: 2
  service: 1
latitude: 37.8719676883
longitude: -122.263969053
altitude: 71.6212186599
position_covariance: [1.0305696763486927, 0.0, 0.0, 0.0, 1.0169522901948296, 0.0, 0.0, 0.0, 1.0436818291659016]
position_covariance_type: 2
---
header: 
  seq: 20293
  stamp: 
    secs: 1567281063
    nsecs: 115108966
  frame_id: "odom"
status: 
  status: 2
  service: 1
latitude: 37.871967689
longitude: -122.263969053
altitude: 71.6211678023
position_covariance: [1.0299983506043051, 0.0, 0.0, 0.0, 1.0168092648528706, 0.0, 0.0, 0.0, 1.0430077819549353]
position_covariance_type: 2
---
header: 
  seq: 20294
  stamp: 
    secs: 1567281063
    nsecs: 168632030
  frame_id: "odom"
status: 
  status: 2
  service: 1
latitude: 37.8719676896
longitude: -122.263969053
altitude: 71.6210872754
position_covariance: [1.0299983506043051, 0.0, 0.0, 0.0, 1.0168092648528706, 0.0, 0.0, 0.0, 1.0430077819549353]
position_covariance_type: 2
---
header: 
  seq: 20295
  stamp: 
    secs: 1567281063
    nsecs: 222160100
  frame_id: "odom"
status: 
  status: 2
  service: 1
latitude: 37.8719676903
longitude: -122.263969054
altitude: 71.6209890628
position_covariance: [1.0299983506043051, 0.0, 0.0, 0.0, 1.0168092648528706, 0.0, 0.0, 0.0, 1.0430077819549353]
position_covariance_type: 2
---
header: 
  seq: 20296
  stamp: 
    secs: 1567281063
    nsecs: 275579929
  frame_id: "odom"
status: 
  status: 2
  service: 1
latitude: 37.8719676911
longitude: -122.263969054
altitude: 71.6208922053
position_covariance: [1.0299983506043051, 0.0, 0.0, 0.0, 1.0168092648528706, 0.0, 0.0, 0.0, 1.0430077819549353]
position_covariance_type: 2
---
header: 
  seq: 20297
  stamp: 
    secs: 1567281063
    nsecs: 329050064
  frame_id: "odom"
status: 
  status: 2
  service: 1
latitude: 37.8719676918
longitude: -122.263969054
altitude: 71.6208029129
position_covariance: [1.0299983506043051, 0.0, 0.0, 0.0, 1.0168092648528706, 0.0, 0.0, 0.0, 1.0430077819549353]
position_covariance_type: 2
---
header: 
  seq: 20298
  stamp: 
    secs: 1567281063
    nsecs: 359719991
  frame_id: "odom"
status: 
  status: 2
  service: 1
latitude: 37.8719676925
longitude: -122.263969054
altitude: 71.6207134696
position_covariance: [1.0299983506043051, 0.0, 0.0, 0.0, 1.0168092648528706, 0.0, 0.0, 0.0, 1.0430077819549353]
position_covariance_type: 2
---
header: 
  seq: 20299
  stamp: 
    secs: 1567281063
    nsecs: 413201093
  frame_id: "odom"
status: 
  status: 2
  service: 1
latitude: 37.8719676932
longitude: -122.263969054
altitude: 71.6206307458
position_covariance: [1.0299983506043051, 0.0, 0.0, 0.0, 1.0168092648528706, 0.0, 0.0, 0.0, 1.0430077819549353]
position_covariance_type: 2
---
header: 
  seq: 20300
  stamp: 
    secs: 1567281063
    nsecs: 467833995
  frame_id: "odom"
status: 
  status: 2
  service: 1
latitude: 37.8719676939
longitude: -122.263969055
altitude: 71.620553365
position_covariance: [1.0299983506043051, 0.0, 0.0, 0.0, 1.0168092648528706, 0.0, 0.0, 0.0, 1.0430077819549353]
position_covariance_type: 2
---
header: 
  seq: 20301
  stamp: 
    secs: 1567281063
    nsecs: 521406888
  frame_id: "odom"
status: 
  status: 2
  service: 1
latitude: 37.8719676946
longitude: -122.263969055
altitude: 71.6204732182
position_covariance: [1.0299983506043051, 0.0, 0.0, 0.0, 1.0168092648528706, 0.0, 0.0, 0.0, 1.0430077819549353]
position_covariance_type: 2
---
header: 
  seq: 20302
  stamp: 
    secs: 1567281063
    nsecs: 574701070
  frame_id: "odom"
status: 
  status: 2
  service: 1
latitude: 37.8719676953
longitude: -122.263969056
altitude: 71.6204048712
position_covariance: [1.0299983506043051, 0.0, 0.0, 0.0, 1.0168092648528706, 0.0, 0.0, 0.0, 1.0430077819549353]
position_covariance_type: 2
---
header: 
  seq: 20303
  stamp: 
    secs: 1567281063
    nsecs: 620090007
  frame_id: "odom"
status: 
  status: 2
  service: 1
latitude: 37.8719676961
longitude: -122.263969056
altitude: 71.6203415636
position_covariance: [1.0299983506043051, 0.0, 0.0, 0.0, 1.0168092648528706, 0.0, 0.0, 0.0, 1.0430077819549353]
position_covariance_type: 2
---
header: 
  seq: 20304
  stamp: 
    secs: 1567281063
    nsecs: 673510074
  frame_id: "odom"
status: 
  status: 2
  service: 1
latitude: 37.8719676969
longitude: -122.263969056
altitude: 71.6202842286
position_covariance: [1.0299983506043051, 0.0, 0.0, 0.0, 1.0168092648528706, 0.0, 0.0, 0.0, 1.0430077819549353]
position_covariance_type: 2
---
header: 
  seq: 20305
  stamp: 
    secs: 1567281063
    nsecs: 727197885
  frame_id: "odom"
status: 
  status: 2
  service: 1
latitude: 37.8719676976
longitude: -122.263969057
altitude: 71.6202204078
position_covariance: [1.0299983506043051, 0.0, 0.0, 0.0, 1.0168092648528706, 0.0, 0.0, 0.0, 1.0430077819549353]
position_covariance_type: 2
---
header: 
  seq: 20306
  stamp: 
    secs: 1567281063
    nsecs: 780329942
  frame_id: "odom"
status: 
  status: 2
  service: 1
latitude: 37.8719676983
longitude: -122.263969057
altitude: 71.620176604
position_covariance: [1.0299983506043051, 0.0, 0.0, 0.0, 1.0168092648528706, 0.0, 0.0, 0.0, 1.0430077819549353]
position_covariance_type: 2
---
header: 
  seq: 20307
  stamp: 
    secs: 1567281063
    nsecs: 833903074
  frame_id: "odom"
status: 
  status: 2
  service: 1
latitude: 37.871967699
longitude: -122.263969057
altitude: 71.6201350577
position_covariance: [1.0299983506043051, 0.0, 0.0, 0.0, 1.0168092648528706, 0.0, 0.0, 0.0, 1.0430077819549353]
position_covariance_type: 2
---
header: 
  seq: 20308
  stamp: 
    secs: 1567281063
    nsecs: 879307985
  frame_id: "odom"
status: 
  status: 2
  service: 1
latitude: 37.8719676997
longitude: -122.263969058
altitude: 71.6200974379
position_covariance: [1.0299983506043051, 0.0, 0.0, 0.0, 1.0168092648528706, 0.0, 0.0, 0.0, 1.0430077819549353]
position_covariance_type: 2
---
header: 
  seq: 20309
  stamp: 
    secs: 1567281063
    nsecs: 932777881
  frame_id: "odom"
status: 
  status: 2
  service: 1
latitude: 37.8719677004
longitude: -122.263969058
altitude: 71.6200512182
position_covariance: [1.0299983506043051, 0.0, 0.0, 0.0, 1.0168092648528706, 0.0, 0.0, 0.0, 1.0430077819549353]
position_covariance_type: 2
---
header: 
  seq: 20310
  stamp: 
    secs: 1567281064
    nsecs:   7985115
  frame_id: "odom"
status: 
  status: 2
  service: 1
latitude: 37.8719677017
longitude: -122.263969058
altitude: 71.6199749876
position_covariance: [1.0299983506043051, 0.0, 0.0, 0.0, 1.0168092648528706, 0.0, 0.0, 0.0, 1.0430077819549353]
position_covariance_type: 2
---
header: 
  seq: 20311
  stamp: 
    secs: 1567281064
    nsecs:  61353921
  frame_id: "odom"
status: 
  status: 2
  service: 1
latitude: 37.8719677024
longitude: -122.263969058
altitude: 71.6199383009
position_covariance: [1.0299983506043051, 0.0, 0.0, 0.0, 1.0168092648528706, 0.0, 0.0, 0.0, 1.0430077819549353]
position_covariance_type: 2
---
header: 
  seq: 20312
  stamp: 
    secs: 1567281064
    nsecs: 114811897
  frame_id: "odom"
status: 
  status: 2
  service: 1
latitude: 37.8719677031
longitude: -122.263969059
altitude: 71.6198789021
position_covariance: [1.0294793152664632, 0.0, 0.0, 0.0, 1.0166867955361065, 0.0, 0.0, 0.0, 1.0423785832687613]
position_covariance_type: 2
---
header: 
  seq: 20313
  stamp: 
    secs: 1567281064
    nsecs: 160273075
  frame_id: "odom"
status: 
  status: 2
  service: 1
latitude: 37.8719677037
longitude: -122.263969059
altitude: 71.619801159
position_covariance: [1.0294793152664632, 0.0, 0.0, 0.0, 1.0166867955361065, 0.0, 0.0, 0.0, 1.0423785832687613]
position_covariance_type: 2
---
header: 
  seq: 20314
  stamp: 
    secs: 1567281064
    nsecs: 213843107
  frame_id: "odom"
status: 
  status: 2
  service: 1
latitude: 37.8719677043
longitude: -122.263969059
altitude: 71.6197233284
position_covariance: [1.0294793152664632, 0.0, 0.0, 0.0, 1.0166867955361065, 0.0, 0.0, 0.0, 1.0423785832687613]
position_covariance_type: 2
---
header: 
  seq: 20315
  stamp: 
    secs: 1567281064
    nsecs: 267757892
  frame_id: "odom"
status: 
  status: 2
  service: 1
latitude: 37.8719677049
longitude: -122.263969059
altitude: 71.6196477534
position_covariance: [1.0294793152664632, 0.0, 0.0, 0.0, 1.0166867955361065, 0.0, 0.0, 0.0, 1.0423785832687613]
position_covariance_type: 2
---
header: 
  seq: 20316
  stamp: 
    secs: 1567281064
    nsecs: 321261882
  frame_id: "odom"
status: 
  status: 2
  service: 1
latitude: 37.8719677056
longitude: -122.263969059
altitude: 71.619571385
position_covariance: [1.0294793152664632, 0.0, 0.0, 0.0, 1.0166867955361065, 0.0, 0.0, 0.0, 1.0423785832687613]
position_covariance_type: 2
---
header: 
  seq: 20317
  stamp: 
    secs: 1567281064
    nsecs: 374721050
  frame_id: "odom"
status: 
  status: 2
  service: 1
latitude: 37.8719677062
longitude: -122.263969059
altitude: 71.6194971865
position_covariance: [1.0294793152664632, 0.0, 0.0, 0.0, 1.0166867955361065, 0.0, 0.0, 0.0, 1.0423785832687613]
position_covariance_type: 2
---
header: 
  seq: 20318
  stamp: 
    secs: 1567281064
    nsecs: 428198099
  frame_id: "odom"
status: 
  status: 2
  service: 1
latitude: 37.871967707
longitude: -122.263969059
altitude: 71.619425023
position_covariance: [1.0294793152664632, 0.0, 0.0, 0.0, 1.0166867955361065, 0.0, 0.0, 0.0, 1.0423785832687613]
position_covariance_type: 2
---
header: 
  seq: 20319
  stamp: 
    secs: 1567281064
    nsecs: 458961009
  frame_id: "odom"
status: 
  status: 2
  service: 1
latitude: 37.8719677078
longitude: -122.263969059
altitude: 71.6193552818
position_covariance: [1.0294793152664632, 0.0, 0.0, 0.0, 1.0166867955361065, 0.0, 0.0, 0.0, 1.0423785832687613]
position_covariance_type: 2
---
header: 
  seq: 20320
  stamp: 
    secs: 1567281064
    nsecs: 512367963
  frame_id: "odom"
status: 
  status: 2
  service: 1
latitude: 37.8719677085
longitude: -122.263969059
altitude: 71.6192878038
position_covariance: [1.0294793152664632, 0.0, 0.0, 0.0, 1.0166867955361065, 0.0, 0.0, 0.0, 1.0423785832687613]
position_covariance_type: 2
---
header: 
  seq: 20321
  stamp: 
    secs: 1567281064
    nsecs: 566023111
  frame_id: "odom"
status: 
  status: 2
  service: 1
latitude: 37.8719677093
longitude: -122.26396906
altitude: 71.6192182209
position_covariance: [1.0294793152664632, 0.0, 0.0, 0.0, 1.0166867955361065, 0.0, 0.0, 0.0, 1.0423785832687613]
position_covariance_type: 2
---
header: 
  seq: 20322
  stamp: 
    secs: 1567281064
    nsecs: 619287967
  frame_id: "odom"
status: 
  status: 2
  service: 1
latitude: 37.8719677101
longitude: -122.26396906
altitude: 71.6191435196
position_covariance: [1.0294793152664632, 0.0, 0.0, 0.0, 1.0166867955361065, 0.0, 0.0, 0.0, 1.0423785832687613]
position_covariance_type: 2
---
header: 
  seq: 20323
  stamp: 
    secs: 1567281064
    nsecs: 672801017
  frame_id: "odom"
status: 
  status: 2
  service: 1
latitude: 37.8719677108
longitude: -122.26396906
altitude: 71.6190793468
position_covariance: [1.0294793152664632, 0.0, 0.0, 0.0, 1.0166867955361065, 0.0, 0.0, 0.0, 1.0423785832687613]
position_covariance_type: 2
---
header: 
  seq: 20324
  stamp: 
    secs: 1567281064
    nsecs: 726198911
  frame_id: "odom"
status: 
  status: 2
  service: 1
latitude: 37.8719677118
longitude: -122.26396906
altitude: 71.6190113826
position_covariance: [1.0294793152664632, 0.0, 0.0, 0.0, 1.0166867955361065, 0.0, 0.0, 0.0, 1.0423785832687613]
position_covariance_type: 2
---
header: 
  seq: 20325
  stamp: 
    secs: 1567281064
    nsecs: 779683113
  frame_id: "odom"
status: 
  status: 2
  service: 1
latitude: 37.8719677129
longitude: -122.26396906
altitude: 71.6189311547
position_covariance: [1.0294793152664632, 0.0, 0.0, 0.0, 1.0166867955361065, 0.0, 0.0, 0.0, 1.0423785832687613]
position_covariance_type: 2
---
header: 
  seq: 20326
  stamp: 
    secs: 1567281064
    nsecs: 833285093
  frame_id: "odom"
status: 
  status: 2
  service: 1
latitude: 37.8719677139
longitude: -122.26396906
altitude: 71.6188821755
position_covariance: [1.0294793152664632, 0.0, 0.0, 0.0, 1.0166867955361065, 0.0, 0.0, 0.0, 1.0423785832687613]
position_covariance_type: 2
---
header: 
  seq: 20327
  stamp: 
    secs: 1567281064
    nsecs: 872745037
  frame_id: "odom"
status: 
  status: 2
  service: 1
latitude: 37.871967715
longitude: -122.26396906
altitude: 71.6188205397
position_covariance: [1.0294793152664632, 0.0, 0.0, 0.0, 1.0166867955361065, 0.0, 0.0, 0.0, 1.0423785832687613]
position_covariance_type: 2
---
header: 
  seq: 20328
  stamp: 
    secs: 1567281064
    nsecs: 926328897
  frame_id: "odom"
status: 
  status: 2
  service: 1
latitude: 37.8719677161
longitude: -122.26396906
altitude: 71.6187812323
position_covariance: [1.0294793152664632, 0.0, 0.0, 0.0, 1.0166867955361065, 0.0, 0.0, 0.0, 1.0423785832687613]
position_covariance_type: 2
---
header: 
  seq: 20329
  stamp: 
    secs: 1567281064
    nsecs: 979643106
  frame_id: "odom"
status: 
  status: 2
  service: 1
latitude: 37.8719677169
longitude: -122.26396906
altitude: 71.6187465861
position_covariance: [1.0294793152664632, 0.0, 0.0, 0.0, 1.0166867955361065, 0.0, 0.0, 0.0, 1.0423785832687613]
position_covariance_type: 2
---
header: 
  seq: 20330
  stamp: 
    secs: 1567281065
    nsecs:  33097982
  frame_id: "odom"
status: 
  status: 2
  service: 1
latitude: 37.8719677178
longitude: -122.26396906
altitude: 71.6187232947
position_covariance: [1.0294793152664632, 0.0, 0.0, 0.0, 1.0166867955361065, 0.0, 0.0, 0.0, 1.0423785832687613]
position_covariance_type: 2
---
header: 
  seq: 20331
  stamp: 
    secs: 1567281065
    nsecs: 131064891
  frame_id: "odom"
status: 
  status: 2
  service: 1
latitude: 37.8719677194
longitude: -122.263969061
altitude: 71.6186673595
position_covariance: [1.0290065716091974, 0.0, 0.0, 0.0, 1.0165819584511209, 0.0, 0.0, 0.0, 1.0417902437493527]
position_covariance_type: 2
---
header: 
  seq: 20332
  stamp: 
    secs: 1567281065
    nsecs: 184340000
  frame_id: "odom"
status: 
  status: 2
  service: 1
latitude: 37.87196772
longitude: -122.263969061
altitude: 71.6186080733
position_covariance: [1.0290065716091974, 0.0, 0.0, 0.0, 1.0165819584511209, 0.0, 0.0, 0.0, 1.0417902437493527]
position_covariance_type: 2
---
header: 
  seq: 20333
  stamp: 
    secs: 1567281065
    nsecs: 215359926
  frame_id: "odom"
status: 
  status: 2
  service: 1
latitude: 37.8719677207
longitude: -122.263969061
altitude: 71.6185409529
position_covariance: [1.0290065716091974, 0.0, 0.0, 0.0, 1.0165819584511209, 0.0, 0.0, 0.0, 1.0417902437493527]
position_covariance_type: 2
---
header: 
  seq: 20334
  stamp: 
    secs: 1567281065
    nsecs: 268693923
  frame_id: "odom"
status: 
  status: 2
  service: 1
latitude: 37.8719677213
longitude: -122.263969062
altitude: 71.618492051
position_covariance: [1.0290065716091974, 0.0, 0.0, 0.0, 1.0165819584511209, 0.0, 0.0, 0.0, 1.0417902437493527]
position_covariance_type: 2
---
header: 
  seq: 20335
  stamp: 
    secs: 1567281065
    nsecs: 322232961
  frame_id: "odom"
status: 
  status: 2
  service: 1
latitude: 37.8719677219
longitude: -122.263969062
altitude: 71.6184456795
position_covariance: [1.0290065716091974, 0.0, 0.0, 0.0, 1.0165819584511209, 0.0, 0.0, 0.0, 1.0417902437493527]
position_covariance_type: 2
---
header: 
  seq: 20336
  stamp: 
    secs: 1567281065
    nsecs: 361745119
  frame_id: "odom"
status: 
  status: 2
  service: 1
latitude: 37.8719677225
longitude: -122.263969063
altitude: 71.618381571
position_covariance: [1.0290065716091974, 0.0, 0.0, 0.0, 1.0165819584511209, 0.0, 0.0, 0.0, 1.0417902437493527]
position_covariance_type: 2
---
header: 
  seq: 20337
  stamp: 
    secs: 1567281065
    nsecs: 415381908
  frame_id: "odom"
status: 
  status: 2
  service: 1
latitude: 37.8719677232
longitude: -122.263969063
altitude: 71.6183059271
position_covariance: [1.0290065716091974, 0.0, 0.0, 0.0, 1.0165819584511209, 0.0, 0.0, 0.0, 1.0417902437493527]
position_covariance_type: 2
---
header: 
  seq: 20338
  stamp: 
    secs: 1567281065
    nsecs: 468803882
  frame_id: "odom"
status: 
  status: 2
  service: 1
latitude: 37.8719677239
longitude: -122.263969063
altitude: 71.6182328565
position_covariance: [1.0290065716091974, 0.0, 0.0, 0.0, 1.0165819584511209, 0.0, 0.0, 0.0, 1.0417902437493527]
position_covariance_type: 2
---
header: 
  seq: 20339
  stamp: 
    secs: 1567281065
    nsecs: 522094011
  frame_id: "odom"
status: 
  status: 2
  service: 1
latitude: 37.8719677247
longitude: -122.263969064
altitude: 71.6181572741
position_covariance: [1.0290065716091974, 0.0, 0.0, 0.0, 1.0165819584511209, 0.0, 0.0, 0.0, 1.0417902437493527]
position_covariance_type: 2
---
header: 
  seq: 20340
  stamp: 
    secs: 1567281065
    nsecs: 575536966
  frame_id: "odom"
status: 
  status: 2
  service: 1
latitude: 37.8719677255
longitude: -122.263969064
altitude: 71.6180725014
position_covariance: [1.0290065716091974, 0.0, 0.0, 0.0, 1.0165819584511209, 0.0, 0.0, 0.0, 1.0417902437493527]
position_covariance_type: 2
---
header: 
  seq: 20341
  stamp: 
    secs: 1567281065
    nsecs: 628985881
  frame_id: "odom"
status: 
  status: 2
  service: 1
latitude: 37.8719677263
longitude: -122.263969064
altitude: 71.6179826371
position_covariance: [1.0290065716091974, 0.0, 0.0, 0.0, 1.0165819584511209, 0.0, 0.0, 0.0, 1.0417902437493527]
position_covariance_type: 2
---
header: 
  seq: 20342
  stamp: 
    secs: 1567281065
    nsecs: 682394027
  frame_id: "odom"
status: 
  status: 2
  service: 1
latitude: 37.8719677271
longitude: -122.263969065
altitude: 71.6179049667
position_covariance: [1.0290065716091974, 0.0, 0.0, 0.0, 1.0165819584511209, 0.0, 0.0, 0.0, 1.0417902437493527]
position_covariance_type: 2
---
header: 
  seq: 20343
  stamp: 
    secs: 1567281065
    nsecs: 757606983
  frame_id: "odom"
status: 
  status: 2
  service: 1
latitude: 37.8719677288
longitude: -122.263969065
altitude: 71.6177282874
position_covariance: [1.0290065716091974, 0.0, 0.0, 0.0, 1.0165819584511209, 0.0, 0.0, 0.0, 1.0417902437493527]
position_covariance_type: 2
---
header: 
  seq: 20344
  stamp: 
    secs: 1567281065
    nsecs: 811106920
  frame_id: "odom"
status: 
  status: 2
  service: 1
latitude: 37.8719677295
longitude: -122.263969065
altitude: 71.6176539706
position_covariance: [1.0290065716091974, 0.0, 0.0, 0.0, 1.0165819584511209, 0.0, 0.0, 0.0, 1.0417902437493527]
position_covariance_type: 2
---
header: 
  seq: 20345
  stamp: 
    secs: 1567281065
    nsecs: 864540100
  frame_id: "odom"
status: 
  status: 2
  service: 1
latitude: 37.8719677302
longitude: -122.263969065
altitude: 71.617586242
position_covariance: [1.0290065716091974, 0.0, 0.0, 0.0, 1.0165819584511209, 0.0, 0.0, 0.0, 1.0417902437493527]
position_covariance_type: 2
---
header: 
  seq: 20346
  stamp: 
    secs: 1567281065
    nsecs: 962403059
  frame_id: "odom"
status: 
  status: 2
  service: 1
latitude: 37.871967732
longitude: -122.263969065
altitude: 71.6173783662
position_covariance: [1.0290065716091974, 0.0, 0.0, 0.0, 1.0165819584511209, 0.0, 0.0, 0.0, 1.0417902437493527]
position_covariance_type: 2
---
header: 
  seq: 20347
  stamp: 
    secs: 1567281066
    nsecs:  15791893
  frame_id: "odom"
status: 
  status: 2
  service: 1
latitude: 37.8719677333
longitude: -122.263969066
altitude: 71.6172806649
position_covariance: [1.0290065716091974, 0.0, 0.0, 0.0, 1.0165819584511209, 0.0, 0.0, 0.0, 1.0417902437493527]
position_covariance_type: 2
---
header: 
  seq: 20348
  stamp: 
    secs: 1567281066
    nsecs:  69545030
  frame_id: "odom"
status: 
  status: 2
  service: 1
latitude: 37.8719677344
longitude: -122.263969066
altitude: 71.6171828415
position_covariance: [1.0290065716091974, 0.0, 0.0, 0.0, 1.0165819584511209, 0.0, 0.0, 0.0, 1.0417902437493527]
position_covariance_type: 2
---
header: 
  seq: 20349
  stamp: 
    secs: 1567281066
    nsecs: 122925996
  frame_id: "odom"
status: 
  status: 2
  service: 1
latitude: 37.8719677345
longitude: -122.263969067
altitude: 71.6171208182
position_covariance: [1.0285748158670949, 0.0, 0.0, 0.0, 1.0164920407028555, 0.0, 0.0, 0.0, 1.0412393230381864]
position_covariance_type: 2
---
header: 
  seq: 20350
  stamp: 
    secs: 1567281066
    nsecs: 176353931
  frame_id: "odom"
status: 
  status: 2
  service: 1
latitude: 37.8719677341
longitude: -122.263969067
altitude: 71.6170579251
position_covariance: [1.0285748158670949, 0.0, 0.0, 0.0, 1.0164920407028555, 0.0, 0.0, 0.0, 1.0412393230381864]
position_covariance_type: 2
---
header: 
  seq: 20351
  stamp: 
    secs: 1567281066
    nsecs: 229954957
  frame_id: "odom"
status: 
  status: 2
  service: 1
latitude: 37.871967734
longitude: -122.263969067
altitude: 71.6169939497
position_covariance: [1.0285748158670949, 0.0, 0.0, 0.0, 1.0164920407028555, 0.0, 0.0, 0.0, 1.0412393230381864]
position_covariance_type: 2
---
header: 
  seq: 20352
  stamp: 
    secs: 1567281066
