transforms: 
  - 
    header: 
      seq: 0
      stamp: 
        secs: 1567284406
        nsecs: 257724000
      frame_id: "map"
    child_frame_id: "velodyne"
    transform: 
      translation: 
        x: 115.722824097
        y: -19.5091323853
        z: 2.93417334557
      rotation: 
        x: 0.00726353377104
        y: 0.00261811423115
        z: -0.00146375095937
        w: 0.999969124794
---
transforms: 
  - 
    header: 
      seq: 0
      stamp: 
        secs: 1567284406
        nsecs: 359732000
      frame_id: "map"
    child_frame_id: "velodyne"
    transform: 
      translation: 
        x: 115.694725037
        y: -19.4648284912
        z: 3.63382434845
      rotation: 
        x: 0.0217763278633
        y: -0.00097541854484
        z: -0.000864048488438
        w: 0.999762058258
---
transforms: 
  - 
    header: 
      seq: 0
      stamp: 
        secs: 1567284406
        nsecs: 461717000
      frame_id: "map"
    child_frame_id: "velodyne"
    transform: 
      translation: 
        x: 115.469345093
        y: -19.9423179626
        z: 6.80931758881
      rotation: 
        x: 0.0382243655622
        y: -0.012147968635
        z: -0.00285687157884
        w: 0.99919128418
---
transforms: 
  - 
    header: 
      seq: 0
      stamp: 
        secs: 1567284406
        nsecs: 563736000
      frame_id: "map"
    child_frame_id: "velodyne"
    transform: 
      translation: 
        x: 115.309020996
        y: -20.1545124054
        z: 7.57579517365
      rotation: 
        x: 0.0573262795806
        y: -0.0190641023219
        z: -0.00515691610053
        w: 0.998160123825
---
transforms: 
  - 
    header: 
      seq: 0
      stamp: 
        secs: 1567284406
        nsecs: 665736000
      frame_id: "map"
    child_frame_id: "velodyne"
    transform: 
      translation: 
        x: 115.163970947
        y: -20.3279037476
        z: 8.42006874084
      rotation: 
        x: 0.05631474033
        y: -0.0245863590389
        z: -0.00684361951426
        w: 0.998086869717
---
transforms: 
  - 
    header: 
      seq: 0
      stamp: 
        secs: 1567284406
        nsecs: 767735000
      frame_id: "map"
    child_frame_id: "velodyne"
    transform: 
      translation: 
        x: 115.042373657
        y: -20.4273204803
        z: 9.06714630127
      rotation: 
        x: 0.0535816848278
        y: -0.0281797684729
        z: -0.0076540117152
        w: 0.998136460781
---
transforms: 
  - 
    header: 
      seq: 0
      stamp: 
        secs: 1567284406
        nsecs: 869720000
      frame_id: "map"
    child_frame_id: "velodyne"
    transform: 
      translation: 
        x: 114.93183136
        y: -20.5189609528
        z: 9.63576412201
      rotation: 
        x: 0.0501115173101
        y: -0.0315497107804
        z: -0.00837944447994
        w: 0.998210012913
---
transforms: 
  - 
    header: 
      seq: 0
      stamp: 
        secs: 1567284406
        nsecs: 971738000
      frame_id: "map"
    child_frame_id: "velodyne"
    transform: 
      translation: 
        x: 114.830482483
        y: -20.5765705109
        z: 10.0915107727
      rotation: 
        x: 0.0465184152126
        y: -0.0342953056097
        z: -0.00882867444307
        w: 0.998289525509
---
transforms: 
  - 
    header: 
      seq: 0
      stamp: 
        secs: 1567284407
        nsecs:  73920000
      frame_id: "map"
    child_frame_id: "velodyne"
    transform: 
      translation: 
        x: 114.759712219
        y: -20.627538681
        z: 10.5204324722
      rotation: 
        x: 0.0427021086216
        y: -0.0368000455201
        z: -0.00934035237879
        w: 0.998366236687
---
transforms: 
  - 
    header: 
      seq: 0
      stamp: 
        secs: 1567284407
        nsecs: 175706000
      frame_id: "map"
    child_frame_id: "velodyne"
    transform: 
      translation: 
        x: 114.708816528
        y: -20.6647605896
        z: 10.8929510117
      rotation: 
        x: 0.0397084057331
        y: -0.0385430380702
        z: -0.00970253441483
        w: 0.998420536518
---
transforms: 
  - 
    header: 
      seq: 0
      stamp: 
        secs: 1567284407
        nsecs: 277729000
      frame_id: "map"
    child_frame_id: "velodyne"
    transform: 
      translation: 
        x: 114.663146973
        y: -20.7767829895
        z: 11.2253036499
      rotation: 
        x: 0.0367745198309
        y: -0.0396836027503
        z: -0.010398009792
        w: 0.998481214046
---
transforms: 
  - 
    header: 
      seq: 0
      stamp: 
        secs: 1567284407
        nsecs: 379735000
      frame_id: "map"
    child_frame_id: "velodyne"
    transform: 
      translation: 
        x: 114.639625549
        y: -20.908208847
        z: 11.4985208511
      rotation: 
        x: 0.034255374223
        y: -0.0406743139029
        z: -0.0112703926861
        w: 0.998521506786
---
transforms: 
  - 
    header: 
      seq: 0
      stamp: 
        secs: 1567284407
        nsecs: 481703000
      frame_id: "map"
    child_frame_id: "velodyne"
    transform: 
      translation: 
        x: 114.413459778
        y: -22.3760871887
        z: 14.212436676
      rotation: 
        x: 0.0125060267746
        y: -0.0492485947907
        z: -0.0154851758853
        w: 0.998588204384
---
transforms: 
  - 
    header: 
      seq: 0
      stamp: 
        secs: 1567284407
        nsecs: 583732000
      frame_id: "map"
    child_frame_id: "velodyne"
    transform: 
      translation: 
        x: 114.515869141
        y: -23.4878120422
        z: 14.2175045013
      rotation: 
        x: 0.0101096555591
        y: -0.0490756966174
        z: -0.0113713499159
        w: 0.998679161072
---
transforms: 
  - 
    header: 
      seq: 0
      stamp: 
        secs: 1567284407
        nsecs: 685698000
      frame_id: "map"
    child_frame_id: "velodyne"
    transform: 
      translation: 
        x: 114.554153442
        y: -24.2695217133
        z: 14.2207126617
      rotation: 
        x: 0.00757732708007
        y: -0.0487090647221
        z: -0.0114439586177
        w: 0.998718738556
---
transforms: 
  - 
    header: 
      seq: 0
      stamp: 
        secs: 1567284407
        nsecs: 787710000
      frame_id: "map"
    child_frame_id: "velodyne"
    transform: 
      translation: 
        x: 114.586212158
        y: -24.8177776337
        z: 14.2223539352
      rotation: 
        x: 0.00558049511164
        y: -0.0483648851514
        z: -0.0150867151096
        w: 0.998700201511
---
transforms: 
  - 
    header: 
      seq: 0
      stamp: 
        secs: 1567284407
        nsecs: 889698000
      frame_id: "map"
    child_frame_id: "velodyne"
    transform: 
      translation: 
        x: 114.711242676
        y: -25.1839141846
        z: 14.2348155975
      rotation: 
        x: 0.00404288992286
        y: -0.0484280884266
        z: -0.0160839110613
        w: 0.998688995838
---
transforms: 
  - 
    header: 
      seq: 0
      stamp: 
        secs: 1567284407
        nsecs: 991714000
      frame_id: "map"
    child_frame_id: "velodyne"
    transform: 
      translation: 
        x: 114.945617676
        y: -25.4284858704
        z: 14.261177063
      rotation: 
        x: 0.00320303905755
        y: -0.0487193241715
        z: -0.0181332919747
        w: 0.998642802238
---
transforms: 
  - 
    header: 
      seq: 0
      stamp: 
        secs: 1567284408
        nsecs:  93729000
      frame_id: "map"
    child_frame_id: "velodyne"
    transform: 
      translation: 
        x: 115.152374268
        y: -25.643163681
        z: 14.2851762772
      rotation: 
        x: 0.00310892867856
        y: -0.0489642247558
        z: -0.0192976873368
        w: 0.998609304428
---
transforms: 
  - 
    header: 
      seq: 0
      stamp: 
        secs: 1567284408
        nsecs: 195697000
      frame_id: "map"
    child_frame_id: "velodyne"
    transform: 
      translation: 
        x: 115.337310791
        y: -25.8322219849
        z: 14.3124895096
      rotation: 
        x: 0.00326279038563
        y: -0.0492117553949
        z: -0.0199833959341
        w: 0.998583137989
---
transforms: 
  - 
    header: 
      seq: 0
      stamp: 
        secs: 1567284408
        nsecs: 297713000
      frame_id: "map"
    child_frame_id: "velodyne"
    transform: 
      translation: 
        x: 116.684371948
        y: -27.3361930847
        z: 14.4783334732
      rotation: 
        x: 0.00935472548008
        y: -0.0584943443537
        z: -0.0168602913618
        w: 0.998101532459
---
transforms: 
  - 
    header: 
      seq: 0
      stamp: 
        secs: 1567284408
        nsecs: 399696000
      frame_id: "map"
    child_frame_id: "velodyne"
    transform: 
      translation: 
        x: 116.897743225
        y: -27.7485084534
        z: 14.5633735657
      rotation: 
        x: 0.00930697657168
        y: -0.053905069828
        z: -0.0155541300774
        w: 0.99838155508
---
transforms: 
  - 
    header: 
      seq: 0
      stamp: 
        secs: 1567284408
        nsecs: 501727000
      frame_id: "map"
    child_frame_id: "velodyne"
    transform: 
      translation: 
        x: 116.920272827
        y: -28.723859787
        z: 14.5451917648
      rotation: 
        x: 0.0107179982588
        y: -0.0531340017915
        z: -0.0148548651487
        w: 0.99841940403
---
transforms: 
  - 
    header: 
      seq: 0
      stamp: 
        secs: 1567284408
        nsecs: 603727000
      frame_id: "map"
    child_frame_id: "velodyne"
    transform: 
      translation: 
        x: 117.44128418
        y: -28.9175777435
        z: 14.6052026749
      rotation: 
        x: 0.00364104076289
        y: -0.0508534610271
        z: -0.00831133686006
        w: 0.998664915562
---
transforms: 
  - 
    header: 
      seq: 0
      stamp: 
        secs: 1567284408
        nsecs: 705695000
      frame_id: "map"
    child_frame_id: "velodyne"
    transform: 
      translation: 
        x: 118.015304565
        y: -28.8200454712
        z: 14.6266098022
      rotation: 
        x: 0.00195215898566
        y: -0.0437956936657
        z: 0.000959945318755
        w: 0.999038159847
---
transforms: 
  - 
    header: 
      seq: 0
      stamp: 
        secs: 1567284408
        nsecs: 807733000
      frame_id: "map"
    child_frame_id: "velodyne"
    transform: 
      translation: 
        x: 118.960983276
        y: -28.7729434967
        z: 14.7184295654
      rotation: 
        x: 0.00232023466378
        y: -0.0531279668212
        z: 0.0123203955591
        w: 0.998509049416
---
transforms: 
  - 
    header: 
      seq: 0
      stamp: 
        secs: 1567284408
        nsecs: 909718000
      frame_id: "map"
    child_frame_id: "velodyne"
    transform: 
      translation: 
        x: 119.620742798
        y: -29.1409740448
        z: 14.7638492584
      rotation: 
        x: 0.00201905448921
        y: -0.0480645149946
        z: 0.0229845456779
        w: 0.998577713966
---
transforms: 
  - 
    header: 
      seq: 0
      stamp: 
        secs: 1567284409
        nsecs:  11697000
      frame_id: "map"
    child_frame_id: "velodyne"
    transform: 
      translation: 
        x: 120.504837036
        y: -28.7527427673
        z: 14.8480587006
      rotation: 
        x: -0.00594593025744
        y: -0.0472045242786
        z: 0.0304946582764
        w: 0.998401939869
---
transforms: 
  - 
    header: 
      seq: 0
      stamp: 
        secs: 1567284409
        nsecs: 113694000
      frame_id: "map"
    child_frame_id: "velodyne"
    transform: 
      translation: 
        x: 121.165977478
        y: -28.4786739349
        z: 14.8801469803
      rotation: 
        x: -0.0111488411203
        y: -0.0467383116484
        z: 0.0453348681331
        w: 0.997815608978
---
transforms: 
  - 
    header: 
      seq: 0
      stamp: 
        secs: 1567284409
        nsecs: 215706000
      frame_id: "map"
    child_frame_id: "velodyne"
    transform: 
      translation: 
        x: 121.627113342
        y: -28.2533473969
        z: 14.9532833099
      rotation: 
        x: -0.0124746831134
        y: -0.0472823828459
        z: 0.0596711784601
        w: 0.997019588947
---
transforms: 
  - 
    header: 
      seq: 0
      stamp: 
        secs: 1567284409
        nsecs: 317717000
      frame_id: "map"
    child_frame_id: "velodyne"
    transform: 
      translation: 
        x: 121.740745544
        y: -28.3067741394
        z: 14.9183416367
      rotation: 
        x: -0.00903340056539
        y: -0.0519292876124
        z: 0.0712315440178
        w: 0.996066153049
---
transforms: 
  - 
    header: 
      seq: 0
      stamp: 
        secs: 1567284409
        nsecs: 419691000
      frame_id: "map"
    child_frame_id: "velodyne"
    transform: 
      translation: 
        x: 121.832572937
        y: -28.4793758392
        z: 14.8785152435
      rotation: 
        x: -0.00835214927793
        y: -0.0463335365057
        z: 0.0733457058668
        w: 0.996194720268
---
transforms: 
  - 
    header: 
      seq: 0
      stamp: 
        secs: 1567284409
        nsecs: 521688000
      frame_id: "map"
    child_frame_id: "velodyne"
    transform: 
      translation: 
        x: 122.661720276
        y: -28.5320568085
        z: 14.9938592911
      rotation: 
        x: -0.0113820163533
        y: -0.05715123564
        z: 0.102498702705
        w: 0.993024766445
---
transforms: 
  - 
    header: 
      seq: 0
      stamp: 
        secs: 1567284409
        nsecs: 623719000
      frame_id: "map"
    child_frame_id: "velodyne"
    transform: 
      translation: 
        x: 122.704589844
        y: -28.3613376617
        z: 14.9871177673
      rotation: 
        x: -0.0099926861003
        y: -0.0581267625093
        z: 0.115121312439
        w: 0.991598963737
---
transforms: 
  - 
    header: 
      seq: 0
      stamp: 
        secs: 1567284409
        nsecs: 725695000
      frame_id: "map"
    child_frame_id: "velodyne"
    transform: 
      translation: 
        x: 122.897888184
        y: -28.3257675171
        z: 15.0010070801
      rotation: 
        x: -0.0106548210606
        y: -0.0586273446679
        z: 0.129412725568
        w: 0.989798784256
---
transforms: 
  - 
    header: 
      seq: 0
      stamp: 
        secs: 1567284409
        nsecs: 827714000
      frame_id: "map"
    child_frame_id: "velodyne"
    transform: 
      translation: 
        x: 123.179458618
        y: -28.3705196381
        z: 15.0782489777
      rotation: 
        x: -0.00720714172348
        y: -0.0592013336718
        z: 0.145681887865
        w: 0.987532317638
---
transforms: 
  - 
    header: 
      seq: 0
      stamp: 
        secs: 1567284409
        nsecs: 929690000
      frame_id: "map"
    child_frame_id: "velodyne"
    transform: 
      translation: 
        x: 123.448051453
        y: -28.4613227844
        z: 15.1007156372
      rotation: 
        x: -0.00591078260913
        y: -0.0601239576936
        z: 0.161891594529
        w: 0.984957516193
---
transforms: 
  - 
    header: 
      seq: 0
      stamp: 
        secs: 1567284410
        nsecs:  31686000
      frame_id: "map"
    child_frame_id: "velodyne"
    transform: 
      translation: 
        x: 124.073112488
        y: -28.2890739441
        z: 15.1713953018
      rotation: 
        x: -0.00843886937946
        y: -0.059043161571
        z: 0.180505201221
        w: 0.981764018536
---
transforms: 
  - 
    header: 
      seq: 0
      stamp: 
        secs: 1567284410
        nsecs: 133708000
      frame_id: "map"
    child_frame_id: "velodyne"
    transform: 
      translation: 
        x: 124.492134094
        y: -28.2947025299
        z: 15.2328548431
      rotation: 
        x: -0.00977612379938
        y: -0.0630441680551
        z: 0.195088520646
        w: 0.97870850563
---
transforms: 
  - 
    header: 
      seq: 0
      stamp: 
        secs: 1567284410
        nsecs: 235700000
      frame_id: "map"
    child_frame_id: "velodyne"
    transform: 
      translation: 
        x: 124.913131714
        y: -27.939447403
        z: 15.296453476
      rotation: 
        x: -0.00733805401251
        y: -0.0630112737417
        z: 0.217769920826
        w: 0.973936378956
---
transforms: 
  - 
    header: 
      seq: 0
      stamp: 
        secs: 1567284410
        nsecs: 337688000
      frame_id: "map"
    child_frame_id: "velodyne"
    transform: 
      translation: 
        x: 125.551673889
        y: -27.740272522
        z: 15.4058322906
      rotation: 
        x: -0.00498278765008
        y: -0.0621142163873
        z: 0.232778966427
        w: 0.970531284809
---
transforms: 
  - 
    header: 
      seq: 0
      stamp: 
        secs: 1567284410
        nsecs: 439702000
      frame_id: "map"
    child_frame_id: "velodyne"
    transform: 
      translation: 
        x: 125.914779663
        y: -27.3575592041
        z: 15.4768695831
      rotation: 
        x: -0.00301001593471
        y: -0.056455951184
        z: 0.23892557621
        w: 0.969390630722
---
transforms: 
  - 
    header: 
      seq: 0
      stamp: 
        secs: 1567284410
        nsecs: 541685000
      frame_id: "map"
    child_frame_id: "velodyne"
    transform: 
      translation: 
        x: 126.51247406
        y: -28.0425224304
        z: 15.5279340744
      rotation: 
        x: -0.00624938914552
        y: -0.057132743299
        z: 0.256514191628
        w: 0.964830219746
---
transforms: 
  - 
    header: 
      seq: 0
      stamp: 
        secs: 1567284410
        nsecs: 643685000
      frame_id: "map"
    child_frame_id: "velodyne"
    transform: 
      translation: 
        x: 127.138244629
        y: -28.8597297668
        z: 15.6481599808
      rotation: 
        x: -0.0181144792587
        y: -0.054763443768
        z: 0.262983649969
        w: 0.963074505329
---
transforms: 
  - 
    header: 
      seq: 0
      stamp: 
        secs: 1567284410
        nsecs: 745714000
      frame_id: "map"
    child_frame_id: "velodyne"
    transform: 
      translation: 
        x: 127.603965759
        y: -28.6791954041
        z: 15.711853981
      rotation: 
        x: -0.0216638892889
        y: -0.0542192235589
        z: 0.281362473965
        w: 0.957823693752
---
transforms: 
  - 
    header: 
      seq: 0
      stamp: 
        secs: 1567284410
        nsecs: 847704000
      frame_id: "map"
    child_frame_id: "velodyne"
    transform: 
      translation: 
        x: 128.029647827
        y: -28.4037857056
        z: 15.7597160339
      rotation: 
        x: -0.022728363052
        y: -0.0554855726659
        z: 0.301602095366
        w: 0.951546669006
---
transforms: 
  - 
    header: 
      seq: 0
      stamp: 
        secs: 1567284410
        nsecs: 949715000
      frame_id: "map"
    child_frame_id: "velodyne"
    transform: 
      translation: 
        x: 128.527481079
        y: -28.2657814026
        z: 15.831864357
      rotation: 
        x: -0.0225677639246
        y: -0.0554429478943
        z: 0.321134060621
        w: 0.945140063763
---
transforms: 
  - 
    header: 
      seq: 0
      stamp: 
        secs: 1567284411
        nsecs:  51710000
      frame_id: "map"
    child_frame_id: "velodyne"
    transform: 
      translation: 
        x: 129.141143799
        y: -27.5866546631
        z: 15.9355754852
      rotation: 
        x: -0.0183544196188
        y: -0.0558549612761
        z: 0.332518607378
        w: 0.941262304783
---
transforms: 
  - 
    header: 
      seq: 0
      stamp: 
        secs: 1567284411
        nsecs: 153714000
      frame_id: "map"
    child_frame_id: "velodyne"
    transform: 
      translation: 
        x: 129.362457275
        y: -27.0915260315
        z: 15.9507980347
      rotation: 
        x: -0.0180086288601
        y: -0.0557241328061
        z: 0.350648581982
        w: 0.934674322605
---
transforms: 
  - 
    header: 
      seq: 0
      stamp: 
        secs: 1567284411
        nsecs: 255717000
      frame_id: "map"
    child_frame_id: "velodyne"
    transform: 
      translation: 
        x: 129.622589111
        y: -26.7919311523
        z: 16.0032939911
      rotation: 
        x: -0.0193213876337
        y: -0.0547595918179
        z: 0.36602845788
        w: 0.928790271282
---
transforms: 
  - 
    header: 
      seq: 0
      stamp: 
        secs: 1567284411
        nsecs: 357697000
      frame_id: "map"
    child_frame_id: "velodyne"
    transform: 
      translation: 
        x: 130.032699585
        y: -26.4575233459
        z: 16.0170707703
      rotation: 
        x: -0.0213716179132
        y: -0.0558487214148
        z: 0.382018178701
        w: 0.92221814394
---
transforms: 
  - 
    header: 
      seq: 0
      stamp: 
        secs: 1567284411
        nsecs: 459713000
      frame_id: "map"
    child_frame_id: "velodyne"
    transform: 
      translation: 
        x: 130.285995483
        y: -26.3351707458
        z: 16.0643234253
      rotation: 
        x: -0.0214343164116
        y: -0.0570095106959
        z: 0.394471049309
        w: 0.916887760162
---
transforms: 
  - 
    header: 
      seq: 0
      stamp: 
        secs: 1567284411
        nsecs: 561685000
      frame_id: "map"
    child_frame_id: "velodyne"
    transform: 
      translation: 
        x: 130.342300415
        y: -26.5075359344
        z: 16.0697956085
      rotation: 
        x: -0.023364758119
        y: -0.0555580928922
        z: 0.407191187143
        w: 0.911352157593
---
transforms: 
  - 
    header: 
      seq: 0
      stamp: 
        secs: 1567284411
        nsecs: 663708000
      frame_id: "map"
    child_frame_id: "velodyne"
    transform: 
      translation: 
        x: 131.003616333
        y: -26.0448417664
        z: 16.1552600861
      rotation: 
        x: -0.0237044766545
        y: -0.054172988981
        z: 0.42828053236
        w: 0.901709020138
---
transforms: 
  - 
    header: 
      seq: 0
      stamp: 
        secs: 1567284411
        nsecs: 765697000
      frame_id: "map"
    child_frame_id: "velodyne"
    transform: 
      translation: 
        x: 131.260940552
        y: -25.9368858337
        z: 16.1779747009
      rotation: 
        x: -0.0265038311481
        y: -0.051611546427
        z: 0.43813675642
        w: 0.897034049034
---
transforms: 
  - 
    header: 
      seq: 0
      stamp: 
        secs: 1567284411
        nsecs: 867708000
      frame_id: "map"
    child_frame_id: "velodyne"
    transform: 
      translation: 
        x: 131.626525879
        y: -25.3714389801
        z: 16.2181339264
      rotation: 
        x: -0.0266336593777
        y: -0.0512855015695
        z: 0.4593282938
        w: 0.886384785175
---
transforms: 
  - 
    header: 
      seq: 0
      stamp: 
        secs: 1567284411
        nsecs: 969687000
      frame_id: "map"
    child_frame_id: "velodyne"
    transform: 
      translation: 
        x: 131.773880005
        y: -24.9874420166
        z: 16.2177505493
      rotation: 
        x: -0.0281954985112
        y: -0.0517577193677
        z: 0.472745597363
        w: 0.879225671291
---
transforms: 
  - 
    header: 
      seq: 0
      stamp: 
        secs: 1567284412
        nsecs:  71703000
      frame_id: "map"
    child_frame_id: "velodyne"
    transform: 
      translation: 
        x: 132.485183716
        y: -24.6987609863
        z: 16.3059234619
      rotation: 
        x: -0.0296866167337
        y: -0.0520806796849
        z: 0.492817550898
        w: 0.868065178394
---
transforms: 
  - 
    header: 
      seq: 0
      stamp: 
        secs: 1567284412
        nsecs: 173694000
      frame_id: "map"
    child_frame_id: "velodyne"
    transform: 
      translation: 
        x: 132.700790405
        y: -24.3622722626
        z: 16.297252655
      rotation: 
        x: -0.0305797085166
        y: -0.0522406846285
        z: 0.503299832344
        w: 0.861989021301
---
transforms: 
  - 
    header: 
      seq: 0
      stamp: 
        secs: 1567284412
        nsecs: 275705000
      frame_id: "map"
    child_frame_id: "velodyne"
    transform: 
      translation: 
        x: 132.710769653
        y: -23.9141674042
        z: 16.3082027435
      rotation: 
        x: -0.0306645967066
        y: -0.0532314255834
        z: 0.515299022198
        w: 0.854805827141
---
transforms: 
  - 
    header: 
      seq: 0
      stamp: 
        secs: 1567284412
        nsecs: 377703000
      frame_id: "map"
    child_frame_id: "velodyne"
    transform: 
      translation: 
        x: 133.005386353
        y: -23.6223201752
        z: 16.3151798248
      rotation: 
        x: -0.0304640755057
        y: -0.0548341646791
        z: 0.525387644768
        w: 0.848547637463
---
transforms: 
  - 
    header: 
      seq: 0
      stamp: 
        secs: 1567284412
        nsecs: 479717000
      frame_id: "map"
    child_frame_id: "velodyne"
    transform: 
      translation: 
        x: 133.236068726
        y: -23.2238330841
        z: 16.3664569855
      rotation: 
        x: -0.0309951417148
        y: -0.0544813349843
        z: 0.535669326782
        w: 0.842098236084
---
transforms: 
  - 
    header: 
      seq: 0
      stamp: 
        secs: 1567284412
        nsecs: 581707000
      frame_id: "map"
    child_frame_id: "velodyne"
    transform: 
      translation: 
        x: 133.28225708
        y: -22.7059268951
        z: 16.3741912842
      rotation: 
        x: -0.031440962106
        y: -0.0536817349494
        z: 0.54793548584
        w: 0.834204077721
---
transforms: 
  - 
    header: 
      seq: 0
      stamp: 
        secs: 1567284412
        nsecs: 683680000
      frame_id: "map"
    child_frame_id: "velodyne"
    transform: 
      translation: 
        x: 133.179626465
        y: -22.0591239929
        z: 16.3838100433
      rotation: 
        x: -0.0303177386522
        y: -0.0532867722213
        z: 0.564294159412
        w: 0.82329428196
---
transforms: 
  - 
    header: 
      seq: 0
      stamp: 
        secs: 1567284412
        nsecs: 785674000
      frame_id: "map"
    child_frame_id: "velodyne"
    transform: 
      translation: 
        x: 132.78453064
        y: -21.5205116272
        z: 16.33502388
      rotation: 
        x: -0.0292052514851
        y: -0.0539756342769
        z: 0.577329039574
        w: 0.814202010632
---
transforms: 
  - 
    header: 
      seq: 0
      stamp: 
        secs: 1567284412
        nsecs: 887673000
      frame_id: "map"
    child_frame_id: "velodyne"
    transform: 
      translation: 
        x: 132.41027832
        y: -20.7905673981
        z: 16.2820110321
      rotation: 
        x: -0.0290370360017
        y: -0.0537700653076
        z: 0.592133164406
        w: 0.8035197258
---
transforms: 
  - 
    header: 
      seq: 0
      stamp: 
        secs: 1567284412
        nsecs: 989675000
      frame_id: "map"
    child_frame_id: "velodyne"
    transform: 
      translation: 
        x: 132.253967285
        y: -20.3736553192
        z: 16.2580337524
      rotation: 
        x: -0.0280819106847
        y: -0.0540678016841
        z: 0.602827370167
        w: 0.795542120934
---
transforms: 
  - 
    header: 
      seq: 0
      stamp: 
        secs: 1567284413
        nsecs:  91679000
      frame_id: "map"
    child_frame_id: "velodyne"
    transform: 
      translation: 
        x: 132.277709961
        y: -20.0304546356
        z: 16.2835063934
      rotation: 
        x: -0.0294354148209
        y: -0.0544498488307
        z: 0.608718276024
        w: 0.790968298912
---
transforms: 
  - 
    header: 
      seq: 0
      stamp: 
        secs: 1567284413
        nsecs: 193674000
      frame_id: "map"
    child_frame_id: "velodyne"
    transform: 
      translation: 
        x: 132.48588562
        y: -19.4567489624
        z: 16.3125095367
      rotation: 
        x: -0.0297861266881
        y: -0.0554842725396
        z: 0.621511697769
        w: 0.780869722366
---
transforms: 
  - 
    header: 
      seq: 0
      stamp: 
        secs: 1567284413
        nsecs: 295690000
      frame_id: "map"
    child_frame_id: "velodyne"
    transform: 
      translation: 
        x: 132.635421753
        y: -18.8525886536
        z: 16.2973747253
      rotation: 
        x: -0.0316954776645
        y: -0.0559929162264
        z: 0.638353347778
        w: 0.767049729824
---
transforms: 
  - 
    header: 
      seq: 0
      stamp: 
        secs: 1567284413
        nsecs: 397686000
      frame_id: "map"
    child_frame_id: "velodyne"
    transform: 
      translation: 
        x: 132.605270386
        y: -18.2840442657
        z: 16.287071228
      rotation: 
        x: -0.0313212685287
        y: -0.0524299442768
        z: 0.649606704712
        w: 0.757813513279
---
transforms: 
  - 
    header: 
      seq: 0
      stamp: 
        secs: 1567284413
        nsecs: 499705000
      frame_id: "map"
    child_frame_id: "velodyne"
    transform: 
      translation: 
        x: 132.649780273
        y: -17.948102951
        z: 16.3431911469
      rotation: 
        x: -0.0300626195967
        y: -0.0501231923699
        z: 0.655102014542
        w: 0.753276407719
---
transforms: 
  - 
    header: 
      seq: 0
      stamp: 
        secs: 1567284413
        nsecs: 601704000
      frame_id: "map"
    child_frame_id: "velodyne"
    transform: 
      translation: 
        x: 132.596496582
        y: -17.9457435608
        z: 16.3383522034
      rotation: 
        x: -0.030136089772
        y: -0.0484884046018
        z: 0.664415538311
        w: 0.745179712772
---
transforms: 
  - 
    header: 
      seq: 0
      stamp: 
        secs: 1567284413
        nsecs: 703672000
      frame_id: "map"
    child_frame_id: "velodyne"
    transform: 
      translation: 
        x: 132.669937134
        y: -17.7595386505
        z: 16.3785324097
      rotation: 
        x: -0.030949300155
        y: -0.0465225093067
        z: 0.670096337795
        w: 0.740168094635
---
transforms: 
  - 
    header: 
      seq: 0
      stamp: 
        secs: 1567284413
        nsecs: 805692000
      frame_id: "map"
    child_frame_id: "velodyne"
    transform: 
      translation: 
        x: 132.708206177
        y: -17.3862094879
        z: 16.408624649
      rotation: 
        x: -0.0333798266947
        y: -0.0455960892141
        z: 0.674768030643
        w: 0.73586332798
---
transforms: 
  - 
    header: 
      seq: 0
      stamp: 
        secs: 1567284413
        nsecs: 907674000
      frame_id: "map"
    child_frame_id: "velodyne"
    transform: 
      translation: 
        x: 132.733688354
        y: -17.0398807526
        z: 16.4109916687
      rotation: 
        x: -0.0337495096028
        y: -0.0449727028608
        z: 0.678995668888
        w: 0.731985867023
---
transforms: 
  - 
    header: 
      seq: 0
      stamp: 
        secs: 1567284414
        nsecs:   9675000
      frame_id: "map"
    child_frame_id: "velodyne"
    transform: 
      translation: 
        x: 132.942810059
        y: -16.633026123
        z: 16.4419498444
      rotation: 
        x: -0.0336337089539
        y: -0.0431748069823
        z: 0.687676370144
        w: 0.723951637745
---
transforms: 
  - 
    header: 
      seq: 0
      stamp: 
        secs: 1567284414
        nsecs: 111686000
      frame_id: "map"
    child_frame_id: "velodyne"
    transform: 
      translation: 
        x: 131.885864258
        y: -16.0800991058
        z: 16.3012199402
      rotation: 
        x: -0.0330918058753
        y: -0.0414301455021
        z: 0.70082372427
        w: 0.711361169815
---
transforms: 
  - 
    header: 
      seq: 0
      stamp: 
        secs: 1567284414
        nsecs: 213686000
      frame_id: "map"
    child_frame_id: "velodyne"
    transform: 
      translation: 
        x: 130.756393433
        y: -16.1878910065
        z: 16.2163085938
      rotation: 
        x: -0.0346843525767
        y: -0.0389587730169
        z: 0.701538026333
        w: 0.710720479488
---
transforms: 
  - 
    header: 
      seq: 0
      stamp: 
        secs: 1567284414
        nsecs: 315697000
      frame_id: "map"
    child_frame_id: "velodyne"
    transform: 
      translation: 
        x: 130.750152588
        y: -16.8787269592
        z: 16.2282428741
      rotation: 
        x: -0.0386845469475
        y: -0.0362323150039
        z: 0.699697673321
        w: 0.712470293045
---
transforms: 
  - 
    header: 
      seq: 0
      stamp: 
        secs: 1567284414
        nsecs: 417699000
      frame_id: "map"
    child_frame_id: "velodyne"
    transform: 
      translation: 
        x: 129.151977539
        y: -16.507270813
        z: 16.0465145111
      rotation: 
        x: -0.0384713821113
        y: -0.0320114679635
        z: 0.71030241251
        w: 0.702115237713
---
transforms: 
  - 
    header: 
      seq: 0
      stamp: 
        secs: 1567284414
        nsecs: 519672000
      frame_id: "map"
    child_frame_id: "velodyne"
    transform: 
      translation: 
        x: 127.483650208
        y: -15.8541679382
        z: 15.8760871887
      rotation: 
        x: -0.0397121533751
        y: -0.0327809602022
        z: 0.71845471859
        w: 0.693665027618
---
transforms: 
  - 
    header: 
      seq: 0
      stamp: 
        secs: 1567284414
        nsecs: 621664000
      frame_id: "map"
    child_frame_id: "velodyne"
    transform: 
      translation: 
        x: 127.33291626
        y: -15.2136182785
        z: 15.8723239899
      rotation: 
        x: -0.0409707166255
        y: -0.0345379114151
        z: 0.731733322144
        w: 0.679481327534
---
transforms: 
  - 
    header: 
      seq: 0
      stamp: 
        secs: 1567284414
        nsecs: 723667000
      frame_id: "map"
    child_frame_id: "velodyne"
    transform: 
      translation: 
        x: 126.529533386
        y: -13.6900625229
        z: 15.8303499222
      rotation: 
        x: -0.0395083799958
        y: -0.0404437668622
        z: 0.745960235596
        w: 0.663586318493
---
transforms: 
  - 
    header: 
      seq: 0
      stamp: 
        secs: 1567284414
        nsecs: 825681000
      frame_id: "map"
    child_frame_id: "velodyne"
    transform: 
      translation: 
        x: 125.944709778
        y: -12.7264976501
        z: 15.7861843109
      rotation: 
        x: -0.0390119813383
        y: -0.0441830307245
        z: 0.756181299686
        w: 0.651702284813
---
transforms: 
  - 
    header: 
      seq: 0
      stamp: 
        secs: 1567284414
        nsecs: 927674000
      frame_id: "map"
    child_frame_id: "velodyne"
    transform: 
      translation: 
        x: 126.303756714
        y: -12.0011339188
        z: 15.8272390366
      rotation: 
        x: -0.0396715216339
        y: -0.0440841987729
        z: 0.765843391418
        w: 0.640286445618
---
transforms: 
  - 
    header: 
      seq: 0
      stamp: 
        secs: 1567284415
        nsecs:  29661000
      frame_id: "map"
    child_frame_id: "velodyne"
    transform: 
      translation: 
        x: 126.925041199
        y: -11.9375276566
        z: 15.8628969193
      rotation: 
        x: -0.0418666191399
        y: -0.040991730988
        z: 0.764103889465
        w: 0.642426788807
---
transforms: 
  - 
    header: 
      seq: 0
      stamp: 
        secs: 1567284415
        nsecs: 131680000
      frame_id: "map"
    child_frame_id: "velodyne"
    transform: 
      translation: 
        x: 127.052886963
        y: -11.4521446228
        z: 15.8716640472
      rotation: 
        x: -0.0433741919696
        y: -0.0386232621968
        z: 0.774180710316
        w: 0.630294620991
---
transforms: 
  - 
    header: 
      seq: 0
      stamp: 
        secs: 1567284415
        nsecs: 233666000
      frame_id: "map"
    child_frame_id: "velodyne"
    transform: 
      translation: 
        x: 126.99508667
        y: -11.0191545486
        z: 15.8581295013
      rotation: 
        x: -0.0458414852619
        y: -0.0400778092444
        z: 0.780248343945
        w: 0.622498989105
---
transforms: 
  - 
    header: 
      seq: 0
      stamp: 
        secs: 1567284415
        nsecs: 335665000
      frame_id: "map"
    child_frame_id: "velodyne"
    transform: 
      translation: 
        x: 126.982841492
        y: -10.8313398361
        z: 15.8226156235
      rotation: 
        x: -0.0454497151077
        y: -0.0438578277826
        z: 0.788389027119
        w: 0.611926138401
---
transforms: 
  - 
    header: 
      seq: 0
      stamp: 
        secs: 1567284415
        nsecs: 437677000
      frame_id: "map"
    child_frame_id: "velodyne"
    transform: 
      translation: 
        x: 126.438781738
        y: -10.0778808594
        z: 15.7813234329
      rotation: 
        x: -0.0446485541761
        y: -0.0487186163664
        z: 0.804603695869
        w: 0.590123713017
---
transforms: 
  - 
    header: 
      seq: 0
      stamp: 
        secs: 1567284415
        nsecs: 539673000
      frame_id: "map"
    child_frame_id: "velodyne"
    transform: 
      translation: 
        x: 126.300483704
        y: -9.64897727966
        z: 15.8007583618
      rotation: 
        x: -0.0434722341597
        y: -0.0479084700346
        z: 0.81225001812
        w: 0.579711019993
---
transforms: 
  - 
    header: 
      seq: 0
      stamp: 
        secs: 1567284415
        nsecs: 641684000
      frame_id: "map"
    child_frame_id: "velodyne"
    transform: 
      translation: 
        x: 126.034934998
        y: -9.1420211792
        z: 15.8001880646
      rotation: 
        x: -0.0423673503101
        y: -0.0455603338778
        z: 0.827305078506
        w: 0.558297097683
---
transforms: 
  - 
    header: 
      seq: 0
      stamp: 
        secs: 1567284415
        nsecs: 743664000
      frame_id: "map"
    child_frame_id: "velodyne"
    transform: 
      translation: 
        x: 125.692352295
        y: -8.31565570831
        z: 15.7689180374
      rotation: 
        x: -0.0432163886726
        y: -0.0452530421317
        z: 0.832904458046
        w: 0.549867928028
---
transforms: 
  - 
    header: 
      seq: 0
      stamp: 
        secs: 1567284415
        nsecs: 845665000
      frame_id: "map"
    child_frame_id: "velodyne"
    transform: 
      translation: 
        x: 125.135139465
        y: -8.45467567444
        z: 15.7170248032
      rotation: 
        x: -0.0431086346507
        y: -0.0457248613238
        z: 0.837010681629
        w: 0.543566167355
---
transforms: 
  - 
    header: 
      seq: 0
      stamp: 
        secs: 1567284415
        nsecs: 947691000
      frame_id: "map"
    child_frame_id: "velodyne"
    transform: 
      translation: 
        x: 124.227851868
        y: -8.80655002594
        z: 15.5967702866
      rotation: 
        x: -0.0429241992533
        y: -0.0483492463827
        z: 0.838999390602
        w: 0.540277540684
---
transforms: 
  - 
    header: 
      seq: 0
      stamp: 
        secs: 1567284416
        nsecs:  49685000
      frame_id: "map"
    child_frame_id: "velodyne"
    transform: 
      translation: 
        x: 123.266586304
        y: -8.3558511734
        z: 15.491358757
      rotation: 
        x: -0.0375187285244
        y: -0.0519063733518
        z: 0.83988314867
        w: 0.538975358009
---
transforms: 
  - 
    header: 
      seq: 0
      stamp: 
        secs: 1567284416
        nsecs: 151664000
      frame_id: "map"
    child_frame_id: "velodyne"
    transform: 
      translation: 
        x: 120.972518921
        y: -8.72760295868
        z: 15.2667207718
      rotation: 
        x: -0.0316840708256
        y: -0.0516852736473
        z: 0.837920367718
        w: 0.542415261269
---
transforms: 
  - 
    header: 
      seq: 0
      stamp: 
        secs: 1567284416
        nsecs: 253676000
      frame_id: "map"
    child_frame_id: "velodyne"
    transform: 
      translation: 
        x: 120.165473938
        y: -9.05384540558
        z: 15.1657772064
      rotation: 
        x: -0.0300060845912
        y: -0.0505295805633
        z: 0.842584550381
        w: 0.535348236561
---
transforms: 
  - 
    header: 
      seq: 0
      stamp: 
        secs: 1567284416
        nsecs: 355692000
      frame_id: "map"
    child_frame_id: "velodyne"
    transform: 
      translation: 
        x: 119.173599243
        y: -9.15942192078
        z: 15.0566501617
      rotation: 
        x: -0.0328495949507
        y: -0.0493569746614
        z: 0.850648283958
        w: 0.522381484509
---
transforms: 
  - 
    header: 
      seq: 0
      stamp: 
        secs: 1567284416
        nsecs: 457658000
      frame_id: "map"
    child_frame_id: "velodyne"
    transform: 
      translation: 
        x: 118.450378418
        y: -8.67688751221
        z: 15.0096321106
      rotation: 
        x: -0.0390542112291
        y: -0.0482062809169
        z: 0.857282102108
        w: 0.511095285416
---
transforms: 
  - 
    header: 
      seq: 0
      stamp: 
        secs: 1567284416
        nsecs: 559682000
      frame_id: "map"
    child_frame_id: "velodyne"
    transform: 
      translation: 
        x: 118.445899963
        y: -8.41715049744
        z: 15.0905008316
      rotation: 
        x: -0.041277911514
        y: -0.0438269637525
        z: 0.861945390701
        w: 0.503413975239
---
transforms: 
  - 
    header: 
      seq: 0
      stamp: 
        secs: 1567284416
        nsecs: 661682000
      frame_id: "map"
    child_frame_id: "velodyne"
    transform: 
      translation: 
        x: 118.517242432
        y: -8.30757904053
        z: 15.0765686035
      rotation: 
        x: -0.04086124897
        y: -0.0427562296391
        z: 0.864425480366
        w: 0.499270290136
---
transforms: 
  - 
    header: 
      seq: 0
      stamp: 
        secs: 1567284416
        nsecs: 763670000
      frame_id: "map"
    child_frame_id: "velodyne"
    transform: 
      translation: 
        x: 118.613838196
        y: -7.61188030243
        z: 15.1130371094
      rotation: 
        x: -0.0362715870142
        y: -0.0419090464711
        z: 0.873578190804
        w: 0.483517438173
---
transforms: 
  - 
    header: 
      seq: 0
      stamp: 
        secs: 1567284416
        nsecs: 865690000
      frame_id: "map"
    child_frame_id: "velodyne"
    transform: 
      translation: 
        x: 118.711959839
        y: -7.46302223206
        z: 15.059844017
      rotation: 
        x: -0.0327729769051
        y: -0.0411748178303
        z: 0.877885699272
        w: 0.475969880819
---
transforms: 
  - 
    header: 
      seq: 0
      stamp: 
        secs: 1567284416
        nsecs: 967667000
      frame_id: "map"
    child_frame_id: "velodyne"
    transform: 
      translation: 
        x: 118.880256653
        y: -8.76785373688
        z: 14.9893703461
      rotation: 
        x: -0.0338595621288
        y: -0.0398523695767
        z: 0.886364638805
        w: 0.4600251019
---
transforms: 
  - 
    header: 
      seq: 0
      stamp: 
        secs: 1567284417
        nsecs:  69656000
      frame_id: "map"
    child_frame_id: "velodyne"
    transform: 
      translation: 
        x: 119.408355713
        y: -8.55831813812
        z: 15.0409030914
      rotation: 
        x: -0.0395071990788
        y: -0.0391373857856
        z: 0.89223241806
        w: 0.448139250278
---
transforms: 
  - 
    header: 
      seq: 0
      stamp: 
        secs: 1567284417
        nsecs: 171655000
      frame_id: "map"
    child_frame_id: "velodyne"
    transform: 
      translation: 
        x: 119.533218384
        y: -8.29223060608
        z: 15.1169128418
      rotation: 
        x: -0.0431721769273
        y: -0.0367293357849
        z: 0.900129556656
        w: 0.431918889284
---
transforms: 
  - 
    header: 
      seq: 0
      stamp: 
        secs: 1567284417
        nsecs: 273681000
      frame_id: "map"
    child_frame_id: "velodyne"
    transform: 
      translation: 
        x: 119.764595032
        y: -8.17959880829
        z: 15.252532959
      rotation: 
        x: -0.0403774492443
        y: -0.0309561956674
        z: 0.903340578079
        w: 0.425895750523
---
transforms: 
  - 
    header: 
      seq: 0
      stamp: 
        secs: 1567284417
        nsecs: 375658000
      frame_id: "map"
    child_frame_id: "velodyne"
    transform: 
      translation: 
        x: 119.865272522
        y: -8.20254611969
        z: 15.2870340347
      rotation: 
        x: -0.0378612391651
        y: -0.025160741061
        z: 0.903910160065
        w: 0.425299882889
---
transforms: 
  - 
    header: 
      seq: 0
      stamp: 
        secs: 1567284417
        nsecs: 477655000
      frame_id: "map"
    child_frame_id: "velodyne"
    transform: 
      translation: 
        x: 121.574569702
        y: -9.27126789093
        z: 15.4698095322
      rotation: 
        x: -0.0370079427958
        y: -0.0291299931705
        z: 0.88716250658
        w: 0.459047406912
---
transforms: 
  - 
    header: 
      seq: 0
      stamp: 
        secs: 1567284417
        nsecs: 579671000
      frame_id: "map"
    child_frame_id: "velodyne"
    transform: 
      translation: 
        x: 121.274467468
        y: -9.83746910095
        z: 15.3718137741
      rotation: 
        x: -0.0384598523378
        y: -0.0282039921731
        z: 0.879529595375
        w: 0.47344815731
---
transforms: 
  - 
    header: 
      seq: 0
      stamp: 
        secs: 1567284417
        nsecs: 681654000
      frame_id: "map"
    child_frame_id: "velodyne"
    transform: 
      translation: 
        x: 121.33240509
        y: -10.1978569031
        z: 15.3167867661
      rotation: 
        x: -0.0425531081855
        y: -0.0263010002673
        z: 0.884014487267
        w: 0.464775085449
---
transforms: 
  - 
    header: 
      seq: 0
      stamp: 
        secs: 1567284417
        nsecs: 783679000
      frame_id: "map"
    child_frame_id: "velodyne"
    transform: 
      translation: 
        x: 120.827926636
        y: -9.46890640259
        z: 15.272813797
      rotation: 
        x: -0.0447654239833
        y: -0.0212565753609
        z: 0.895748436451
        w: 0.441790610552
---
transforms: 
  - 
    header: 
      seq: 0
      stamp: 
        secs: 1567284417
        nsecs: 885654000
      frame_id: "map"
    child_frame_id: "velodyne"
    transform: 
      translation: 
        x: 119.701980591
        y: -8.56922149658
        z: 15.1787643433
      rotation: 
        x: -0.0477806217968
        y: -0.0197659488767
        z: 0.905208647251
        w: 0.421810090542
---
transforms: 
  - 
    header: 
      seq: 0
      stamp: 
        secs: 1567284417
        nsecs: 987666000
      frame_id: "map"
    child_frame_id: "velodyne"
    transform: 
      translation: 
        x: 119.493682861
        y: -8.5894536972
        z: 15.1289825439
      rotation: 
        x: -0.0487392731011
        y: -0.0180208254606
        z: 0.908910632133
        w: 0.413740426302
---
transforms: 
  - 
    header: 
      seq: 0
      stamp: 
        secs: 1567284418
        nsecs:  89679000
      frame_id: "map"
    child_frame_id: "velodyne"
    transform: 
      translation: 
        x: 118.486274719
        y: -7.78947544098
        z: 15.0765619278
      rotation: 
        x: -0.0485984459519
        y: -0.0166867319494
        z: 0.921975493431
        w: 0.383824020624
---
transforms: 
  - 
    header: 
      seq: 0
      stamp: 
        secs: 1567284418
        nsecs: 191655000
      frame_id: "map"
    child_frame_id: "velodyne"
    transform: 
      translation: 
        x: 117.916412354
        y: -7.36135435104
        z: 15.029917717
      rotation: 
        x: -0.0454457551241
        y: -0.0145655404776
        z: 0.933277010918
        w: 0.355972737074
---
transforms: 
  - 
    header: 
      seq: 0
      stamp: 
        secs: 1567284418
        nsecs: 293655000
      frame_id: "map"
    child_frame_id: "velodyne"
    transform: 
      translation: 
        x: 117.552688599
        y: -6.71726894379
        z: 14.9881439209
      rotation: 
        x: -0.0472937598825
        y: -0.0132301021367
        z: 0.93654948473
        w: 0.347078442574
---
transforms: 
  - 
    header: 
      seq: 0
      stamp: 
        secs: 1567284418
        nsecs: 395655000
      frame_id: "map"
    child_frame_id: "velodyne"
    transform: 
      translation: 
        x: 117.398719788
        y: -6.63959693909
        z: 14.9661235809
      rotation: 
        x: -0.0460609570146
        y: -0.00993199553341
        z: 0.938521564007
        w: 0.341989815235
---
transforms: 
  - 
    header: 
      seq: 0
      stamp: 
        secs: 1567284418
        nsecs: 497657000
      frame_id: "map"
    child_frame_id: "velodyne"
    transform: 
      translation: 
        x: 116.942581177
        y: -4.92803955078
        z: 14.9772891998
      rotation: 
        x: -0.0471016354859
        y: -0.0133187398314
        z: 0.941134870052
        w: 0.334468722343
---
transforms: 
  - 
    header: 
      seq: 0
      stamp: 
        secs: 1567284418
        nsecs: 599672000
      frame_id: "map"
    child_frame_id: "velodyne"
    transform: 
      translation: 
        x: 117.234985352
        y: -4.37599468231
        z: 14.9616374969
      rotation: 
        x: -0.0454080812633
        y: -0.0153615111485
        z: 0.949125468731
        w: 0.31122815609
---
transforms: 
  - 
    header: 
      seq: 0
      stamp: 
        secs: 1567284418
        nsecs: 701656000
      frame_id: "map"
    child_frame_id: "velodyne"
    transform: 
      translation: 
        x: 117.213180542
        y: -4.02917575836
        z: 14.9548912048
      rotation: 
        x: -0.0488344095647
        y: -0.0174355711788
        z: 0.953920185566
        w: 0.295546084642
---
transforms: 
  - 
    header: 
      seq: 0
      stamp: 
        secs: 1567284418
        nsecs: 803653000
      frame_id: "map"
    child_frame_id: "velodyne"
    transform: 
      translation: 
        x: 117.056190491
        y: -3.9021396637
        z: 14.9434137344
      rotation: 
        x: -0.0550954379141
        y: -0.0158073417842
        z: 0.957300961018
        w: 0.283354222775
---
transforms: 
  - 
    header: 
      seq: 0
      stamp: 
        secs: 1567284418
        nsecs: 905652000
      frame_id: "map"
    child_frame_id: "velodyne"
    transform: 
      translation: 
        x: 116.395126343
        y: -3.40896296501
        z: 14.8970565796
      rotation: 
        x: -0.0535503812134
        y: -0.0146312043071
        z: 0.963678598404
        w: 0.261231541634
---
transforms: 
  - 
    header: 
      seq: 0
      stamp: 
        secs: 1567284419
        nsecs:   7655000
      frame_id: "map"
    child_frame_id: "velodyne"
    transform: 
      translation: 
        x: 115.913864136
        y: -3.00619864464
        z: 14.8671264648
      rotation: 
        x: -0.0548700764775
        y: -0.0124339535832
        z: 0.968968033791
        w: 0.240698218346
---
transforms: 
  - 
    header: 
      seq: 0
      stamp: 
        secs: 1567284419
        nsecs: 109650000
      frame_id: "map"
    child_frame_id: "velodyne"
    transform: 
      translation: 
        x: 115.579544067
        y: -3.09193730354
        z: 14.8170232773
      rotation: 
        x: -0.0545729510486
        y: -0.0136141935363
        z: 0.973920166492
        w: 0.219808936119
---
transforms: 
  - 
    header: 
      seq: 0
      stamp: 
        secs: 1567284419
        nsecs: 211655000
      frame_id: "map"
    child_frame_id: "velodyne"
    transform: 
      translation: 
        x: 116.748313904
        y: -3.46179270744
        z: 14.8858394623
      rotation: 
        x: -0.0560337305069
        y: -0.0158936027437
        z: 0.97670930624
        w: 0.206510752439
---
transforms: 
  - 
    header: 
      seq: 0
      stamp: 
        secs: 1567284419
        nsecs: 313676000
      frame_id: "map"
    child_frame_id: "velodyne"
    transform: 
      translation: 
        x: 116.805274963
        y: -3.4865694046
        z: 14.877412796
      rotation: 
        x: -0.0542175397277
        y: -0.0141201280057
        z: 0.980811595917
        w: 0.18673479557
---
transforms: 
  - 
    header: 
      seq: 0
      stamp: 
        secs: 1567284419
        nsecs: 415650000
      frame_id: "map"
    child_frame_id: "velodyne"
    transform: 
      translation: 
        x: 116.308677673
        y: -3.12180662155
        z: 14.8499574661
      rotation: 
        x: -0.053132943809
        y: -0.0154663231224
        z: 0.984688818455
        w: 0.165304854512
---
transforms: 
  - 
    header: 
      seq: 0
      stamp: 
        secs: 1567284419
        nsecs: 517662000
      frame_id: "map"
    child_frame_id: "velodyne"
    transform: 
      translation: 
        x: 116.163215637
        y: -2.75197267532
        z: 14.8528470993
      rotation: 
        x: -0.0503505058587
        y: -0.0134193152189
        z: 0.985763549805
        w: 0.159859418869
---
transforms: 
  - 
    header: 
      seq: 0
      stamp: 
        secs: 1567284419
        nsecs: 619656000
      frame_id: "map"
    child_frame_id: "velodyne"
    transform: 
      translation: 
        x: 115.015617371
        y: -2.55158996582
        z: 14.7304973602
      rotation: 
        x: -0.0524175018072
        y: -0.0134537173435
        z: 0.990878343582
        w: 0.123415902257
---
transforms: 
  - 
    header: 
      seq: 0
      stamp: 
        secs: 1567284419
        nsecs: 721649000
      frame_id: "map"
    child_frame_id: "velodyne"
    transform: 
      translation: 
        x: 113.997047424
        y: -2.46140098572
        z: 14.6675243378
      rotation: 
        x: -0.0541906915605
        y: -0.0109557481483
        z: 0.993245124817
        w: 0.102017641068
---
transforms: 
  - 
    header: 
      seq: 0
      stamp: 
        secs: 1567284419
        nsecs: 823649000
      frame_id: "map"
    child_frame_id: "velodyne"
    transform: 
      translation: 
        x: 113.364105225
        y: -2.42710542679
        z: 14.5949831009
      rotation: 
        x: -0.0571837872267
        y: -0.0125768166035
        z: 0.994626283646
        w: 0.0853841155767
---
transforms: 
  - 
    header: 
      seq: 0
      stamp: 
        secs: 1567284419
        nsecs: 925646000
      frame_id: "map"
    child_frame_id: "velodyne"
    transform: 
      translation: 
        x: 112.987747192
        y: -1.76500487328
        z: 14.5783500671
      rotation: 
        x: -0.0571890100837
        y: -0.0154095003381
        z: 0.995202481747
        w: 0.0778718516231
---
transforms: 
  - 
    header: 
      seq: 0
      stamp: 
        secs: 1567284420
        nsecs:  27645000
      frame_id: "map"
    child_frame_id: "velodyne"
    transform: 
      translation: 
        x: 112.530380249
        y: -1.69286882877
        z: 14.5043125153
      rotation: 
        x: -0.0580477304757
        y: -0.0190065428615
        z: 0.995919167995
        w: 0.0664403811097
---
transforms: 
  - 
    header: 
      seq: 0
      stamp: 
        secs: 1567284420
        nsecs: 129647000
      frame_id: "map"
    child_frame_id: "velodyne"
    transform: 
      translation: 
        x: 111.13684845
        y: -1.40908765793
        z: 14.3967266083
      rotation: 
        x: -0.0599053390324
        y: -0.0189151950181
        z: 0.997492432594
        w: 0.0325954668224
---
transforms: 
  - 
    header: 
      seq: 0
      stamp: 
        secs: 1567284420
        nsecs: 231647000
      frame_id: "map"
    child_frame_id: "velodyne"
    transform: 
      translation: 
        x: 110.551635742
        y: -1.51068079472
        z: 14.3492126465
      rotation: 
        x: -0.0504042282701
        y: -0.015633456409
        z: 0.998377978802
        w: 0.0213639866561
---
transforms: 
  - 
    header: 
      seq: 0
      stamp: 
        secs: 1567284420
        nsecs: 333646000
      frame_id: "map"
    child_frame_id: "velodyne"
    transform: 
      translation: 
        x: 110.124389648
        y: -1.66986775398
        z: 14.2882900238
      rotation: 
        x: -0.0605004094541
        y: -0.0194986946881
        z: 0.997869849205
        w: 0.0146745452657
---
transforms: 
  - 
    header: 
      seq: 0
      stamp: 
        secs: 1567284420
        nsecs: 435668000
      frame_id: "map"
    child_frame_id: "velodyne"
    transform: 
      translation: 
        x: 109.297393799
        y: -1.82567822933
        z: 14.1821699142
      rotation: 
        x: -0.0559286996722
        y: -0.0202585496008
        z: 0.998220145702
        w: -0.00426616705954
---
transforms: 
  - 
    header: 
      seq: 0
      stamp: 
        secs: 1567284420
        nsecs: 537648000
      frame_id: "map"
    child_frame_id: "velodyne"
    transform: 
      translation: 
        x: 107.897140503
        y: -1.73950076103
        z: 14.0407676697
      rotation: 
        x: -0.0576072186232
        y: -0.0207015592605
        z: 0.997954487801
        w: -0.0184312164783
---
transforms: 
  - 
    header: 
      seq: 0
      stamp: 
        secs: 1567284420
        nsecs: 639659000
      frame_id: "map"
    child_frame_id: "velodyne"
    transform: 
      translation: 
        x: 107.512298584
        y: -1.93173396587
        z: 14.0267276764
      rotation: 
        x: -0.0558545477688
        y: -0.019420992583
        z: 0.997969925404
        w: -0.0236472766846
---
transforms: 
  - 
    header: 
      seq: 0
      stamp: 
        secs: 1567284420
        nsecs: 741643000
      frame_id: "map"
    child_frame_id: "velodyne"
    transform: 
      translation: 
        x: 106.921798706
        y: -1.81074786186
        z: 13.9827346802
      rotation: 
        x: -0.0573783703148
        y: -0.0181075502187
        z: 0.997501969337
        w: -0.0370094254613
---
transforms: 
  - 
    header: 
      seq: 0
      stamp: 
        secs: 1567284420
        nsecs: 843642000
      frame_id: "map"
    child_frame_id: "velodyne"
    transform: 
      translation: 
        x: 105.462387085
        y: -2.25546145439
        z: 13.8267765045
      rotation: 
        x: -0.0570109263062
        y: -0.0179933086038
        z: 0.996426403522
        w: -0.0596695430577
---
transforms: 
  - 
    header: 
      seq: 0
      stamp: 
        secs: 1567284420
        nsecs: 945642000
      frame_id: "map"
    child_frame_id: "velodyne"
    transform: 
      translation: 
        x: 104.286819458
        y: -3.00134062767
        z: 13.698928833
      rotation: 
        x: -0.0551440194249
        y: -0.015764573589
        z: 0.99575650692
        w: -0.0719697549939
---
transforms: 
  - 
    header: 
      seq: 0
      stamp: 
        secs: 1567284421
        nsecs:  47641000
      frame_id: "map"
    child_frame_id: "velodyne"
    transform: 
      translation: 
        x: 102.655349731
        y: -3.13248896599
        z: 13.5378799438
      rotation: 
        x: -0.0542919784784
        y: -0.0116633754224
        z: 0.994669675827
        w: -0.0868824720383
---
transforms: 
  - 
    header: 
      seq: 0
      stamp: 
        secs: 1567284421
        nsecs: 149641000
      frame_id: "map"
    child_frame_id: "velodyne"
    transform: 
      translation: 
        x: 100.890487671
        y: -3.84650015831
        z: 13.4459848404
      rotation: 
        x: -0.0509723648429
        y: -0.00999402347952
        z: 0.992546856403
        w: -0.110239341855
---
transforms: 
  - 
    header: 
      seq: 0
      stamp: 
        secs: 1567284421
        nsecs: 251641000
      frame_id: "map"
    child_frame_id: "velodyne"
    transform: 
      translation: 
        x: 99.2829742432
        y: -4.95196580887
        z: 13.3635349274
      rotation: 
        x: -0.0506303943694
        y: -0.00428600655869
        z: 0.988703489304
        w: -0.141009196639
---
transforms: 
  - 
    header: 
      seq: 0
      stamp: 
        secs: 1567284421
        nsecs: 353645000
      frame_id: "map"
    child_frame_id: "velodyne"
    transform: 
      translation: 
        x: 98.2421951294
        y: -6.1331372261
        z: 13.1383934021
      rotation: 
        x: -0.0514156706631
        y: -0.00205184170045
        z: 0.986946344376
        w: -0.152607753873
---
transforms: 
  - 
    header: 
      seq: 0
      stamp: 
        secs: 1567284421
        nsecs: 455641000
