transforms: 
  - 
    header: 
      seq: 0
      stamp: 
        secs: 1574453574
        nsecs:  12010000
      frame_id: "map"
    child_frame_id: "velodyne"
    transform: 
      translation: 
        x: 0.508808016777
        y: 1.23865306377
        z: -2.79383039474
      rotation: 
        x: 0.0334584154189
        y: -0.00398308411241
        z: 0.00495520979166
        w: 0.999419927597
---
transforms: 
  - 
    header: 
      seq: 0
      stamp: 
        secs: 1574453573
        nsecs: 909948000
      frame_id: "map"
    child_frame_id: "velodyne"
    transform: 
      translation: 
        x: -0.345853626728
        y: 0.606485843658
        z: -2.37598323822
      rotation: 
        x: 0.0328305736184
        y: 0.00866276491433
        z: -0.000908938061912
        w: 0.999422967434
---
transforms: 
  - 
    header: 
      seq: 0
      stamp: 
        secs: 1574453574
        nsecs:  12010000
      frame_id: "map"
    child_frame_id: "velodyne"
    transform: 
      translation: 
        x: 0.817476391792
        y: 2.36736011505
        z: -4.99437713623
      rotation: 
        x: 0.0287639666349
        y: 0.00595223158598
        z: -0.0268229804933
        w: 0.999208569527
---
transforms: 
  - 
    header: 
      seq: 0
      stamp: 
        secs: 1574453574
        nsecs: 113933000
      frame_id: "map"
    child_frame_id: "velodyne"
    transform: 
      translation: 
        x: 1.72185814381
        y: 1.55151748657
        z: -8.28216457367
      rotation: 
        x: 0.00437186099589
        y: 0.00201887730509
        z: -0.0341321341693
        w: 0.999405741692
---
transforms: 
  - 
    header: 
      seq: 0
      stamp: 
        secs: 1574453574
        nsecs: 215961000
      frame_id: "map"
    child_frame_id: "velodyne"
    transform: 
      translation: 
        x: 3.29392361641
        y: -1.01357972622
        z: -9.21681880951
      rotation: 
        x: 0.0317570865154
        y: 0.00552634289488
        z: -0.0605407878757
        w: 0.997645139694
---
transforms: 
  - 
    header: 
      seq: 0
      stamp: 
        secs: 1574453574
        nsecs: 317942000
      frame_id: "map"
    child_frame_id: "velodyne"
    transform: 
      translation: 
        x: 3.20533561707
        y: -1.09055948257
        z: -9.27494335175
      rotation: 
        x: 0.0337989553809
        y: 0.00550275295973
        z: -0.064215451479
        w: 0.997348368168
---
transforms: 
  - 
    header: 
      seq: 0
      stamp: 
        secs: 1574453574
        nsecs: 419942000
      frame_id: "map"
    child_frame_id: "velodyne"
    transform: 
      translation: 
        x: 3.2730178833
        y: -1.13368237019
        z: -9.26103782654
      rotation: 
        x: 0.0326376482844
        y: 0.00430999835953
        z: -0.0625466927886
        w: 0.997498929501
---
transforms: 
  - 
    header: 
      seq: 0
      stamp: 
        secs: 1574453574
        nsecs: 521912000
      frame_id: "map"
    child_frame_id: "velodyne"
    transform: 
      translation: 
        x: 3.38675642014
        y: -1.12935221195
        z: -9.25461673737
      rotation: 
        x: 0.0322376824915
        y: 0.00257340236567
        z: -0.0594378449023
        w: 0.997708022594
---
transforms: 
  - 
    header: 
      seq: 0
      stamp: 
        secs: 1574453574
        nsecs: 623943000
      frame_id: "map"
    child_frame_id: "velodyne"
    transform: 
      translation: 
        x: 3.52707123756
        y: -1.11267971992
        z: -9.24179363251
      rotation: 
        x: 0.0330868288875
        y: 0.00511026149616
        z: -0.0557286180556
        w: 0.997884511948
---
transforms: 
  - 
    header: 
      seq: 0
      stamp: 
        secs: 1574453574
        nsecs: 725947000
      frame_id: "map"
    child_frame_id: "velodyne"
    transform: 
      translation: 
        x: 3.65217685699
        y: -1.05583953857
        z: -9.1995716095
      rotation: 
        x: 0.031646091491
        y: 0.00327883777209
        z: -0.0504021942616
        w: 0.99822217226
---
transforms: 
  - 
    header: 
      seq: 0
      stamp: 
        secs: 1574453574
        nsecs: 827909000
      frame_id: "map"
    child_frame_id: "velodyne"
    transform: 
      translation: 
        x: 3.77295780182
        y: -1.02160978317
        z: -9.22942352295
      rotation: 
        x: 0.033581327647
        y: 0.00466341013089
        z: -0.0450282692909
        w: 0.998410284519
---
transforms: 
  - 
    header: 
      seq: 0
      stamp: 
        secs: 1574453574
        nsecs: 929939000
      frame_id: "map"
    child_frame_id: "velodyne"
    transform: 
      translation: 
        x: 2.34489154816
        y: -280.263000488
        z: -7.35299777985
      rotation: 
        x: 0.0
        y: 0.0
        z: -0.851023852825
        w: 0.525127112865
---
transforms: 
  - 
    header: 
      seq: 0
      stamp: 
        secs: 1574453575
        nsecs:  31907000
      frame_id: "map"
    child_frame_id: "velodyne"
    transform: 
      translation: 
        x: 1.48070788383
        y: -280.312103271
        z: -6.91030406952
      rotation: 
        x: 0.0112998513505
        y: -0.00306523195468
        z: -0.842564463615
        w: 0.538468360901
---
transforms: 
  - 
    header: 
      seq: 0
      stamp: 
        secs: 1574453575
        nsecs: 235907000
      frame_id: "map"
    child_frame_id: "velodyne"
    transform: 
      translation: 
        x: -0.90151154995
        y: -280.469207764
        z: -6.05320596695
      rotation: 
        x: 0.0311157032847
        y: -0.00975341536105
        z: -0.811155557632
        w: 0.583920717239
---
transforms: 
  - 
    header: 
      seq: 0
      stamp: 
        secs: 1574453575
        nsecs: 439932000
      frame_id: "map"
    child_frame_id: "velodyne"
    transform: 
      translation: 
        x: -1.36164033413
        y: -279.913024902
        z: -5.84783935547
      rotation: 
        x: 0.0123173529282
        y: -0.00787524040788
        z: -0.791731595993
        w: 0.610694229603
---
transforms: 
  - 
    header: 
      seq: 0
      stamp: 
        secs: 1574453575
        nsecs: 541904000
      frame_id: "map"
    child_frame_id: "velodyne"
    transform: 
      translation: 
        x: -1.39902126789
        y: -280.079620361
        z: -5.84635162354
      rotation: 
        x: 0.0205200072378
        y: -0.00873576384038
        z: -0.796959340572
        w: 0.603621125221
---
transforms: 
  - 
    header: 
      seq: 0
      stamp: 
        secs: 1574453575
        nsecs: 847933000
      frame_id: "map"
    child_frame_id: "velodyne"
    transform: 
      translation: 
        x: -1.43066370487
        y: -280.645477295
        z: -5.844414711
      rotation: 
        x: 0.0170075260103
        y: -0.00828323420137
        z: -0.755858063698
        w: 0.654462218285
---
transforms: 
  - 
    header: 
      seq: 0
      stamp: 
        secs: 1574453575
        nsecs: 949905000
      frame_id: "map"
    child_frame_id: "velodyne"
    transform: 
      translation: 
        x: -1.43648684025
        y: -280.848114014
        z: -5.85109138489
      rotation: 
        x: 0.0193986464292
        y: -0.00826569553465
        z: -0.760428667068
        w: 0.649079084396
---
transforms: 
  - 
    header: 
      seq: 0
      stamp: 
        secs: 1574453576
        nsecs:  51905000
      frame_id: "map"
    child_frame_id: "velodyne"
    transform: 
      translation: 
        x: -1.44106960297
        y: -281.063415527
        z: -5.86054182053
      rotation: 
        x: 0.0174416657537
        y: -0.00701174465939
        z: -0.747921943665
        w: 0.663520514965
---
transforms: 
  - 
    header: 
      seq: 0
      stamp: 
        secs: 1574453576
        nsecs: 153903000
      frame_id: "map"
    child_frame_id: "velodyne"
    transform: 
      translation: 
        x: -1.44829332829
        y: -281.289672852
        z: -5.86888980865
      rotation: 
        x: 0.0176682546735
        y: -0.006110873539
        z: -0.741940498352
        w: 0.670205116272
---
transforms: 
  - 
    header: 
      seq: 0
      stamp: 
        secs: 1574453576
        nsecs: 255911000
      frame_id: "map"
    child_frame_id: "velodyne"
    transform: 
      translation: 
        x: -1.45699977875
        y: -281.537261963
        z: -5.86842727661
      rotation: 
        x: 0.0169893167913
        y: -0.00594567647204
        z: -0.742166221142
        w: 0.669974088669
---
transforms: 
  - 
    header: 
      seq: 0
      stamp: 
        secs: 1574453576
        nsecs: 357930000
      frame_id: "map"
    child_frame_id: "velodyne"
    transform: 
      translation: 
        x: -1.46436214447
        y: -281.755615234
        z: -5.88085699081
      rotation: 
        x: 0.0166264493018
        y: -0.00515888351947
        z: -0.735199213028
        w: 0.677627623081
---
transforms: 
  - 
    header: 
      seq: 0
      stamp: 
        secs: 1574453576
        nsecs: 459923000
      frame_id: "map"
    child_frame_id: "velodyne"
    transform: 
      translation: 
        x: -1.46625256538
        y: -281.994842529
        z: -5.88610124588
      rotation: 
        x: 0.0165486373007
        y: -0.00463211350143
        z: -0.728602290154
        w: 0.684721469879
---
transforms: 
  - 
    header: 
      seq: 0
      stamp: 
        secs: 1574453576
        nsecs: 561930000
      frame_id: "map"
    child_frame_id: "velodyne"
    transform: 
      translation: 
        x: -1.46810317039
        y: -282.265869141
        z: -5.88429403305
      rotation: 
        x: 0.0158527400345
        y: -0.00383552117273
        z: -0.724174141884
        w: 0.689424276352
---
transforms: 
  - 
    header: 
      seq: 0
      stamp: 
        secs: 1574453576
        nsecs: 663915000
      frame_id: "map"
    child_frame_id: "velodyne"
    transform: 
      translation: 
        x: -1.47637915611
        y: -282.526947021
        z: -5.88587474823
      rotation: 
        x: 0.0153563171625
        y: -0.00317174987867
        z: -0.721110641956
        w: 0.692642509937
---
transforms: 
  - 
    header: 
      seq: 0
      stamp: 
        secs: 1574453576
        nsecs: 765928000
      frame_id: "map"
    child_frame_id: "velodyne"
    transform: 
      translation: 
        x: -1.48834943771
        y: -282.827941895
        z: -5.88711071014
      rotation: 
        x: 0.0149840833619
        y: -0.00234675686806
        z: -0.721703648567
        w: 0.692036032677
---
transforms: 
  - 
    header: 
      seq: 0
      stamp: 
        secs: 1574453576
        nsecs: 867895000
      frame_id: "map"
    child_frame_id: "velodyne"
    transform: 
      translation: 
        x: -1.4919501543
        y: -283.085357666
        z: -5.89783525467
      rotation: 
        x: 0.014641854912
        y: -0.00208348175511
        z: -0.72035163641
        w: 0.693451404572
---
transforms: 
  - 
    header: 
      seq: 0
      stamp: 
        secs: 1574453576
        nsecs: 969927000
      frame_id: "map"
    child_frame_id: "velodyne"
    transform: 
      translation: 
        x: -1.49279844761
        y: -283.41607666
        z: -5.89651870728
      rotation: 
        x: 0.0134547827765
        y: -0.00111946312245
        z: -0.721475243568
        w: 0.692308664322
---
transforms: 
  - 
    header: 
      seq: 0
      stamp: 
        secs: 1574453577
        nsecs:  71936000
      frame_id: "map"
    child_frame_id: "velodyne"
    transform: 
      translation: 
        x: -1.46907794476
        y: -283.705230713
        z: -5.91577911377
      rotation: 
        x: 0.0129230590537
        y: 0.000247451069299
        z: -0.72319483757
        w: 0.690523087978
---
transforms: 
  - 
    header: 
      seq: 0
      stamp: 
        secs: 1574453577
        nsecs: 173910000
      frame_id: "map"
    child_frame_id: "velodyne"
    transform: 
      translation: 
        x: -1.4215388298
        y: -284.016357422
        z: -5.90741634369
      rotation: 
        x: 0.0128756603226
        y: 0.00210551149212
        z: -0.726592481136
        w: 0.686944842339
---
transforms: 
  - 
    header: 
      seq: 0
      stamp: 
        secs: 1574453577
        nsecs: 275911000
      frame_id: "map"
    child_frame_id: "velodyne"
    transform: 
      translation: 
        x: -1.40737855434
        y: -284.352935791
        z: -5.91750669479
      rotation: 
        x: 0.011947195977
        y: 0.0020643628668
        z: -0.731518447399
        w: 0.681713879108
---
transforms: 
  - 
    header: 
      seq: 0
      stamp: 
        secs: 1574453577
        nsecs: 377900000
      frame_id: "map"
    child_frame_id: "velodyne"
    transform: 
      translation: 
        x: -1.42290723324
        y: -284.698242188
        z: -5.93072795868
      rotation: 
        x: 0.0134491622448
        y: 0.00246140942909
        z: -0.736814022064
        w: 0.675957322121
---
transforms: 
  - 
    header: 
      seq: 0
      stamp: 
        secs: 1574453577
        nsecs: 479891000
      frame_id: "map"
    child_frame_id: "velodyne"
    transform: 
      translation: 
        x: -1.46455800533
        y: -285.056549072
        z: -5.92648744583
      rotation: 
        x: 0.0132180294022
        y: 0.0023231098894
        z: -0.742434978485
        w: 0.669783711433
---
transforms: 
  - 
    header: 
      seq: 0
      stamp: 
        secs: 1574453577
        nsecs: 581919000
      frame_id: "map"
    child_frame_id: "velodyne"
    transform: 
      translation: 
        x: -1.51473355293
        y: -285.418365479
        z: -5.94556713104
      rotation: 
        x: 0.0140858143568
        y: 0.00212481431663
        z: -0.748205244541
        w: 0.663314342499
---
transforms: 
  - 
    header: 
      seq: 0
      stamp: 
        secs: 1574453577
        nsecs: 683920000
      frame_id: "map"
    child_frame_id: "velodyne"
    transform: 
      translation: 
        x: -1.58609759808
        y: -285.809753418
        z: -5.95694923401
      rotation: 
        x: 0.0150537407026
        y: 0.00294236233458
        z: -0.75388777256
        w: 0.656824111938
---
transforms: 
  - 
    header: 
      seq: 0
      stamp: 
        secs: 1574453577
        nsecs: 785889000
      frame_id: "map"
    child_frame_id: "velodyne"
    transform: 
      translation: 
        x: -1.67030704021
        y: -286.205657959
        z: -5.97307538986
      rotation: 
        x: 0.0147232366726
        y: 0.00300361425616
        z: -0.759314596653
        w: 0.650550186634
---
transforms: 
  - 
    header: 
      seq: 0
      stamp: 
        secs: 1574453577
        nsecs: 887889000
      frame_id: "map"
    child_frame_id: "velodyne"
    transform: 
      translation: 
        x: -1.76165819168
        y: -286.603393555
        z: -6.00122976303
      rotation: 
        x: 0.0156001718715
        y: 0.00405729655176
        z: -0.764371216297
        w: 0.644574999809
---
transforms: 
  - 
    header: 
      seq: 0
      stamp: 
        secs: 1574453577
        nsecs: 989922000
      frame_id: "map"
    child_frame_id: "velodyne"
    transform: 
      translation: 
        x: -1.8615436554
        y: -287.015380859
        z: -6.00977516174
      rotation: 
        x: 0.0148244611919
        y: 0.00402736058459
        z: -0.769061148167
        w: 0.638990581036
---
transforms: 
  - 
    header: 
      seq: 0
      stamp: 
        secs: 1574453578
        nsecs:  91911000
      frame_id: "map"
    child_frame_id: "velodyne"
    transform: 
      translation: 
        x: -1.96897041798
        y: -287.434448242
        z: -6.03169441223
      rotation: 
        x: 0.0154770025983
        y: 0.00455730454996
        z: -0.773290276527
        w: 0.63384693861
---
transforms: 
  - 
    header: 
      seq: 0
      stamp: 
        secs: 1574453578
        nsecs: 193897000
      frame_id: "map"
    child_frame_id: "velodyne"
    transform: 
      translation: 
        x: -2.07695674896
        y: -287.860717773
        z: -6.04395103455
      rotation: 
        x: 0.0152939399704
        y: 0.00506479898468
        z: -0.77707105875
        w: 0.629206717014
---
transforms: 
  - 
    header: 
      seq: 0
      stamp: 
        secs: 1574453578
        nsecs: 295907000
      frame_id: "map"
    child_frame_id: "velodyne"
    transform: 
      translation: 
        x: -2.18940281868
        y: -288.318908691
        z: -6.07042598724
      rotation: 
        x: 0.0151954544708
        y: 0.00554800359532
        z: -0.780683815479
        w: 0.624716877937
---
transforms: 
  - 
    header: 
      seq: 0
      stamp: 
        secs: 1574453578
        nsecs: 397910000
      frame_id: "map"
    child_frame_id: "velodyne"
    transform: 
      translation: 
        x: -2.31096982956
        y: -288.788513184
        z: -6.09223747253
      rotation: 
        x: 0.0153978252783
        y: 0.0064171012491
        z: -0.784161746502
        w: 0.620332300663
---
transforms: 
  - 
    header: 
      seq: 0
      stamp: 
        secs: 1574453578
        nsecs: 499884000
      frame_id: "map"
    child_frame_id: "velodyne"
    transform: 
      translation: 
        x: -2.43785023689
        y: -289.25680542
        z: -6.10499811172
      rotation: 
        x: 0.0142459534109
        y: 0.00677174003795
        z: -0.787451803684
        w: 0.616174399853
---
transforms: 
  - 
    header: 
      seq: 0
      stamp: 
        secs: 1574453578
        nsecs: 601901000
      frame_id: "map"
    child_frame_id: "velodyne"
    transform: 
      translation: 
        x: -2.55185389519
        y: -289.73916626
        z: -6.12959909439
      rotation: 
        x: 0.0143182463944
        y: 0.00680526066571
        z: -0.790550351143
        w: 0.612191736698
---
transforms: 
  - 
    header: 
      seq: 0
      stamp: 
        secs: 1574453578
        nsecs: 703909000
      frame_id: "map"
    child_frame_id: "velodyne"
    transform: 
      translation: 
        x: -2.67530441284
        y: -290.217712402
        z: -6.15560626984
      rotation: 
        x: 0.012763206847
        y: 0.00804833322763
        z: -0.793988227844
        w: 0.607745826244
---
transforms: 
  - 
    header: 
      seq: 0
      stamp: 
        secs: 1574453578
        nsecs: 805882000
      frame_id: "map"
    child_frame_id: "velodyne"
    transform: 
      translation: 
        x: -2.80512690544
        y: -290.714691162
        z: -6.17538738251
      rotation: 
        x: 0.0105140889063
        y: 0.00705993408337
        z: -0.797880470753
        w: 0.602682650089
---
transforms: 
  - 
    header: 
      seq: 0
      stamp: 
        secs: 1574453578
        nsecs: 907905000
      frame_id: "map"
    child_frame_id: "velodyne"
    transform: 
      translation: 
        x: -2.96220684052
        y: -291.229278564
        z: -6.16398906708
      rotation: 
        x: 0.0112262070179
        y: 0.00603205850348
        z: -0.802247822285
        w: 0.59685510397
---
transforms: 
  - 
    header: 
      seq: 0
      stamp: 
        secs: 1574453579
        nsecs:   9878000
      frame_id: "map"
    child_frame_id: "velodyne"
    transform: 
      translation: 
        x: -3.13295674324
        y: -291.709503174
        z: -6.19132089615
      rotation: 
        x: 0.0122292777523
        y: 0.00745152169839
        z: -0.806690454483
        w: 0.590800762177
---
transforms: 
  - 
    header: 
      seq: 0
      stamp: 
        secs: 1574453579
        nsecs: 111982000
      frame_id: "map"
    child_frame_id: "velodyne"
    transform: 
      translation: 
        x: -3.30761432648
        y: -292.19821167
        z: -6.2058839798
      rotation: 
        x: 0.0135445175692
        y: 0.0071236025542
        z: -0.810960173607
        w: 0.584901213646
---
transforms: 
  - 
    header: 
      seq: 0
      stamp: 
        secs: 1574453579
        nsecs: 213882000
      frame_id: "map"
    child_frame_id: "velodyne"
    transform: 
      translation: 
        x: -3.47850251198
        y: -292.704711914
        z: -6.22255563736
      rotation: 
        x: 0.0131766451523
        y: 0.00866762176156
        z: -0.814889729023
        w: 0.579401373863
---
transforms: 
  - 
    header: 
      seq: 0
      stamp: 
        secs: 1574453579
        nsecs: 315880000
      frame_id: "map"
    child_frame_id: "velodyne"
    transform: 
      translation: 
        x: -3.65071225166
        y: -293.190979004
        z: -6.2475566864
      rotation: 
        x: 0.014360637404
        y: 0.00925378315151
        z: -0.818715035915
        w: 0.573945760727
---
transforms: 
  - 
    header: 
      seq: 0
      stamp: 
        secs: 1574453579
        nsecs: 417877000
      frame_id: "map"
    child_frame_id: "velodyne"
    transform: 
      translation: 
        x: -3.83239078522
        y: -293.701416016
        z: -6.24018764496
      rotation: 
        x: 0.0148174464703
        y: 0.00920576695353
        z: -0.822062253952
        w: 0.56913036108
---
transforms: 
  - 
    header: 
      seq: 0
      stamp: 
        secs: 1574453579
        nsecs: 519886000
      frame_id: "map"
    child_frame_id: "velodyne"
    transform: 
      translation: 
        x: -4.03634643555
        y: -294.224914551
        z: -6.24410963058
      rotation: 
        x: 0.0135690122843
        y: 0.00837348029017
        z: -0.829933524132
        w: 0.557634472847
---
transforms: 
  - 
    header: 
      seq: 0
      stamp: 
        secs: 1574453579
        nsecs: 621912000
      frame_id: "map"
    child_frame_id: "velodyne"
    transform: 
      translation: 
        x: -4.22088003159
        y: -294.680297852
        z: -6.25620985031
      rotation: 
        x: 0.012837940827
        y: 0.00725765619427
        z: -0.829310595989
        w: 0.558593273163
---
transforms: 
  - 
    header: 
      seq: 0
      stamp: 
        secs: 1574453579
        nsecs: 723901000
      frame_id: "map"
    child_frame_id: "velodyne"
    transform: 
      translation: 
        x: -4.40804290771
        y: -295.199432373
        z: -6.28600072861
      rotation: 
        x: 0.0127521147951
        y: 0.00847891438752
        z: -0.83118480444
        w: 0.555785417557
---
transforms: 
  - 
    header: 
      seq: 0
      stamp: 
        secs: 1574453579
        nsecs: 825875000
      frame_id: "map"
    child_frame_id: "velodyne"
    transform: 
      translation: 
        x: -4.61518335342
        y: -295.70880127
        z: -6.30808925629
      rotation: 
        x: 0.0128572946414
        y: 0.00888680387288
        z: -0.833234488964
        w: 0.552698850632
---
transforms: 
  - 
    header: 
      seq: 0
      stamp: 
        secs: 1574453579
        nsecs: 927897000
      frame_id: "map"
    child_frame_id: "velodyne"
    transform: 
      translation: 
        x: -4.83159303665
        y: -296.220397949
        z: -6.31902503967
      rotation: 
        x: 0.0126268351451
        y: 0.00909650977701
        z: -0.835575520992
        w: 0.549155175686
---
transforms: 
  - 
    header: 
      seq: 0
      stamp: 
        secs: 1574453580
        nsecs:  29902000
      frame_id: "map"
    child_frame_id: "velodyne"
    transform: 
      translation: 
        x: -5.05071401596
        y: -296.732330322
        z: -6.34074115753
      rotation: 
        x: 0.0128026260063
        y: 0.0087903002277
        z: -0.837844848633
        w: 0.545687556267
---
transforms: 
  - 
    header: 
      seq: 0
      stamp: 
        secs: 1574453580
        nsecs: 131895000
      frame_id: "map"
    child_frame_id: "velodyne"
    transform: 
      translation: 
        x: -5.28555774689
        y: -297.292205811
        z: -6.34895515442
      rotation: 
        x: 0.0124113643542
        y: 0.00798385217786
        z: -0.844789028168
        w: 0.534896075726
---
transforms: 
  - 
    header: 
      seq: 0
      stamp: 
        secs: 1574453580
        nsecs: 233902000
      frame_id: "map"
    child_frame_id: "velodyne"
    transform: 
      translation: 
        x: -5.49162101746
        y: -297.759490967
        z: -6.36099481583
      rotation: 
        x: 0.0125495186076
        y: 0.00730607705191
        z: -0.842016637325
        w: 0.539256095886
---
transforms: 
  - 
    header: 
      seq: 0
      stamp: 
        secs: 1574453580
        nsecs: 335870000
      frame_id: "map"
    child_frame_id: "velodyne"
    transform: 
      translation: 
        x: -5.7318944931
        y: -298.310089111
        z: -6.37641191483
      rotation: 
        x: 0.0120146777481
        y: 0.00680567929521
        z: -0.846981465816
        w: 0.531443119049
---
transforms: 
  - 
    header: 
      seq: 0
      stamp: 
        secs: 1574453580
        nsecs: 437866000
      frame_id: "map"
    child_frame_id: "velodyne"
    transform: 
      translation: 
        x: -5.92508649826
        y: -298.803833008
        z: -6.38572740555
      rotation: 
        x: 0.012380797416
        y: 0.00665180198848
        z: -0.843511343002
        w: 0.536927521229
---
transforms: 
  - 
    header: 
      seq: 0
      stamp: 
        secs: 1574453580
        nsecs: 539895000
      frame_id: "map"
    child_frame_id: "velodyne"
    transform: 
      translation: 
        x: -6.14457988739
        y: -299.332641602
        z: -6.41343688965
      rotation: 
        x: 0.0127016305923
        y: 0.00667824689299
        z: -0.84231710434
        w: 0.538791298866
---
transforms: 
  - 
    header: 
      seq: 0
      stamp: 
        secs: 1574453580
        nsecs: 641865000
      frame_id: "map"
    child_frame_id: "velodyne"
    transform: 
      translation: 
        x: -6.3755106926
        y: -299.876708984
        z: -6.4254565239
      rotation: 
        x: 0.012627851218
        y: 0.00676250830293
        z: -0.841553807259
        w: 0.539983391762
---
transforms: 
  - 
    header: 
      seq: 0
      stamp: 
        secs: 1574453580
        nsecs: 743877000
      frame_id: "map"
    child_frame_id: "velodyne"
    transform: 
      translation: 
        x: -6.60575389862
        y: -300.421569824
        z: -6.45010662079
      rotation: 
        x: 0.0124756367877
        y: 0.00758068263531
        z: -0.841071426868
        w: 0.540727078915
---
transforms: 
  - 
    header: 
      seq: 0
      stamp: 
        secs: 1574453580
        nsecs: 845870000
      frame_id: "map"
    child_frame_id: "velodyne"
    transform: 
      translation: 
        x: -6.83441543579
        y: -300.972686768
        z: -6.46466350555
      rotation: 
        x: 0.012577095069
        y: 0.00786053389311
        z: -0.840622663498
        w: 0.541418194771
---
transforms: 
  - 
    header: 
      seq: 0
      stamp: 
        secs: 1574453580
        nsecs: 947863000
      frame_id: "map"
    child_frame_id: "velodyne"
    transform: 
      translation: 
        x: -7.07027244568
        y: -301.527770996
        z: -6.49110460281
      rotation: 
        x: 0.0135780610144
        y: 0.00768399750814
        z: -0.84002995491
        w: 0.542315602303
---
transforms: 
  - 
    header: 
      seq: 0
      stamp: 
        secs: 1574453581
        nsecs:  49894000
      frame_id: "map"
    child_frame_id: "velodyne"
    transform: 
      translation: 
        x: -7.30945634842
        y: -302.069091797
        z: -6.49854230881
      rotation: 
        x: 0.0143557852134
        y: 0.00767830992118
        z: -0.839608252048
        w: 0.542948424816
---
transforms: 
  - 
    header: 
      seq: 0
      stamp: 
        secs: 1574453581
        nsecs: 151888000
      frame_id: "map"
    child_frame_id: "velodyne"
    transform: 
      translation: 
        x: -7.54061222076
        y: -302.608917236
        z: -6.51260948181
      rotation: 
        x: 0.0144857643172
        y: 0.0081513505429
        z: -0.839273989201
        w: 0.54345458746
---
transforms: 
  - 
    header: 
      seq: 0
      stamp: 
        secs: 1574453581
        nsecs: 253891000
      frame_id: "map"
    child_frame_id: "velodyne"
    transform: 
      translation: 
        x: -7.77132987976
        y: -303.159637451
        z: -6.53409004211
      rotation: 
        x: 0.0139653338119
        y: 0.00855190586299
        z: -0.838982343674
        w: 0.543912172318
---
transforms: 
  - 
    header: 
      seq: 0
      stamp: 
        secs: 1574453581
        nsecs: 355875000
      frame_id: "map"
    child_frame_id: "velodyne"
    transform: 
      translation: 
        x: -8.00894641876
        y: -303.709106445
        z: -6.53893470764
      rotation: 
        x: 0.0136709930375
        y: 0.00888380035758
        z: -0.838984310627
        w: 0.543911397457
---
transforms: 
  - 
    header: 
      seq: 0
      stamp: 
        secs: 1574453581
        nsecs: 457872000
      frame_id: "map"
    child_frame_id: "velodyne"
    transform: 
      translation: 
        x: -8.24179840088
        y: -304.266357422
        z: -6.57014417648
      rotation: 
        x: 0.013513003476
        y: 0.00901026278734
        z: -0.839355707169
        w: 0.543339848518
---
transforms: 
  - 
    header: 
      seq: 0
      stamp: 
        secs: 1574453581
        nsecs: 559886000
      frame_id: "map"
    child_frame_id: "velodyne"
    transform: 
      translation: 
        x: -8.4785823822
        y: -304.810852051
        z: -6.57550525665
      rotation: 
        x: 0.0132423462346
        y: 0.00882044248283
        z: -0.839760363102
        w: 0.542724013329
---
transforms: 
  - 
    header: 
      seq: 0
      stamp: 
        secs: 1574453581
        nsecs: 661858000
      frame_id: "map"
    child_frame_id: "velodyne"
    transform: 
      translation: 
        x: -8.7262468338
        y: -305.356628418
        z: -6.5975728035
      rotation: 
        x: 0.0135709354654
        y: 0.00804175902158
        z: -0.840061187744
        w: 0.542262196541
---
transforms: 
  - 
    header: 
      seq: 0
      stamp: 
        secs: 1574453581
        nsecs: 763886000
      frame_id: "map"
    child_frame_id: "velodyne"
    transform: 
      translation: 
        x: -8.97239303589
        y: -305.898345947
        z: -6.60894203186
      rotation: 
        x: 0.0137469666079
        y: 0.00781468395144
        z: -0.840485453606
        w: 0.541603386402
---
transforms: 
  - 
    header: 
      seq: 0
      stamp: 
        secs: 1574453581
        nsecs: 865880000
      frame_id: "map"
    child_frame_id: "velodyne"
    transform: 
      translation: 
        x: -9.22267055511
        y: -306.439941406
        z: -6.63318634033
      rotation: 
        x: 0.0130140706897
        y: 0.00818103551865
        z: -0.840882301331
        w: 0.540999650955
---
transforms: 
  - 
    header: 
      seq: 0
      stamp: 
        secs: 1574453581
        nsecs: 967853000
      frame_id: "map"
    child_frame_id: "velodyne"
    transform: 
      translation: 
        x: -9.45975780487
        y: -306.973205566
        z: -6.65640306473
      rotation: 
        x: 0.0120357898995
        y: 0.0081945117563
        z: -0.84116846323
        w: 0.540577173233
---
transforms: 
  - 
    header: 
      seq: 0
      stamp: 
        secs: 1574453582
        nsecs:  69858000
      frame_id: "map"
    child_frame_id: "velodyne"
    transform: 
      translation: 
        x: -9.70656776428
        y: -307.516815186
        z: -6.66591119766
      rotation: 
        x: 0.0100864777341
        y: 0.00803733989596
        z: -0.841418385506
        w: 0.540230333805
---
transforms: 
  - 
    header: 
      seq: 0
      stamp: 
        secs: 1574453582
        nsecs: 171851000
      frame_id: "map"
    child_frame_id: "velodyne"
    transform: 
      translation: 
        x: -9.95679283142
        y: -308.061828613
        z: -6.66726446152
      rotation: 
        x: 0.00953578483313
        y: 0.00767315272242
        z: -0.841642141342
        w: 0.539896965027
---
transforms: 
  - 
    header: 
      seq: 0
      stamp: 
        secs: 1574453582
        nsecs: 273883000
      frame_id: "map"
    child_frame_id: "velodyne"
    transform: 
      translation: 
        x: -10.2114210129
        y: -308.613037109
        z: -6.66296958923
      rotation: 
        x: 0.0100630642846
        y: 0.0058095655404
        z: -0.841935753822
        w: 0.539452731609
---
transforms: 
  - 
    header: 
      seq: 0
      stamp: 
        secs: 1574453582
        nsecs: 375851000
      frame_id: "map"
    child_frame_id: "velodyne"
    transform: 
      translation: 
        x: -10.4609947205
        y: -309.169586182
        z: -6.68245983124
      rotation: 
        x: 0.010806677863
        y: 0.00721085770056
        z: -0.847811162472
        w: 0.530139029026
---
transforms: 
  - 
    header: 
      seq: 0
      stamp: 
        secs: 1574453582
        nsecs: 477864000
      frame_id: "map"
    child_frame_id: "velodyne"
    transform: 
      translation: 
        x: -10.725520134
        y: -309.682128906
        z: -6.67754364014
      rotation: 
        x: 0.0125729776919
        y: 0.00946747045964
        z: -0.844170689583
        w: 0.535843372345
---
transforms: 
  - 
    header: 
      seq: 0
      stamp: 
        secs: 1574453582
        nsecs: 579879000
      frame_id: "map"
    child_frame_id: "velodyne"
    transform: 
      translation: 
        x: -11.0115280151
        y: -310.255401611
        z: -6.72751808167
      rotation: 
        x: 0.0128946937621
        y: 0.0107505936176
        z: -0.843694388866
        w: 0.536561250687
---
transforms: 
  - 
    header: 
      seq: 0
      stamp: 
        secs: 1574453582
        nsecs: 681847000
      frame_id: "map"
    child_frame_id: "velodyne"
    transform: 
      translation: 
        x: -11.3483715057
        y: -310.918579102
        z: -6.75103759766
      rotation: 
        x: 0.0138086229563
        y: 0.0106960572302
        z: -0.848962605
        w: 0.52816426754
---
transforms: 
  - 
    header: 
      seq: 0
      stamp: 
        secs: 1574453582
        nsecs: 783875000
      frame_id: "map"
    child_frame_id: "velodyne"
    transform: 
      translation: 
        x: -11.6055231094
        y: -311.4609375
        z: -6.7800860405
      rotation: 
        x: 0.0132167991251
        y: 0.0104525582865
        z: -0.845543682575
        w: 0.533640265465
---
transforms: 
  - 
    header: 
      seq: 0
      stamp: 
        secs: 1574453582
        nsecs: 885878000
      frame_id: "map"
    child_frame_id: "velodyne"
    transform: 
      translation: 
        x: -11.8861122131
        y: -312.018920898
        z: -6.8081817627
      rotation: 
        x: 0.0125958491117
        y: 0.0101654240862
        z: -0.844618558884
        w: 0.535123825073
---
transforms: 
  - 
    header: 
      seq: 0
      stamp: 
        secs: 1574453582
        nsecs: 987847000
      frame_id: "map"
    child_frame_id: "velodyne"
    transform: 
      translation: 
        x: -12.1790485382
        y: -312.664276123
        z: -6.81764221191
      rotation: 
        x: 0.0123337525874
        y: 0.0102566946298
        z: -0.849289774895
        w: 0.527683198452
---
transforms: 
  - 
    header: 
      seq: 0
      stamp: 
        secs: 1574453583
        nsecs:  89860000
      frame_id: "map"
    child_frame_id: "velodyne"
    transform: 
      translation: 
        x: -12.4125595093
        y: -313.203460693
        z: -6.8382897377
      rotation: 
        x: 0.0132316164672
        y: 0.0106161376461
        z: -0.845098793507
        w: 0.534341096878
---
transforms: 
  - 
    header: 
      seq: 0
      stamp: 
        secs: 1574453583
        nsecs: 191848000
      frame_id: "map"
    child_frame_id: "velodyne"
    transform: 
      translation: 
        x: -12.6841783524
        y: -313.780639648
        z: -6.85423231125
      rotation: 
        x: 0.0136531647295
        y: 0.0110544059426
        z: -0.843657970428
        w: 0.536593616009
---
transforms: 
  - 
    header: 
      seq: 0
      stamp: 
        secs: 1574453583
        nsecs: 293876000
      frame_id: "map"
    child_frame_id: "velodyne"
    transform: 
      translation: 
        x: -12.970448494
        y: -314.411254883
        z: -6.88242340088
      rotation: 
        x: 0.0138722825795
        y: 0.0103222494945
        z: -0.848103523254
        w: 0.529548406601
---
transforms: 
  - 
    header: 
      seq: 0
      stamp: 
        secs: 1574453583
        nsecs: 395877000
      frame_id: "map"
    child_frame_id: "velodyne"
    transform: 
      translation: 
        x: -13.2037687302
        y: -314.937225342
        z: -6.89460372925
      rotation: 
        x: 0.0136988749728
        y: 0.0108593041077
        z: -0.843593716621
        w: 0.5366974473
---
transforms: 
  - 
    header: 
      seq: 0
      stamp: 
        secs: 1574453583
        nsecs: 497859000
      frame_id: "map"
    child_frame_id: "velodyne"
    transform: 
      translation: 
        x: -13.4573841095
        y: -315.50189209
        z: -6.92126512527
      rotation: 
        x: 0.0145196234807
        y: 0.0105716679245
        z: -0.84160810709
        w: 0.539789974689
---
transforms: 
  - 
    header: 
      seq: 0
      stamp: 
        secs: 1574453583
        nsecs: 599871000
      frame_id: "map"
    child_frame_id: "velodyne"
    transform: 
      translation: 
        x: -13.7037754059
        y: -316.090576172
        z: -6.93155145645
      rotation: 
        x: 0.0149819012731
        y: 0.010285967961
        z: -0.84010642767
        w: 0.542117118835
---
transforms: 
  - 
    header: 
      seq: 0
      stamp: 
        secs: 1574453583
        nsecs: 701862000
      frame_id: "map"
    child_frame_id: "velodyne"
    transform: 
      translation: 
        x: -8.18402671814
        y: -309.627655029
        z: -6.47997379303
      rotation: 
        x: 0.0244757626206
        y: -0.00667116371915
        z: -0.823621690273
        w: 0.566571950912
---
transforms: 
  - 
    header: 
      seq: 0
      stamp: 
        secs: 1574453583
        nsecs: 803842000
      frame_id: "map"
    child_frame_id: "velodyne"
    transform: 
      translation: 
        x: -9.0343208313
        y: -308.165252686
        z: -6.74183797836
      rotation: 
        x: 0.0197768546641
        y: 0.0106134181842
        z: -0.820920228958
        w: 0.570601582527
---
transforms: 
  - 
    header: 
      seq: 0
      stamp: 
        secs: 1574453583
        nsecs: 905846000
      frame_id: "map"
    child_frame_id: "velodyne"
    transform: 
      translation: 
        x: -9.3203163147
        y: -308.552825928
        z: -6.78287029266
      rotation: 
        x: 0.0218870919198
        y: 0.00450531486422
        z: -0.818455576897
        w: 0.574135124683
---
transforms: 
  - 
    header: 
      seq: 0
      stamp: 
        secs: 1574453584
        nsecs:   7845000
      frame_id: "map"
    child_frame_id: "velodyne"
    transform: 
      translation: 
        x: -11.1852998734
        y: -316.150238037
        z: -5.67746925354
      rotation: 
        x: 0.0119632240385
        y: -0.0173617880791
        z: -0.806205689907
        w: 0.591259539127
---
transforms: 
  - 
    header: 
      seq: 0
      stamp: 
        secs: 1574453584
        nsecs: 415851000
      frame_id: "map"
    child_frame_id: "velodyne"
    transform: 
      translation: 
        x: -12.9988946915
        y: -318.035247803
        z: -7.05005741119
      rotation: 
        x: 0.0281123872846
        y: 0.0395882837474
        z: -0.802356183529
        w: 0.594867229462
---
transforms: 
  - 
    header: 
      seq: 0
      stamp: 
        secs: 1574453584
        nsecs: 619841000
      frame_id: "map"
    child_frame_id: "velodyne"
    transform: 
      translation: 
        x: -15.0811624527
        y: -320.61618042
        z: -7.12044239044
      rotation: 
        x: 0.0105083137751
        y: -0.020486254245
        z: -0.82051473856
        w: 0.57116150856
---
transforms: 
  - 
    header: 
      seq: 0
      stamp: 
        secs: 1574453584
        nsecs: 721837000
      frame_id: "map"
    child_frame_id: "velodyne"
    transform: 
      translation: 
        x: -16.0483970642
        y: -322.493408203
        z: -7.15144205093
      rotation: 
        x: 0.0226842649281
        y: 0.0388224758208
        z: -0.824890553951
        w: 0.563501417637
---
transforms: 
  - 
    header: 
      seq: 0
      stamp: 
        secs: 1574453584
        nsecs: 925839000
      frame_id: "map"
    child_frame_id: "velodyne"
    transform: 
      translation: 
        x: -16.4786872864
        y: -323.672302246
        z: -7.1712064743
      rotation: 
        x: 0.015051449649
        y: 0.00974385906011
        z: -0.826920330524
        w: 0.562033116817
---
transforms: 
  - 
    header: 
      seq: 0
      stamp: 
        secs: 1574453585
        nsecs: 231860000
      frame_id: "map"
    child_frame_id: "velodyne"
    transform: 
      translation: 
        x: -16.9997425079
        y: -325.178314209
        z: -7.23521327972
      rotation: 
        x: 0.0144511247054
        y: 0.00742000387982
        z: -0.816233754158
        w: 0.577493309975
---
transforms: 
  - 
    header: 
      seq: 0
      stamp: 
        secs: 1574453585
        nsecs: 333851000
      frame_id: "map"
    child_frame_id: "velodyne"
    transform: 
      translation: 
        x: -12.009478569
        y: -321.023132324
        z: -4.85620307922
      rotation: 
        x: 0.00612523546442
        y: -0.0259759090841
        z: -0.772892594337
        w: 0.633975446224
---
transforms: 
  - 
    header: 
      seq: 0
      stamp: 
        secs: 1574453585
        nsecs: 945840000
      frame_id: "map"
    child_frame_id: "velodyne"
    transform: 
      translation: 
        x: -12.5544843674
        y: -320.004211426
        z: -7.12860250473
      rotation: 
        x: 0.0468589030206
        y: 0.0509661324322
        z: -0.808394193649
        w: 0.584555804729
---
transforms: 
  - 
    header: 
      seq: 0
      stamp: 
        secs: 1574453586
        nsecs: 149845000
      frame_id: "map"
    child_frame_id: "velodyne"
    transform: 
      translation: 
        x: -12.0973443985
        y: -317.952880859
        z: -7.17331123352
      rotation: 
        x: 0.0102737927809
        y: -0.0473509989679
        z: -0.808711051941
        w: 0.586207091808
---
transforms: 
  - 
    header: 
      seq: 0
      stamp: 
        secs: 1574453586
        nsecs: 353827000
      frame_id: "map"
    child_frame_id: "velodyne"
    transform: 
      translation: 
        x: -12.6166477203
        y: -316.118225098
        z: -7.12783193588
      rotation: 
        x: 0.0537602491677
        y: 0.0565732456744
        z: -0.802841842175
        w: 0.59106194973
---
transforms: 
  - 
    header: 
      seq: 0
      stamp: 
        secs: 1574453586
        nsecs: 557825000
      frame_id: "map"
    child_frame_id: "velodyne"
    transform: 
      translation: 
        x: -13.3031291962
        y: -314.447570801
        z: -7.03034210205
      rotation: 
        x: 0.0052046244964
        y: -0.0565451830626
        z: -0.80765080452
        w: 0.586920619011
---
transforms: 
  - 
    header: 
      seq: 0
      stamp: 
        secs: 1574453586
        nsecs: 659854000
      frame_id: "map"
    child_frame_id: "velodyne"
    transform: 
      translation: 
        x: -13.61967659
        y: -314.172607422
        z: -6.99050617218
      rotation: 
        x: 0.0403108261526
        y: 0.0323037952185
        z: -0.801587104797
        w: 0.595642209053
---
transforms: 
  - 
    header: 
      seq: 0
      stamp: 
        secs: 1574453586
        nsecs: 761834000
      frame_id: "map"
    child_frame_id: "velodyne"
    transform: 
      translation: 
        x: -13.8340158463
        y: -314.283294678
        z: -7.00569915771
      rotation: 
        x: 0.0257430896163
        y: -0.00959507189691
        z: -0.803162336349
        w: 0.595126509666
---
transforms: 
  - 
    header: 
      seq: 0
      stamp: 
        secs: 1574453586
        nsecs: 965818000
      frame_id: "map"
    child_frame_id: "velodyne"
    transform: 
      translation: 
        x: -14.2194461823
        y: -314.66003418
        z: -7.01518583298
      rotation: 
        x: 0.038578081876
        y: 0.00951520726085
        z: -0.812321603298
        w: 0.581854701042
---
transforms: 
  - 
    header: 
      seq: 0
      stamp: 
        secs: 1574453587
        nsecs: 169829000
      frame_id: "map"
    child_frame_id: "velodyne"
    transform: 
      translation: 
        x: -14.7081098557
        y: -314.465942383
        z: -7.01990509033
      rotation: 
        x: 0.0260314419866
        y: -0.00282478146255
        z: -0.814237356186
        w: 0.57994133234
---
transforms: 
  - 
    header: 
      seq: 0
      stamp: 
        secs: 1574453587
        nsecs: 271847000
      frame_id: "map"
    child_frame_id: "velodyne"
    transform: 
      translation: 
        x: -14.8405208588
        y: -314.864807129
        z: -7.05610847473
      rotation: 
        x: 0.0340451672673
        y: 0.0085763623938
        z: -0.820828020573
        w: 0.570095419884
---
transforms: 
  - 
    header: 
      seq: 0
      stamp: 
        secs: 1574453587
        nsecs: 373826000
      frame_id: "map"
    child_frame_id: "velodyne"
    transform: 
      translation: 
        x: -15.0030927658
        y: -315.212768555
        z: -7.04405879974
      rotation: 
        x: 0.0315728001297
        y: 0.00460531795397
        z: -0.824784517288
        w: 0.564546227455
---
transforms: 
  - 
    header: 
      seq: 0
      stamp: 
        secs: 1574453587
        nsecs: 475838000
      frame_id: "map"
    child_frame_id: "velodyne"
    transform: 
      translation: 
        x: -15.1371545792
        y: -315.964599609
        z: -7.03988361359
      rotation: 
        x: 0.0356563143432
        y: 0.00232609547675
        z: -0.829883694649
        w: 0.556791126728
---
transforms: 
  - 
    header: 
      seq: 0
      stamp: 
        secs: 1574453587
        nsecs: 577811000
      frame_id: "map"
    child_frame_id: "velodyne"
    transform: 
      translation: 
        x: -15.347700119
        y: -316.184967041
        z: -7.06983947754
      rotation: 
        x: 0.0389185994864
        y: -0.00309071177617
        z: -0.834265351295
        w: 0.5499792099
---
transforms: 
  - 
    header: 
      seq: 0
      stamp: 
        secs: 1574453587
        nsecs: 679808000
      frame_id: "map"
    child_frame_id: "velodyne"
    transform: 
      translation: 
        x: -15.5950546265
        y: -316.490203857
        z: -7.08978033066
      rotation: 
        x: 0.0358255952597
        y: -0.00113964744378
        z: -0.839218080044
        w: 0.542612433434
---
transforms: 
  - 
    header: 
      seq: 0
      stamp: 
        secs: 1574453587
        nsecs: 781839000
      frame_id: "map"
    child_frame_id: "velodyne"
    transform: 
      translation: 
        x: -15.8170595169
        y: -317.328460693
        z: -7.11535787582
      rotation: 
        x: 0.0353610143065
        y: 0.0019841089379
        z: -0.845374464989
        w: 0.532998800278
---
transforms: 
  - 
    header: 
      seq: 0
      stamp: 
        secs: 1574453587
        nsecs: 985831000
      frame_id: "map"
    child_frame_id: "velodyne"
    transform: 
      translation: 
        x: -15.1066913605
        y: -335.190643311
        z: -3.7836959362
      rotation: 
        x: 0.0234097559005
        y: -0.0147688044235
        z: -0.834570348263
        w: 0.55020570755
---
transforms: 
  - 
    header: 
      seq: 0
      stamp: 
        secs: 1574453588
        nsecs: 801827000
      frame_id: "map"
    child_frame_id: "velodyne"
    transform: 
      translation: 
        x: -15.1190624237
        y: -334.52166748
        z: -6.97528553009
      rotation: 
        x: 0.0415845029056
        y: 0.0195777080953
        z: -0.838386058807
        w: 0.543135583401
---
transforms: 
  - 
    header: 
      seq: 0
      stamp: 
        secs: 1574453589
        nsecs:   5825000
      frame_id: "map"
    child_frame_id: "velodyne"
    transform: 
      translation: 
        x: -15.8493328094
        y: -331.723052979
        z: -7.53396081924
      rotation: 
        x: 0.00618182262406
        y: 0.0252460855991
        z: -0.832449615002
        w: 0.553490757942
---
transforms: 
  - 
    header: 
      seq: 0
      stamp: 
        secs: 1574453589
        nsecs: 107799000
      frame_id: "map"
    child_frame_id: "velodyne"
    transform: 
      translation: 
        x: -18.0449790955
        y: -330.508178711
        z: -7.54074192047
      rotation: 
        x: 0.0381436049938
        y: 0.0160303693265
        z: -0.853018641472
        w: 0.520237743855
---
transforms: 
  - 
    header: 
      seq: 0
      stamp: 
        secs: 1574453589
        nsecs: 311884000
      frame_id: "map"
    child_frame_id: "velodyne"
    transform: 
      translation: 
        x: -18.6347961426
        y: -331.010864258
        z: -7.55082130432
      rotation: 
        x: 0.00482604047284
        y: 0.0153213078156
        z: -0.860280275345
        w: 0.509568333626
---
transforms: 
  - 
    header: 
      seq: 0
      stamp: 
        secs: 1574453589
        nsecs: 413797000
      frame_id: "map"
    child_frame_id: "velodyne"
    transform: 
      translation: 
        x: -18.9387969971
        y: -331.207946777
        z: -7.5724363327
      rotation: 
        x: 0.0272128079087
        y: 0.0156445875764
        z: -0.864130616188
        w: 0.502287745476
---
transforms: 
  - 
    header: 
      seq: 0
      stamp: 
        secs: 1574453589
        nsecs: 515826000
      frame_id: "map"
    child_frame_id: "velodyne"
    transform: 
      translation: 
        x: -19.0481510162
        y: -331.52355957
        z: -7.59699630737
      rotation: 
        x: -0.0171249303967
        y: -0.0152283301577
        z: 0.870603322983
        w: -0.49145168066
---
transforms: 
  - 
    header: 
      seq: 0
      stamp: 
        secs: 1574453589
        nsecs: 617818000
      frame_id: "map"
    child_frame_id: "velodyne"
    transform: 
      translation: 
        x: -19.4617290497
        y: -331.779693604
        z: -7.62621927261
      rotation: 
        x: -0.0207108817995
        y: -0.0149631146342
        z: 0.878187298775
        w: -0.477634161711
---
transforms: 
  - 
    header: 
      seq: 0
      stamp: 
        secs: 1574453589
        nsecs: 719823000
      frame_id: "map"
    child_frame_id: "velodyne"
    transform: 
      translation: 
        x: -19.8365249634
        y: -332.180328369
        z: -7.65501642227
      rotation: 
        x: -0.02200451307
        y: -0.0128245512024
        z: 0.885983884335
        w: -0.463016092777
---
transforms: 
  - 
    header: 
      seq: 0
      stamp: 
        secs: 1574453589
        nsecs: 821822000
      frame_id: "map"
    child_frame_id: "velodyne"
    transform: 
      translation: 
        x: -20.1747150421
        y: -332.434112549
        z: -7.64211416245
      rotation: 
        x: -0.0232027452439
        y: -0.0155004160479
        z: 0.892917096615
        w: -0.449355691671
---
transforms: 
  - 
    header: 
      seq: 0
      stamp: 
        secs: 1574453589
        nsecs: 923793000
      frame_id: "map"
    child_frame_id: "velodyne"
    transform: 
      translation: 
        x: -20.5289077759
        y: -332.50668335
        z: -7.65099954605
      rotation: 
        x: -0.0230156742036
        y: -0.0155429309234
        z: 0.897828102112
        w: -0.439469605684
---
transforms: 
  - 
    header: 
      seq: 0
      stamp: 
        secs: 1574453590
        nsecs:  25817000
      frame_id: "map"
    child_frame_id: "velodyne"
    transform: 
      translation: 
        x: -20.6567668915
        y: -332.718383789
        z: -7.65235710144
      rotation: 
        x: -0.0230653807521
        y: -0.0163616202772
        z: 0.904874503613
        w: -0.424738168716
---
transforms: 
  - 
    header: 
      seq: 0
      stamp: 
        secs: 1574453590
        nsecs: 127821000
      frame_id: "map"
    child_frame_id: "velodyne"
    transform: 
      translation: 
        x: -20.9728336334
        y: -332.734344482
        z: -7.64787578583
      rotation: 
        x: -0.0216278545558
        y: -0.0171694122255
        z: 0.904246091843
        w: -0.426117837429
---
transforms: 
  - 
    header: 
      seq: 0
      stamp: 
        secs: 1574453590
        nsecs: 229803000
      frame_id: "map"
    child_frame_id: "velodyne"
    transform: 
      translation: 
        x: -21.5604438782
        y: -334.188690186
        z: -7.72556018829
      rotation: 
        x: -0.0225226022303
        y: -0.0119483023882
        z: 0.899924278259
        w: -0.435300201178
---
transforms: 
  - 
    header: 
      seq: 0
      stamp: 
        secs: 1574453590
        nsecs: 331789000
      frame_id: "map"
    child_frame_id: "velodyne"
    transform: 
      translation: 
        x: -23.5154304504
        y: -335.342956543
        z: -7.76334953308
      rotation: 
        x: -0.0244923364371
        y: -0.0126072345302
        z: 0.906905114651
        w: -0.420433521271
---
transforms: 
  - 
    header: 
      seq: 0
      stamp: 
        secs: 1574453590
        nsecs: 433830000
      frame_id: "map"
    child_frame_id: "velodyne"
    transform: 
      translation: 
        x: -24.4859867096
        y: -336.197296143
        z: -7.77784109116
      rotation: 
        x: -0.0249651111662
        y: -0.0105895446613
        z: 0.916478097439
        w: -0.399164736271
---
transforms: 
  - 
    header: 
      seq: 0
      stamp: 
        secs: 1574453590
        nsecs: 535789000
      frame_id: "map"
    child_frame_id: "velodyne"
    transform: 
      translation: 
        x: -24.8260555267
        y: -336.333892822
        z: -7.76831007004
      rotation: 
        x: -0.0228804778308
        y: -0.0122722182423
        z: 0.920652151108
        w: -0.389519691467
---
transforms: 
  - 
    header: 
      seq: 0
      stamp: 
        secs: 1574453590
        nsecs: 637805000
      frame_id: "map"
    child_frame_id: "velodyne"
    transform: 
      translation: 
        x: -26.8412570953
        y: -338.082672119
        z: -7.84303379059
      rotation: 
        x: -0.0194295942783
        y: -0.0125962765887
        z: 0.917725145817
        w: -0.39654058218
---
transforms: 
  - 
    header: 
      seq: 0
      stamp: 
        secs: 1574453590
        nsecs: 739787000
      frame_id: "map"
    child_frame_id: "velodyne"
    transform: 
      translation: 
        x: -30.0501804352
        y: -339.399078369
        z: -7.8805680275
      rotation: 
        x: -0.0199659410864
        y: -0.0116632534191
        z: 0.925311625004
        w: -0.378502070904
---
transforms: 
  - 
    header: 
      seq: 0
      stamp: 
        secs: 1574453590
        nsecs: 841826000
      frame_id: "map"
    child_frame_id: "velodyne"
    transform: 
      translation: 
        x: -31.9256343842
        y: -340.359771729
        z: -7.86834478378
      rotation: 
        x: -0.0185058098286
        y: -0.0118619929999
        z: 0.905027270317
        w: -0.424785226583
---
transforms: 
  - 
    header: 
      seq: 0
      stamp: 
        secs: 1574453590
        nsecs: 943788000
      frame_id: "map"
    child_frame_id: "velodyne"
    transform: 
      translation: 
        x: -33.4709434509
        y: -340.709503174
        z: -7.89932537079
      rotation: 
        x: -0.017472371459
        y: -0.0129313571379
        z: 0.903986752033
        w: -0.427007675171
---
transforms: 
  - 
    header: 
      seq: 0
      stamp: 
        secs: 1574453591
        nsecs:  45789000
      frame_id: "map"
    child_frame_id: "velodyne"
    transform: 
      translation: 
        x: -33.8950080872
        y: -340.859710693
        z: -7.90069055557
      rotation: 
        x: -0.0177213475108
        y: -0.0144592355937
        z: 0.914227604866
        w: -0.404555141926
---
transforms: 
  - 
    header: 
      seq: 0
      stamp: 
        secs: 1574453591
        nsecs: 147808000
      frame_id: "map"
    child_frame_id: "velodyne"
    transform: 
      translation: 
        x: -36.3658294678
        y: -340.99395752
        z: -7.91064596176
      rotation: 
        x: -0.0131773017347
        y: -0.0040161209181
        z: 0.91464817524
        w: -0.404016137123
---
transforms: 
  - 
    header: 
      seq: 0
      stamp: 
        secs: 1574453591
        nsecs: 249819000
      frame_id: "map"
    child_frame_id: "velodyne"
    transform: 
      translation: 
        x: -37.3049507141
        y: -341.372375488
        z: -7.88732671738
      rotation: 
        x: -0.0158841293305
        y: -0.0152961984277
        z: 0.91904014349
        w: -0.393546670675
---
transforms: 
  - 
    header: 
      seq: 0
      stamp: 
        secs: 1574453591
        nsecs: 351787000
      frame_id: "map"
    child_frame_id: "velodyne"
    transform: 
      translation: 
        x: -37.1821784973
        y: -341.635620117
        z: -7.92686128616
      rotation: 
        x: -0.0147485397756
        y: -0.00829013716429
        z: 0.929206490517
        w: -0.369173705578
---
transforms: 
  - 
    header: 
      seq: 0
      stamp: 
        secs: 1574453591
        nsecs: 453798000
      frame_id: "map"
    child_frame_id: "velodyne"
    transform: 
      translation: 
        x: -38.3076477051
        y: -342.123077393
        z: -7.92880535126
      rotation: 
        x: -0.0150919090956
        y: -0.0109139811248
        z: 0.928274095058
        w: -0.371430158615
---
transforms: 
  - 
    header: 
      seq: 0
      stamp: 
        secs: 1574453591
        nsecs: 555782000
      frame_id: "map"
    child_frame_id: "velodyne"
    transform: 
      translation: 
        x: -39.0640869141
        y: -342.383026123
        z: -7.9448094368
      rotation: 
        x: -0.0156126115471
        y: -0.0105206305161
        z: 0.925654351711
        w: -0.377901643515
---
transforms: 
  - 
    header: 
      seq: 0
      stamp: 
        secs: 1574453591
        nsecs: 657814000
      frame_id: "map"
    child_frame_id: "velodyne"
    transform: 
      translation: 
        x: -39.4121894836
        y: -343.807617188
        z: -7.9611787796
      rotation: 
        x: -0.0151562746614
        y: -0.00968610402197
        z: 0.932580709457
        w: -0.360513150692
---
transforms: 
  - 
    header: 
      seq: 0
      stamp: 
        secs: 1574453591
        nsecs: 759811000
      frame_id: "map"
    child_frame_id: "velodyne"
    transform: 
      translation: 
        x: -39.8054275513
        y: -344.308135986
        z: -7.98680448532
      rotation: 
        x: -0.0155239459127
        y: -0.00972290802747
        z: 0.93373966217
        w: -0.357483953238
---
transforms: 
  - 
    header: 
      seq: 0
      stamp: 
        secs: 1574453591
        nsecs: 865498000
      frame_id: "map"
    child_frame_id: "velodyne"
    transform: 
      translation: 
        x: -40.2287063599
        y: -344.724578857
        z: -7.99261426926
      rotation: 
        x: -0.0156555101275
        y: -0.00881592743099
        z: 0.936017155647
        w: -0.351495534182
---
transforms: 
  - 
    header: 
      seq: 0
      stamp: 
        secs: 1574453591
        nsecs: 963808000
      frame_id: "map"
    child_frame_id: "velodyne"
    transform: 
      translation: 
        x: -40.4322052002
        y: -345.214172363
        z: -8.00542259216
      rotation: 
        x: -0.0166774578393
        y: -0.00666885590181
        z: 0.937777876854
        w: -0.346771031618
---
transforms: 
  - 
    header: 
      seq: 0
      stamp: 
        secs: 1574453592
        nsecs:  69331000
      frame_id: "map"
    child_frame_id: "velodyne"
    transform: 
      translation: 
        x: -41.0928268433
        y: -345.657104492
        z: -8.01570224762
      rotation: 
