transforms: 
  - 
    header: 
      seq: 0
      stamp: 
        secs: 1574453574
        nsecs: 113933000
      frame_id: "map"
    child_frame_id: "velodyne"
    transform: 
      translation: 
        x: 0.629830658436
        y: 0.135188549757
        z: -1.08912181854
      rotation: 
        x: 0.0205424837768
        y: 0.00867243204266
        z: -0.00136684102472
        w: 0.999750435352
---
transforms: 
  - 
    header: 
      seq: 0
      stamp: 
        secs: 1574453574
        nsecs: 215961000
      frame_id: "map"
    child_frame_id: "velodyne"
    transform: 
      translation: 
        x: 0.362030744553
        y: 1.71052455902
        z: -4.15599060059
      rotation: 
        x: 0.0268830470741
        y: 0.0156605076045
        z: -0.00381953152828
        w: 0.999508619308
---
transforms: 
  - 
    header: 
      seq: 0
      stamp: 
        secs: 1574453574
        nsecs: 317942000
      frame_id: "map"
    child_frame_id: "velodyne"
    transform: 
      translation: 
        x: 0.747005879879
        y: 2.15854644775
        z: -7.55851602554
      rotation: 
        x: 0.0786123126745
        y: 0.0290499702096
        z: -0.0206459891051
        w: 0.996268033981
---
transforms: 
  - 
    header: 
      seq: 0
      stamp: 
        secs: 1574453574
        nsecs: 419942000
      frame_id: "map"
    child_frame_id: "velodyne"
    transform: 
      translation: 
        x: 1.710283041
        y: -0.465477734804
        z: -9.21526813507
      rotation: 
        x: 0.0335995219648
        y: 0.0028070746921
        z: -0.0409403331578
        w: 0.998592555523
---
transforms: 
  - 
    header: 
      seq: 0
      stamp: 
        secs: 1574453574
        nsecs: 521912000
      frame_id: "map"
    child_frame_id: "velodyne"
    transform: 
      translation: 
        x: 3.34410595894
        y: -1.10183596611
        z: -9.09742546082
      rotation: 
        x: 0.0278542097658
        y: -0.00150602159556
        z: -0.057384096086
        w: 0.997962415218
---
transforms: 
  - 
    header: 
      seq: 0
      stamp: 
        secs: 1574453574
        nsecs: 623943000
      frame_id: "map"
    child_frame_id: "velodyne"
    transform: 
      translation: 
        x: 3.56630396843
        y: -1.16488933563
        z: -9.11515331268
      rotation: 
        x: 0.0314335338771
        y: 0.00683788629249
        z: -0.0545613579452
        w: 0.997992098331
---
transforms: 
  - 
    header: 
      seq: 0
      stamp: 
        secs: 1574453574
        nsecs: 725947000
      frame_id: "map"
    child_frame_id: "velodyne"
    transform: 
      translation: 
        x: 3.49413633347
        y: -0.995513916016
        z: -9.12921047211
      rotation: 
        x: 0.0292709413916
        y: -0.00115742383059
        z: -0.0498004108667
        w: 0.998329520226
---
transforms: 
  - 
    header: 
      seq: 0
      stamp: 
        secs: 1574453574
        nsecs: 827909000
      frame_id: "map"
    child_frame_id: "velodyne"
    transform: 
      translation: 
        x: 3.89600896835
        y: -0.948474466801
        z: -9.10213947296
      rotation: 
        x: 0.0300849080086
        y: 0.00134586379863
        z: -0.0426451638341
        w: 0.998636364937
---
transforms: 
  - 
    header: 
      seq: 0
      stamp: 
        secs: 1574453574
        nsecs: 929939000
      frame_id: "map"
    child_frame_id: "velodyne"
    transform: 
      translation: 
        x: 2.34489154816
        y: -280.263000488
        z: -7.35299777985
      rotation: 
        x: 0.0
        y: 0.0
        z: -0.851023852825
        w: 0.525127112865
---
transforms: 
  - 
    header: 
      seq: 0
      stamp: 
        secs: 1574453575
        nsecs:  31907000
      frame_id: "map"
    child_frame_id: "velodyne"
    transform: 
      translation: 
        x: 2.3448908329
        y: -280.263061523
        z: -7.35299921036
      rotation: 
        x: 0.0
        y: 0.0
        z: -0.851397514343
        w: 0.524520993233
---
transforms: 
  - 
    header: 
      seq: 0
      stamp: 
        secs: 1574453575
        nsecs: 133931000
      frame_id: "map"
    child_frame_id: "velodyne"
    transform: 
      translation: 
        x: 2.3448908329
        y: -280.263122559
        z: -7.35300064087
      rotation: 
        x: 0.0
        y: 0.0
        z: -0.851138412952
        w: 0.524941325188
---
transforms: 
  - 
    header: 
      seq: 0
      stamp: 
        secs: 1574453575
        nsecs: 235907000
      frame_id: "map"
    child_frame_id: "velodyne"
    transform: 
      translation: 
        x: 2.3448908329
        y: -280.263122559
        z: -7.35299968719
      rotation: 
        x: 0.0
        y: 0.0
        z: -0.851084291935
        w: 0.525029122829
---
transforms: 
  - 
    header: 
      seq: 0
      stamp: 
        secs: 1574453575
        nsecs: 337903000
      frame_id: "map"
    child_frame_id: "velodyne"
    transform: 
      translation: 
        x: 2.3448908329
        y: -280.263122559
        z: -7.35300064087
      rotation: 
        x: 0.0
        y: 0.0
        z: -0.851068615913
        w: 0.525054454803
---
transforms: 
  - 
    header: 
      seq: 0
      stamp: 
        secs: 1574453575
        nsecs: 439932000
      frame_id: "map"
    child_frame_id: "velodyne"
    transform: 
      translation: 
        x: 2.3448908329
        y: -280.263092041
        z: -7.35299873352
      rotation: 
        x: 0.0
        y: 0.0
        z: -0.851442754269
        w: 0.524447619915
---
transforms: 
  - 
    header: 
      seq: 0
      stamp: 
        secs: 1574453575
        nsecs: 541904000
      frame_id: "map"
    child_frame_id: "velodyne"
    transform: 
      translation: 
        x: 2.3448908329
        y: -280.263061523
        z: -7.35299968719
      rotation: 
        x: 0.0
        y: 0.0
        z: -0.851183414459
        w: 0.524868309498
---
transforms: 
  - 
    header: 
      seq: 0
      stamp: 
        secs: 1574453575
        nsecs: 643933000
      frame_id: "map"
    child_frame_id: "velodyne"
    transform: 
      translation: 
        x: 2.3448908329
        y: -280.263092041
        z: -7.35300064087
      rotation: 
        x: 0.0
        y: 0.0
        z: -0.851129353046
        w: 0.52495598793
---
transforms: 
  - 
    header: 
      seq: 0
      stamp: 
        secs: 1574453575
        nsecs: 745934000
      frame_id: "map"
    child_frame_id: "velodyne"
    transform: 
      translation: 
        x: 2.3448908329
        y: -280.263061523
        z: -7.35299968719
      rotation: 
        x: 0.0
        y: 0.0
        z: -0.851113677025
        w: 0.524981498718
---
transforms: 
  - 
    header: 
      seq: 0
      stamp: 
        secs: 1574453575
        nsecs: 847933000
      frame_id: "map"
    child_frame_id: "velodyne"
    transform: 
      translation: 
        x: 2.13814949989
        y: -279.949584961
        z: -7.10757350922
      rotation: 
        x: 0.00401489529759
        y: -0.00200462341309
        z: -0.847103357315
        w: 0.531409323215
---
transforms: 
  - 
    header: 
      seq: 0
      stamp: 
        secs: 1574453576
        nsecs:  51905000
      frame_id: "map"
    child_frame_id: "velodyne"
    transform: 
      translation: 
        x: 0.579758405685
        y: -278.51071167
        z: -5.92158460617
      rotation: 
        x: 0.0286275390536
        y: -0.0113677047193
        z: -0.788713812828
        w: 0.613988399506
---
transforms: 
  - 
    header: 
      seq: 0
      stamp: 
        secs: 1574453576
        nsecs: 153903000
      frame_id: "map"
    child_frame_id: "velodyne"
    transform: 
      translation: 
        x: -1.22477316856
        y: -280.964263916
        z: -5.88447093964
      rotation: 
        x: 0.0124881351367
        y: -0.00320632010698
        z: -0.737988352776
        w: 0.674690365791
---
transforms: 
  - 
    header: 
      seq: 0
      stamp: 
        secs: 1574453576
        nsecs: 357930000
      frame_id: "map"
    child_frame_id: "velodyne"
    transform: 
      translation: 
        x: -1.45290899277
        y: -281.767608643
        z: -5.88160705566
      rotation: 
        x: 0.0207873564214
        y: -0.00718843610957
        z: -0.728828966618
        w: 0.684342443943
---
transforms: 
  - 
    header: 
      seq: 0
      stamp: 
        secs: 1574453576
        nsecs: 459923000
      frame_id: "map"
    child_frame_id: "velodyne"
    transform: 
      translation: 
        x: -1.46917903423
        y: -282.018859863
        z: -5.87914896011
      rotation: 
        x: 0.0140433050692
        y: -0.00315316021442
        z: -0.723257780075
        w: 0.690428197384
---
transforms: 
  - 
    header: 
      seq: 0
      stamp: 
        secs: 1574453576
        nsecs: 561930000
      frame_id: "map"
    child_frame_id: "velodyne"
    transform: 
      translation: 
        x: -1.4765611887
        y: -282.287750244
        z: -5.88070440292
      rotation: 
        x: 0.0168276540935
        y: -0.00411662645638
        z: -0.721037447453
        w: 0.692679584026
---
transforms: 
  - 
    header: 
      seq: 0
      stamp: 
        secs: 1574453576
        nsecs: 663915000
      frame_id: "map"
    child_frame_id: "velodyne"
    transform: 
      translation: 
        x: -1.48685026169
        y: -282.53918457
        z: -5.88437652588
      rotation: 
        x: 0.0148078976199
        y: -0.0026848858688
        z: -0.719555318356
        w: 0.694272041321
---
transforms: 
  - 
    header: 
      seq: 0
      stamp: 
        secs: 1574453576
        nsecs: 765928000
      frame_id: "map"
    child_frame_id: "velodyne"
    transform: 
      translation: 
        x: -1.50169503689
        y: -282.826507568
        z: -5.88485574722
      rotation: 
        x: 0.0151903796941
        y: -0.00198591337539
        z: -0.718783557415
        w: 0.695065200329
---
transforms: 
  - 
    header: 
      seq: 0
      stamp: 
        secs: 1574453576
        nsecs: 867895000
      frame_id: "map"
    child_frame_id: "velodyne"
    transform: 
      translation: 
        x: -1.50608468056
        y: -283.120300293
        z: -5.8992934227
      rotation: 
        x: 0.0144627904519
        y: -0.0020602250006
        z: -0.718511641026
        w: 0.695361614227
---
transforms: 
  - 
    header: 
      seq: 0
      stamp: 
        secs: 1574453576
        nsecs: 969927000
      frame_id: "map"
    child_frame_id: "velodyne"
    transform: 
      translation: 
        x: -1.50550198555
        y: -283.418762207
        z: -5.89776468277
      rotation: 
        x: 0.0132987136021
        y: -0.000538316671737
        z: -0.719348073006
        w: 0.69452226162
---
transforms: 
  - 
    header: 
      seq: 0
      stamp: 
        secs: 1574453577
        nsecs:  71936000
      frame_id: "map"
    child_frame_id: "velodyne"
    transform: 
      translation: 
        x: -1.46774375439
        y: -283.734832764
        z: -5.91921663284
      rotation: 
        x: 0.0129518508911
        y: 0.000450772815384
        z: -0.722001791
        w: 0.691769778728
---
transforms: 
  - 
    header: 
      seq: 0
      stamp: 
        secs: 1574453577
        nsecs: 173910000
      frame_id: "map"
    child_frame_id: "velodyne"
    transform: 
      translation: 
        x: -1.41870117188
        y: -284.047302246
        z: -5.90179252625
      rotation: 
        x: 0.0126393781975
        y: 0.00261913938448
        z: -0.726180076599
        w: 0.687383413315
---
transforms: 
  - 
    header: 
      seq: 0
      stamp: 
        secs: 1574453577
        nsecs: 275911000
      frame_id: "map"
    child_frame_id: "velodyne"
    transform: 
      translation: 
        x: -1.40229821205
        y: -284.395111084
        z: -5.91197299957
      rotation: 
        x: 0.0117812668905
        y: 0.00237862323411
        z: -0.731394886971
        w: 0.681848287582
---
transforms: 
  - 
    header: 
      seq: 0
      stamp: 
        secs: 1574453577
        nsecs: 377900000
      frame_id: "map"
    child_frame_id: "velodyne"
    transform: 
      translation: 
        x: -1.41967856884
        y: -284.74206543
        z: -5.92530632019
      rotation: 
        x: 0.013258590363
        y: 0.00292725721374
        z: -0.736705243587
        w: 0.676077723503
---
transforms: 
  - 
    header: 
      seq: 0
      stamp: 
        secs: 1574453577
        nsecs: 479891000
      frame_id: "map"
    child_frame_id: "velodyne"
    transform: 
      translation: 
        x: -1.45827329159
        y: -285.103515625
        z: -5.9168214798
      rotation: 
        x: 0.0129722617567
        y: 0.00270375004038
        z: -0.742418766022
        w: 0.669805109501
---
transforms: 
  - 
    header: 
      seq: 0
      stamp: 
        secs: 1574453577
        nsecs: 581919000
      frame_id: "map"
    child_frame_id: "velodyne"
    transform: 
      translation: 
        x: -1.5054320097
        y: -285.467254639
        z: -5.94134902954
      rotation: 
        x: 0.0140043757856
        y: 0.00240830192342
        z: -0.748182535172
        w: 0.663340806961
---
transforms: 
  - 
    header: 
      seq: 0
      stamp: 
        secs: 1574453577
        nsecs: 683920000
      frame_id: "map"
    child_frame_id: "velodyne"
    transform: 
      translation: 
        x: -1.58279705048
        y: -285.863616943
        z: -5.94850111008
      rotation: 
        x: 0.0143352206796
        y: 0.00298092910089
        z: -0.756760418415
        w: 0.65352845192
---
transforms: 
  - 
    header: 
      seq: 0
      stamp: 
        secs: 1574453577
        nsecs: 785889000
      frame_id: "map"
    child_frame_id: "velodyne"
    transform: 
      translation: 
        x: -1.65865695477
        y: -286.209899902
        z: -5.9697675705
      rotation: 
        x: 0.0147910779342
        y: 0.00331414747052
        z: -0.760380446911
        w: 0.649301052094
---
transforms: 
  - 
    header: 
      seq: 0
      stamp: 
        secs: 1574453577
        nsecs: 887889000
      frame_id: "map"
    child_frame_id: "velodyne"
    transform: 
      translation: 
        x: -1.74798166752
        y: -286.597229004
        z: -6.00048398972
      rotation: 
        x: 0.0155585613102
        y: 0.0040409215726
        z: -0.764935493469
        w: 0.643906354904
---
transforms: 
  - 
    header: 
      seq: 0
      stamp: 
        secs: 1574453577
        nsecs: 989922000
      frame_id: "map"
    child_frame_id: "velodyne"
    transform: 
      translation: 
        x: -1.84846162796
        y: -287.008056641
        z: -6.00247526169
      rotation: 
        x: 0.0145710287616
        y: 0.00447423709556
        z: -0.769411563873
        w: 0.638571500778
---
transforms: 
  - 
    header: 
      seq: 0
      stamp: 
        secs: 1574453578
        nsecs:  91911000
      frame_id: "map"
    child_frame_id: "velodyne"
    transform: 
      translation: 
        x: -1.95480203629
        y: -287.422180176
        z: -6.02843332291
      rotation: 
        x: 0.015498040244
        y: 0.00456555886194
        z: -0.773544073105
        w: 0.633536577225
---
transforms: 
  - 
    header: 
      seq: 0
      stamp: 
        secs: 1574453578
        nsecs: 193897000
      frame_id: "map"
    child_frame_id: "velodyne"
    transform: 
      translation: 
        x: -2.06666493416
        y: -287.85244751
        z: -6.03840637207
      rotation: 
        x: 0.0151642486453
        y: 0.00524140615016
        z: -0.777292728424
        w: 0.628934502602
---
transforms: 
  - 
    header: 
      seq: 0
      stamp: 
        secs: 1574453578
        nsecs: 295907000
      frame_id: "map"
    child_frame_id: "velodyne"
    transform: 
      translation: 
        x: -2.18282222748
        y: -288.308990479
        z: -6.06608390808
      rotation: 
        x: 0.0151966297999
        y: 0.00575346732512
        z: -0.780870079994
        w: 0.624482095242
---
transforms: 
  - 
    header: 
      seq: 0
      stamp: 
        secs: 1574453578
        nsecs: 397910000
      frame_id: "map"
    child_frame_id: "velodyne"
    transform: 
      translation: 
        x: -2.31117415428
        y: -288.786743164
        z: -6.09206390381
      rotation: 
        x: 0.0152930989861
        y: 0.00652039330453
        z: -0.784344315529
        w: 0.62010294199
---
transforms: 
  - 
    header: 
      seq: 0
      stamp: 
        secs: 1574453578
        nsecs: 499884000
      frame_id: "map"
    child_frame_id: "velodyne"
    transform: 
      translation: 
        x: -2.44492578506
        y: -289.253875732
        z: -6.09937143326
      rotation: 
        x: 0.0140018546954
        y: 0.00718355411664
        z: -0.787567019463
        w: 0.616028010845
---
transforms: 
  - 
    header: 
      seq: 0
      stamp: 
        secs: 1574453578
        nsecs: 601901000
      frame_id: "map"
    child_frame_id: "velodyne"
    transform: 
      translation: 
        x: -2.56488537788
        y: -289.741027832
        z: -6.12432575226
      rotation: 
        x: 0.0140309948474
        y: 0.00696797529235
        z: -0.790710926056
        w: 0.611989200115
---
transforms: 
  - 
    header: 
      seq: 0
      stamp: 
        secs: 1574453578
        nsecs: 703909000
      frame_id: "map"
    child_frame_id: "velodyne"
    transform: 
      translation: 
        x: -2.6951816082
        y: -290.232696533
        z: -6.14505290985
      rotation: 
        x: 0.0123658943921
        y: 0.00836987327784
        z: -0.794114470482
        w: 0.607584893703
---
transforms: 
  - 
    header: 
      seq: 0
      stamp: 
        secs: 1574453578
        nsecs: 805882000
      frame_id: "map"
    child_frame_id: "velodyne"
    transform: 
      translation: 
        x: -2.81921672821
        y: -290.730743408
        z: -6.16498088837
      rotation: 
        x: 0.0103365397081
        y: 0.00728890392929
        z: -0.798002839088
        w: 0.602520883083
---
transforms: 
  - 
    header: 
      seq: 0
      stamp: 
        secs: 1574453578
        nsecs: 907905000
      frame_id: "map"
    child_frame_id: "velodyne"
    transform: 
      translation: 
        x: -2.97479510307
        y: -291.239624023
        z: -6.15634965897
      rotation: 
        x: 0.0110729029402
        y: 0.00633404916152
        z: -0.802347660065
        w: 0.596720695496
---
transforms: 
  - 
    header: 
      seq: 0
      stamp: 
        secs: 1574453579
        nsecs:   9878000
      frame_id: "map"
    child_frame_id: "velodyne"
    transform: 
      translation: 
        x: -3.15082526207
        y: -291.715301514
        z: -6.17976665497
      rotation: 
        x: 0.0118999956176
        y: 0.0076844911091
        z: -0.806770563126
        w: 0.590695083141
---
transforms: 
  - 
    header: 
      seq: 0
      stamp: 
        secs: 1574453579
        nsecs: 111982000
      frame_id: "map"
    child_frame_id: "velodyne"
    transform: 
      translation: 
        x: -3.32643866539
        y: -292.213531494
        z: -6.20189523697
      rotation: 
        x: 0.0133649716154
        y: 0.00746119907126
        z: -0.811021864414
        w: 0.584815502167
---
transforms: 
  - 
    header: 
      seq: 0
      stamp: 
        secs: 1574453579
        nsecs: 213882000
      frame_id: "map"
    child_frame_id: "velodyne"
    transform: 
      translation: 
        x: -3.49530816078
        y: -292.720947266
        z: -6.22019767761
      rotation: 
        x: 0.0129444664344
        y: 0.008953477256
        z: -0.814949035645
        w: 0.579318881035
---
transforms: 
  - 
    header: 
      seq: 0
      stamp: 
        secs: 1574453579
        nsecs: 315880000
      frame_id: "map"
    child_frame_id: "velodyne"
    transform: 
      translation: 
        x: -3.67200922966
        y: -293.221679688
        z: -6.24014282227
      rotation: 
        x: 0.0139835039154
        y: 0.00961909536272
        z: -0.818769991398
        w: 0.573870718479
---
transforms: 
  - 
    header: 
      seq: 0
      stamp: 
        secs: 1574453579
        nsecs: 417877000
      frame_id: "map"
    child_frame_id: "velodyne"
    transform: 
      translation: 
        x: -3.85532999039
        y: -293.728149414
        z: -6.23174619675
      rotation: 
        x: 0.0145619437099
        y: 0.00940350163728
        z: -0.822131335735
        w: 0.569033920765
---
transforms: 
  - 
    header: 
      seq: 0
      stamp: 
        secs: 1574453579
        nsecs: 519886000
      frame_id: "map"
    child_frame_id: "velodyne"
    transform: 
      translation: 
        x: -4.05386018753
        y: -294.241149902
        z: -6.23689413071
      rotation: 
        x: 0.0132427243516
        y: 0.00841055158526
        z: -0.825058758259
        w: 0.564829111099
---
transforms: 
  - 
    header: 
      seq: 0
      stamp: 
        secs: 1574453579
        nsecs: 621912000
      frame_id: "map"
    child_frame_id: "velodyne"
    transform: 
      translation: 
        x: -4.25189876556
        y: -294.740936279
        z: -6.2565612793
      rotation: 
        x: 0.0128184156492
        y: 0.00732867093757
        z: -0.828104257584
        w: 0.560379564762
---
transforms: 
  - 
    header: 
      seq: 0
      stamp: 
        secs: 1574453579
        nsecs: 723901000
      frame_id: "map"
    child_frame_id: "velodyne"
    transform: 
      translation: 
        x: -4.43874883652
        y: -295.267456055
        z: -6.28232383728
      rotation: 
        x: 0.0124373259023
        y: 0.00874883681536
        z: -0.83060669899
        w: 0.556651830673
---
transforms: 
  - 
    header: 
      seq: 0
      stamp: 
        secs: 1574453579
        nsecs: 825875000
      frame_id: "map"
    child_frame_id: "velodyne"
    transform: 
      translation: 
        x: -4.64580583572
        y: -295.779693604
        z: -6.30682706833
      rotation: 
        x: 0.0126792602241
        y: 0.00903919432312
        z: -0.832920074463
        w: 0.553174138069
---
transforms: 
  - 
    header: 
      seq: 0
      stamp: 
        secs: 1574453579
        nsecs: 927897000
      frame_id: "map"
    child_frame_id: "velodyne"
    transform: 
      translation: 
        x: -4.86397695541
        y: -296.289581299
        z: -6.31428909302
      rotation: 
        x: 0.012336762622
        y: 0.00921418983489
        z: -0.835395336151
        w: 0.5494338274
---
transforms: 
  - 
    header: 
      seq: 0
      stamp: 
        secs: 1574453580
        nsecs:  29902000
      frame_id: "map"
    child_frame_id: "velodyne"
    transform: 
      translation: 
        x: -5.08344984055
        y: -296.806152344
        z: -6.33922100067
      rotation: 
        x: 0.0122583322227
        y: 0.00875938776881
        z: -0.842908799648
        w: 0.537845551968
---
transforms: 
  - 
    header: 
      seq: 0
      stamp: 
        secs: 1574453580
        nsecs: 131895000
      frame_id: "map"
    child_frame_id: "velodyne"
    transform: 
      translation: 
        x: -5.28281497955
        y: -297.279907227
        z: -6.34532880783
      rotation: 
        x: 0.0124648557976
        y: 0.00792070478201
        z: -0.840923726559
        w: 0.540952205658
---
transforms: 
  - 
    header: 
      seq: 0
      stamp: 
        secs: 1574453580
        nsecs: 233902000
      frame_id: "map"
    child_frame_id: "velodyne"
    transform: 
      translation: 
        x: -5.50388622284
        y: -297.789520264
        z: -6.35429191589
      rotation: 
        x: 0.0121664451435
        y: 0.00739689171314
        z: -0.841310203075
        w: 0.540365099907
---
transforms: 
  - 
    header: 
      seq: 0
      stamp: 
        secs: 1574453580
        nsecs: 335870000
      frame_id: "map"
    child_frame_id: "velodyne"
    transform: 
      translation: 
        x: -5.72501659393
        y: -298.297546387
        z: -6.37422657013
      rotation: 
        x: 0.0120950825512
        y: 0.00673442147672
        z: -0.842062592506
        w: 0.539202213287
---
transforms: 
  - 
    header: 
      seq: 0
      stamp: 
        secs: 1574453580
        nsecs: 437866000
      frame_id: "map"
    child_frame_id: "velodyne"
    transform: 
      translation: 
        x: -5.93462657928
        y: -298.840026855
        z: -6.38351631165
      rotation: 
        x: 0.0121798394248
        y: 0.00665615545586
        z: -0.842382609844
        w: 0.538701176643
---
transforms: 
  - 
    header: 
      seq: 0
      stamp: 
        secs: 1574453580
        nsecs: 539895000
      frame_id: "map"
    child_frame_id: "velodyne"
    transform: 
      translation: 
        x: -6.15397834778
        y: -299.377746582
        z: -6.40910482407
      rotation: 
        x: 0.0124644776806
        y: 0.00675424095243
        z: -0.841931164265
        w: 0.539398670197
---
transforms: 
  - 
    header: 
      seq: 0
      stamp: 
        secs: 1574453580
        nsecs: 641865000
      frame_id: "map"
    child_frame_id: "velodyne"
    transform: 
      translation: 
        x: -6.3831911087
        y: -299.911956787
        z: -6.42383480072
      rotation: 
        x: 0.0125027177855
        y: 0.00671782484278
        z: -0.841344356537
        w: 0.540313124657
---
transforms: 
  - 
    header: 
      seq: 0
      stamp: 
        secs: 1574453580
        nsecs: 743877000
      frame_id: "map"
    child_frame_id: "velodyne"
    transform: 
      translation: 
        x: -6.61834955215
        y: -300.466247559
        z: -6.44496202469
      rotation: 
        x: 0.0120679475367
        y: 0.00786314439029
        z: -0.840930700302
        w: 0.540951192379
---
transforms: 
  - 
    header: 
      seq: 0
      stamp: 
        secs: 1574453580
        nsecs: 845870000
      frame_id: "map"
    child_frame_id: "velodyne"
    transform: 
      translation: 
        x: -6.84867477417
        y: -301.007873535
        z: -6.46177148819
      rotation: 
        x: 0.0124945845455
        y: 0.00775841344148
        z: -0.840468466282
        w: 0.541660904884
---
transforms: 
  - 
    header: 
      seq: 0
      stamp: 
        secs: 1574453580
        nsecs: 947863000
      frame_id: "map"
    child_frame_id: "velodyne"
    transform: 
      translation: 
        x: -7.08376502991
        y: -301.562591553
        z: -6.49150323868
      rotation: 
        x: 0.0133665939793
        y: 0.0077459262684
        z: -0.839935183525
        w: 0.542466759682
---
transforms: 
  - 
    header: 
      seq: 0
      stamp: 
        secs: 1574453581
        nsecs:  49894000
      frame_id: "map"
    child_frame_id: "velodyne"
    transform: 
      translation: 
        x: -7.3213300705
        y: -302.103149414
        z: -6.49843263626
      rotation: 
        x: 0.0142427468672
        y: 0.007575601805
        z: -0.839554727077
        w: 0.543035566807
---
transforms: 
  - 
    header: 
      seq: 0
      stamp: 
        secs: 1574453581
        nsecs: 151888000
      frame_id: "map"
    child_frame_id: "velodyne"
    transform: 
      translation: 
        x: -7.55200386047
        y: -302.634216309
        z: -6.50940227509
      rotation: 
        x: 0.0143578760326
        y: 0.00817147549242
        z: -0.839254021645
        w: 0.543488502502
---
transforms: 
  - 
    header: 
      seq: 0
      stamp: 
        secs: 1574453581
        nsecs: 253891000
      frame_id: "map"
    child_frame_id: "velodyne"
    transform: 
      translation: 
        x: -7.78718852997
        y: -303.182434082
        z: -6.52764797211
      rotation: 
        x: 0.0137887597084
        y: 0.00867077987641
        z: -0.838982999325
        w: 0.543913841248
---
transforms: 
  - 
    header: 
      seq: 0
      stamp: 
        secs: 1574453581
        nsecs: 355875000
      frame_id: "map"
    child_frame_id: "velodyne"
    transform: 
      translation: 
        x: -8.0253944397
        y: -303.729644775
        z: -6.53459358215
      rotation: 
        x: 0.013578383252
        y: 0.00894280523062
        z: -0.839007854462
        w: 0.543876409531
---
transforms: 
  - 
    header: 
      seq: 0
      stamp: 
        secs: 1574453581
        nsecs: 457872000
      frame_id: "map"
    child_frame_id: "velodyne"
    transform: 
      translation: 
        x: -8.26009750366
        y: -304.282043457
        z: -6.56663179398
      rotation: 
        x: 0.0133731104434
        y: 0.0090394122526
        z: -0.83939319849
        w: 0.543284952641
---
transforms: 
  - 
    header: 
      seq: 0
      stamp: 
        secs: 1574453581
        nsecs: 559886000
      frame_id: "map"
    child_frame_id: "velodyne"
    transform: 
      translation: 
        x: -8.49687862396
        y: -304.834197998
        z: -6.57290029526
      rotation: 
        x: 0.013130617328
        y: 0.00882582645863
        z: -0.839813888073
        w: 0.542643845081
---
transforms: 
  - 
    header: 
      seq: 0
      stamp: 
        secs: 1574453581
        nsecs: 661858000
      frame_id: "map"
    child_frame_id: "velodyne"
    transform: 
      translation: 
        x: -8.74549865723
        y: -305.372009277
        z: -6.59311389923
      rotation: 
        x: 0.0134424725547
        y: 0.00804673414677
        z: -0.84011143446
        w: 0.542187452316
---
transforms: 
  - 
    header: 
      seq: 0
      stamp: 
        secs: 1574453581
        nsecs: 763886000
      frame_id: "map"
    child_frame_id: "velodyne"
    transform: 
      translation: 
        x: -8.99606895447
        y: -305.906921387
        z: -6.6035194397
      rotation: 
        x: 0.0135560585186
        y: 0.00786134600639
        z: -0.840525090694
        w: 0.541545927525
---
transforms: 
  - 
    header: 
      seq: 0
      stamp: 
        secs: 1574453581
        nsecs: 865880000
      frame_id: "map"
    child_frame_id: "velodyne"
    transform: 
      translation: 
        x: -9.24683666229
        y: -306.450592041
        z: -6.62996530533
      rotation: 
        x: 0.0129766389728
        y: 0.00808428041637
        z: -0.840879142284
        w: 0.541006982327
---
transforms: 
  - 
    header: 
      seq: 0
      stamp: 
        secs: 1574453581
        nsecs: 967853000
      frame_id: "map"
    child_frame_id: "velodyne"
    transform: 
      translation: 
        x: -9.48687458038
        y: -306.986541748
        z: -6.65337562561
      rotation: 
        x: 0.0116191226989
        y: 0.0081856418401
        z: -0.841241240501
        w: 0.540473222733
---
transforms: 
  - 
    header: 
      seq: 0
      stamp: 
        secs: 1574453582
        nsecs:  69858000
      frame_id: "map"
    child_frame_id: "velodyne"
    transform: 
      translation: 
        x: -9.73278713226
        y: -307.530029297
        z: -6.66224956512
      rotation: 
        x: 0.00983350165188
        y: 0.0081068361178
        z: -0.841508746147
        w: 0.540093243122
---
transforms: 
  - 
    header: 
      seq: 0
      stamp: 
        secs: 1574453582
        nsecs: 171851000
      frame_id: "map"
    child_frame_id: "velodyne"
    transform: 
      translation: 
        x: -9.99015235901
        y: -308.081665039
        z: -6.66042423248
      rotation: 
        x: 0.0091354213655
        y: 0.00776097038761
        z: -0.847224712372
        w: 0.531099438667
---
transforms: 
  - 
    header: 
      seq: 0
      stamp: 
        secs: 1574453582
        nsecs: 273883000
      frame_id: "map"
    child_frame_id: "velodyne"
    transform: 
      translation: 
        x: -10.2348871231
        y: -308.630279541
        z: -6.65668582916
      rotation: 
        x: 0.0095180394128
        y: 0.00619656778872
        z: -0.847517549992
        w: 0.530645787716
---
transforms: 
  - 
    header: 
      seq: 0
      stamp: 
        secs: 1574453582
        nsecs: 477864000
      frame_id: "map"
    child_frame_id: "velodyne"
    transform: 
      translation: 
        x: -10.7358007431
        y: -309.685058594
        z: -6.66661405563
      rotation: 
        x: 0.0133411558345
        y: 0.0110106645152
        z: -0.843650519848
        w: 0.536614000797
---
transforms: 
  - 
    header: 
      seq: 0
      stamp: 
        secs: 1574453582
        nsecs: 579879000
      frame_id: "map"
    child_frame_id: "velodyne"
    transform: 
      translation: 
        x: -11.0203151703
        y: -310.260192871
        z: -6.72217273712
      rotation: 
        x: 0.0121113304049
        y: 0.0100603178144
        z: -0.84211909771
        w: 0.53906172514
---
transforms: 
  - 
    header: 
      seq: 0
      stamp: 
        secs: 1574453582
        nsecs: 681847000
      frame_id: "map"
    child_frame_id: "velodyne"
    transform: 
      translation: 
        x: -11.3319921494
        y: -310.865020752
        z: -6.74672651291
      rotation: 
        x: 0.0145424781367
        y: 0.0111583964899
        z: -0.843349516392
        w: 0.537052869797
---
transforms: 
  - 
    header: 
      seq: 0
      stamp: 
        secs: 1574453582
        nsecs: 783875000
      frame_id: "map"
    child_frame_id: "velodyne"
    transform: 
      translation: 
        x: -11.6174592972
        y: -311.46206665
        z: -6.77515363693
      rotation: 
        x: 0.012573685497
        y: 0.01035501156
        z: -0.844095408916
        w: 0.535945594311
---
transforms: 
  - 
    header: 
      seq: 0
      stamp: 
        secs: 1574453582
        nsecs: 885878000
      frame_id: "map"
    child_frame_id: "velodyne"
    transform: 
      translation: 
        x: -11.9024782181
        y: -312.026733398
        z: -6.80363798141
      rotation: 
        x: 0.0125643936917
        y: 0.0102520165965
        z: -0.843987882137
        w: 0.536116957664
---
transforms: 
  - 
    header: 
      seq: 0
      stamp: 
        secs: 1574453582
        nsecs: 987847000
      frame_id: "map"
    child_frame_id: "velodyne"
    transform: 
      translation: 
        x: -12.1916046143
        y: -312.672027588
        z: -6.81122636795
      rotation: 
        x: 0.0120917484164
        y: 0.0103393755853
        z: -0.849284172058
        w: 0.527696192265
---
transforms: 
  - 
    header: 
      seq: 0
      stamp: 
        secs: 1574453583
        nsecs:  89860000
      frame_id: "map"
    child_frame_id: "velodyne"
    transform: 
      translation: 
        x: -12.429558754
        y: -313.203277588
        z: -6.83382606506
      rotation: 
        x: 0.0128909237683
        y: 0.0106583982706
        z: -0.845062792301
        w: 0.534405469894
---
transforms: 
  - 
    header: 
      seq: 0
      stamp: 
        secs: 1574453583
        nsecs: 191848000
      frame_id: "map"
    child_frame_id: "velodyne"
    transform: 
      translation: 
        x: -12.6987962723
        y: -313.783630371
        z: -6.84477853775
      rotation: 
        x: 0.0134363239631
        y: 0.0113003458828
        z: -0.843645334244
        w: 0.536613821983
---
transforms: 
  - 
    header: 
      seq: 0
      stamp: 
        secs: 1574453583
        nsecs: 293876000
      frame_id: "map"
    child_frame_id: "velodyne"
    transform: 
      translation: 
        x: -12.9613485336
        y: -314.362060547
        z: -6.8712015152
      rotation: 
        x: 0.0139987934381
        y: 0.010439991951
        z: -0.842909514904
        w: 0.537771940231
---
transforms: 
  - 
    header: 
      seq: 0
      stamp: 
        secs: 1574453583
        nsecs: 395877000
      frame_id: "map"
    child_frame_id: "velodyne"
    transform: 
      translation: 
        x: -13.2175521851
        y: -314.938110352
        z: -6.88850212097
      rotation: 
        x: 0.013471393846
        y: 0.0110662477091
        z: -0.842250585556
        w: 0.538804292679
---
transforms: 
  - 
    header: 
      seq: 0
      stamp: 
        secs: 1574453583
        nsecs: 497859000
      frame_id: "map"
    child_frame_id: "velodyne"
    transform: 
      translation: 
        x: -13.4712162018
        y: -315.508850098
        z: -6.91419839859
      rotation: 
        x: 0.0143399406224
        y: 0.0105959679931
        z: -0.841076612473
        w: 0.540622234344
---
transforms: 
  - 
    header: 
      seq: 0
      stamp: 
        secs: 1574453583
        nsecs: 599871000
      frame_id: "map"
    child_frame_id: "velodyne"
    transform: 
      translation: 
        x: -13.7191905975
        y: -316.098052979
        z: -6.92153644562
      rotation: 
        x: 0.0148118557408
        y: 0.0103632677346
        z: -0.839707612991
        w: 0.542737722397
---
transforms: 
  - 
    header: 
      seq: 0
      stamp: 
        secs: 1574453583
        nsecs: 701862000
      frame_id: "map"
    child_frame_id: "velodyne"
    transform: 
      translation: 
        x: -13.9666862488
        y: -316.678894043
        z: -6.94498682022
      rotation: 
        x: 0.0155181167647
        y: 0.0101710604504
        z: -0.838263034821
        w: 0.54495036602
---
transforms: 
  - 
    header: 
      seq: 0
      stamp: 
        secs: 1574453583
        nsecs: 803842000
      frame_id: "map"
    child_frame_id: "velodyne"
    transform: 
      translation: 
        x: -14.2069454193
        y: -317.279296875
        z: -6.95437335968
      rotation: 
        x: 0.0154784750193
        y: 0.010247993283
        z: -0.836719930172
        w: 0.547316431999
---
transforms: 
  - 
    header: 
      seq: 0
      stamp: 
        secs: 1574453583
        nsecs: 905846000
      frame_id: "map"
    child_frame_id: "velodyne"
    transform: 
      translation: 
        x: -14.4377822876
        y: -317.919708252
        z: -6.98061227798
      rotation: 
        x: 0.0161746665835
        y: 0.0106205688789
        z: -0.835202753544
        w: 0.549601614475
---
transforms: 
  - 
    header: 
      seq: 0
      stamp: 
        secs: 1574453584
        nsecs:   7845000
      frame_id: "map"
    child_frame_id: "velodyne"
    transform: 
      translation: 
        x: -14.6684923172
        y: -318.574920654
        z: -6.99901485443
      rotation: 
        x: 0.0165975075215
        y: 0.0106268972158
        z: -0.833698689938
        w: 0.551867902279
---
transforms: 
  - 
    header: 
      seq: 0
      stamp: 
        secs: 1574453584
        nsecs: 109844000
      frame_id: "map"
    child_frame_id: "velodyne"
    transform: 
      translation: 
        x: -14.8904342651
        y: -319.255371094
        z: -7.02886390686
      rotation: 
        x: 0.0171660687774
        y: 0.0108353886753
        z: -0.832124531269
        w: 0.554217100143
---
transforms: 
  - 
    header: 
      seq: 0
      stamp: 
        secs: 1574453584
        nsecs: 211919000
      frame_id: "map"
    child_frame_id: "velodyne"
    transform: 
      translation: 
        x: -15.1093645096
        y: -319.890228271
        z: -7.05207920074
      rotation: 
        x: 0.0177028309554
        y: 0.0109174307436
        z: -0.83065533638
        w: 0.556398332119
---
transforms: 
  - 
    header: 
      seq: 0
      stamp: 
        secs: 1574453584
        nsecs: 313843000
      frame_id: "map"
    child_frame_id: "velodyne"
    transform: 
      translation: 
        x: -15.3253765106
        y: -320.480957031
        z: -7.0821518898
      rotation: 
        x: 0.0174282379448
        y: 0.0105653395876
        z: -0.829325795174
        w: 0.558393478394
---
transforms: 
  - 
    header: 
      seq: 0
      stamp: 
        secs: 1574453584
        nsecs: 415851000
      frame_id: "map"
    child_frame_id: "velodyne"
    transform: 
      translation: 
        x: -15.5337686539
        y: -321.027099609
        z: -7.09575271606
      rotation: 
        x: 0.0173082035035
        y: 0.0102175539359
        z: -0.827991902828
        w: 0.560379862785
---
transforms: 
  - 
    header: 
      seq: 0
      stamp: 
        secs: 1574453584
        nsecs: 517841000
      frame_id: "map"
    child_frame_id: "velodyne"
    transform: 
      translation: 
        x: -15.7346382141
        y: -321.567871094
        z: -7.11709737778
      rotation: 
        x: 0.016934402287
        y: 0.0101327458397
        z: -0.826707482338
        w: 0.562285780907
---
transforms: 
  - 
    header: 
      seq: 0
      stamp: 
        secs: 1574453584
        nsecs: 619841000
      frame_id: "map"
    child_frame_id: "velodyne"
    transform: 
      translation: 
        x: -15.9275856018
        y: -322.103942871
        z: -7.12607955933
      rotation: 
        x: 0.0168202854693
        y: 0.00981384236366
        z: -0.825507938862
        w: 0.564054429531
---
transforms: 
  - 
    header: 
      seq: 0
      stamp: 
        secs: 1574453584
        nsecs: 721837000
      frame_id: "map"
    child_frame_id: "velodyne"
    transform: 
      translation: 
        x: -16.1120071411
        y: -322.614349365
        z: -7.14332294464
      rotation: 
        x: 0.0162093658
        y: 0.0102233719081
        z: -0.8242816329
        w: 0.565855562687
---
transforms: 
  - 
    header: 
      seq: 0
      stamp: 
        secs: 1574453584
        nsecs: 823860000
      frame_id: "map"
    child_frame_id: "velodyne"
    transform: 
      translation: 
        x: -16.2972736359
        y: -323.147735596
        z: -7.15380096436
      rotation: 
        x: 0.0157592892647
        y: 0.0103078912944
        z: -0.822889566422
        w: 0.567889213562
---
transforms: 
  - 
    header: 
      seq: 0
      stamp: 
        secs: 1574453584
        nsecs: 925839000
      frame_id: "map"
    child_frame_id: "velodyne"
    transform: 
      translation: 
        x: -16.4818134308
        y: -323.66003418
        z: -7.16745996475
      rotation: 
        x: 0.015035319142
        y: 0.00971999112517
        z: -0.821558177471
        w: 0.569843649864
---
transforms: 
  - 
    header: 
      seq: 0
      stamp: 
        secs: 1574453585
        nsecs:  27848000
      frame_id: "map"
    child_frame_id: "velodyne"
    transform: 
      translation: 
        x: -16.659696579
        y: -324.179382324
        z: -7.19152927399
      rotation: 
        x: 0.0146671570837
        y: 0.00903753470629
        z: -0.820284903049
        w: 0.571695625782
---
transforms: 
  - 
    header: 
      seq: 0
      stamp: 
        secs: 1574453585
        nsecs: 129855000
      frame_id: "map"
    child_frame_id: "velodyne"
    transform: 
      translation: 
        x: -16.8381099701
        y: -324.702270508
        z: -7.20541620255
      rotation: 
        x: 0.0146415298805
        y: 0.00898834876716
        z: -0.818994820118
        w: 0.573543667793
---
transforms: 
  - 
    header: 
      seq: 0
      stamp: 
        secs: 1574453585
        nsecs: 231860000
      frame_id: "map"
    child_frame_id: "velodyne"
    transform: 
      translation: 
        x: -17.0182170868
        y: -325.215087891
        z: -7.22833681107
      rotation: 
        x: 0.0148074831814
        y: 0.00861905142665
        z: -0.817613124847
        w: 0.575512945652
---
transforms: 
  - 
    header: 
      seq: 0
      stamp: 
        secs: 1574453585
        nsecs: 333851000
      frame_id: "map"
    child_frame_id: "velodyne"
    transform: 
      translation: 
        x: -17.1939792633
        y: -325.721313477
        z: -7.24435186386
      rotation: 
        x: 0.0149773461744
        y: 0.00915636494756
        z: -0.816294074059
        w: 0.577369809151
---
transforms: 
  - 
    header: 
      seq: 0
      stamp: 
        secs: 1574453585
        nsecs: 435860000
      frame_id: "map"
    child_frame_id: "velodyne"
    transform: 
      translation: 
        x: -17.3586654663
        y: -326.237091064
        z: -7.26696872711
      rotation: 
        x: 0.0153014156967
        y: 0.0094559174031
        z: -0.814892649651
        w: 0.579332709312
---
transforms: 
  - 
    header: 
      seq: 0
      stamp: 
        secs: 1574453585
        nsecs: 537835000
      frame_id: "map"
    child_frame_id: "velodyne"
    transform: 
      translation: 
        x: -17.5255527496
        y: -326.743652344
        z: -7.28492975235
      rotation: 
        x: 0.0151467239484
        y: 0.00925567932427
        z: -0.813426792622
        w: 0.581396400928
---
transforms: 
  - 
    header: 
      seq: 0
      stamp: 
        secs: 1574453585
        nsecs: 639831000
      frame_id: "map"
    child_frame_id: "velodyne"
    transform: 
      translation: 
        x: -17.690694809
        y: -327.251495361
        z: -7.3055305481
      rotation: 
        x: 0.0155388116837
        y: 0.00844571366906
        z: -0.812059044838
        w: 0.58330732584
---
transforms: 
  - 
    header: 
      seq: 0
      stamp: 
        secs: 1574453585
        nsecs: 741827000
      frame_id: "map"
    child_frame_id: "velodyne"
    transform: 
      translation: 
        x: -17.8456630707
        y: -327.75302124
        z: -7.32722997665
      rotation: 
        x: 0.0154808033258
        y: 0.00731770368293
        z: -0.810875415802
        w: 0.584968268871
---
transforms: 
  - 
    header: 
      seq: 0
      stamp: 
        secs: 1574453585
        nsecs: 843860000
      frame_id: "map"
    child_frame_id: "velodyne"
    transform: 
      translation: 
        x: -17.9992237091
        y: -328.253387451
        z: -7.33624076843
      rotation: 
        x: 0.0155228367075
        y: 0.00704886438325
        z: -0.809562861919
        w: 0.586785554886
---
transforms: 
  - 
    header: 
      seq: 0
      stamp: 
        secs: 1574453585
        nsecs: 945840000
      frame_id: "map"
    child_frame_id: "velodyne"
    transform: 
      translation: 
        x: -18.1541099548
        y: -328.758972168
        z: -7.35389566422
      rotation: 
        x: 0.0155135365203
        y: 0.0066487393342
        z: -0.808238327503
        w: 0.588613688946
---
transforms: 
  - 
    header: 
      seq: 0
      stamp: 
        secs: 1574453586
        nsecs:  47827000
      frame_id: "map"
    child_frame_id: "velodyne"
    transform: 
      translation: 
        x: -18.3036022186
        y: -329.273101807
        z: -7.36398363113
      rotation: 
        x: 0.0151228737086
        y: 0.00654522329569
        z: -0.807018578053
        w: 0.590296149254
---
transforms: 
  - 
    header: 
      seq: 0
      stamp: 
        secs: 1574453586
        nsecs: 149845000
      frame_id: "map"
    child_frame_id: "velodyne"
    transform: 
      translation: 
        x: -18.4558868408
        y: -329.800170898
        z: -7.38824605942
      rotation: 
        x: 0.0148238455877
        y: 0.0068769780919
        z: -0.8057076931
        w: 0.59208792448
---
transforms: 
  - 
    header: 
      seq: 0
      stamp: 
        secs: 1574453586
        nsecs: 251826000
      frame_id: "map"
    child_frame_id: "velodyne"
    transform: 
      translation: 
        x: -18.6021175385
        y: -330.305511475
        z: -7.41310310364
      rotation: 
        x: 0.0146693140268
        y: 0.00687609519809
        z: -0.804596543312
        w: 0.593600869179
---
transforms: 
  - 
    header: 
      seq: 0
      stamp: 
        secs: 1574453586
        nsecs: 353827000
      frame_id: "map"
    child_frame_id: "velodyne"
    transform: 
      translation: 
        x: -18.7633705139
        y: -330.828277588
        z: -7.42574691772
      rotation: 
        x: 0.0147240422666
        y: 0.00640128459781
        z: -0.803668260574
        w: 0.594861030579
---
transforms: 
  - 
    header: 
      seq: 0
      stamp: 
        secs: 1574453586
        nsecs: 455826000
      frame_id: "map"
    child_frame_id: "velodyne"
    transform: 
      translation: 
        x: -18.9205245972
        y: -331.32989502
        z: -7.43245697021
      rotation: 
        x: 0.0148227727041
        y: 0.00689542526379
        z: -0.803265988827
        w: 0.595396101475
---
transforms: 
  - 
    header: 
      seq: 0
      stamp: 
        secs: 1574453586
        nsecs: 557825000
      frame_id: "map"
    child_frame_id: "velodyne"
    transform: 
      translation: 
        x: -19.0765399933
        y: -331.84185791
        z: -7.42306470871
      rotation: 
        x: 0.0152947809547
        y: 0.00790067110211
        z: -0.803229391575
        w: 0.595421075821
---
transforms: 
  - 
    header: 
      seq: 0
      stamp: 
        secs: 1574453586
        nsecs: 659854000
      frame_id: "map"
    child_frame_id: "velodyne"
    transform: 
      translation: 
        x: -19.219417572
        y: -332.3359375
        z: -7.43113946915
      rotation: 
        x: 0.015912245959
        y: 0.00885423179716
        z: -0.803864479065
        w: 0.594533741474
---
transforms: 
  - 
    header: 
      seq: 0
      stamp: 
        secs: 1574453586
        nsecs: 761834000
      frame_id: "map"
    child_frame_id: "velodyne"
    transform: 
      translation: 
        x: -19.3653297424
        y: -332.828186035
        z: -7.44295406342
      rotation: 
        x: 0.016090080142
        y: 0.00960011873394
        z: -0.809985876083
        w: 0.586150050163
---
transforms: 
  - 
    header: 
      seq: 0
      stamp: 
        secs: 1574453586
        nsecs: 863847000
      frame_id: "map"
    child_frame_id: "velodyne"
    transform: 
      translation: 
        x: -19.5028686523
        y: -333.265106201
        z: -7.44020080566
      rotation: 
        x: 0.0181249342859
        y: 0.0103508951142
        z: -0.808927416801
        w: 0.587537884712
---
transforms: 
  - 
    header: 
      seq: 0
      stamp: 
        secs: 1574453586
        nsecs: 965818000
      frame_id: "map"
    child_frame_id: "velodyne"
    transform: 
      translation: 
        x: -19.6614875793
        y: -333.771514893
        z: -7.44222068787
      rotation: 
        x: 0.019009353593
        y: 0.00928132049739
        z: -0.814761459827
        w: 0.579410254955
---
transforms: 
  - 
    header: 
      seq: 0
      stamp: 
        secs: 1574453587
        nsecs:  67836000
      frame_id: "map"
    child_frame_id: "velodyne"
    transform: 
      translation: 
        x: -19.7961864471
        y: -334.183776855
        z: -7.42965078354
      rotation: 
        x: 0.0196614824235
        y: 0.0100686084479
        z: -0.814851224422
        w: 0.579249024391
---
transforms: 
  - 
    header: 
      seq: 0
      stamp: 
        secs: 1574453587
        nsecs: 169829000
      frame_id: "map"
    child_frame_id: "velodyne"
    transform: 
      translation: 
        x: -19.9347839355
        y: -334.619842529
        z: -7.44645929337
      rotation: 
        x: 0.0186303593218
        y: 0.0107049262151
        z: -0.818142950535
        w: 0.574613332748
---
transforms: 
  - 
    header: 
      seq: 0
      stamp: 
        secs: 1574453587
        nsecs: 271847000
      frame_id: "map"
    child_frame_id: "velodyne"
    transform: 
      translation: 
        x: -20.0876083374
        y: -335.058166504
        z: -7.46819448471
      rotation: 
        x: 0.0178699344397
        y: 0.0129671823233
        z: -0.822103440762
        w: 0.568909823895
---
transforms: 
  - 
    header: 
      seq: 0
      stamp: 
        secs: 1574453587
        nsecs: 373826000
      frame_id: "map"
    child_frame_id: "velodyne"
    transform: 
      translation: 
        x: -20.2485122681
        y: -335.501708984
        z: -7.47720623016
      rotation: 
        x: 0.0191088151187
        y: 0.0122014852241
        z: -0.83096075058
        w: 0.555868923664
---
transforms: 
  - 
    header: 
      seq: 0
      stamp: 
        secs: 1574453587
        nsecs: 475838000
      frame_id: "map"
    child_frame_id: "velodyne"
    transform: 
      translation: 
        x: -20.4241809845
        y: -335.85067749
        z: -7.49036169052
      rotation: 
        x: 0.022525921464
        y: 0.00730687519535
        z: -0.831672906876
        w: 0.554760634899
---
transforms: 
  - 
    header: 
      seq: 0
      stamp: 
        secs: 1574453587
        nsecs: 577811000
      frame_id: "map"
    child_frame_id: "velodyne"
    transform: 
      translation: 
        x: -20.6338005066
        y: -336.261291504
        z: -7.48898029327
      rotation: 
        x: 0.0222428720444
        y: 0.00649185245857
        z: -0.840309023857
        w: 0.541612386703
---
transforms: 
  - 
    header: 
      seq: 0
      stamp: 
        secs: 1574453587
        nsecs: 985831000
      frame_id: "map"
    child_frame_id: "velodyne"
    transform: 
      translation: 
        x: -21.4207019806
        y: -337.755462646
        z: -7.56175708771
      rotation: 
        x: -0.0222819726914
        y: -0.0179250240326
        z: 0.876224994659
        w: -0.481052994728
---
transforms: 
  - 
    header: 
      seq: 0
      stamp: 
        secs: 1574453588
        nsecs:  87810000
      frame_id: "map"
    child_frame_id: "velodyne"
    transform: 
      translation: 
        x: -21.6320438385
        y: -338.103393555
        z: -7.58089876175
      rotation: 
        x: 0.0230402331799
        y: 0.00898781139404
        z: -0.859697401524
        w: 0.510204613209
---
transforms: 
  - 
    header: 
      seq: 0
      stamp: 
        secs: 1574453588
        nsecs: 189824000
      frame_id: "map"
    child_frame_id: "velodyne"
    transform: 
      translation: 
        x: -21.8399143219
        y: -338.40737915
        z: -7.59243202209
      rotation: 
        x: -0.023214571178
        y: -0.0137273473665
        z: 0.869512021542
        w: -0.49317497015
---
transforms: 
  - 
    header: 
      seq: 0
      stamp: 
        secs: 1574453588
        nsecs: 291823000
      frame_id: "map"
    child_frame_id: "velodyne"
    transform: 
      translation: 
        x: -22.0480270386
        y: -338.733306885
        z: -7.61566305161
      rotation: 
        x: -0.0234784334898
        y: -0.0125879170373
        z: 0.875872313976
        w: -0.481807082891
---
transforms: 
  - 
    header: 
      seq: 0
      stamp: 
        secs: 1574453588
        nsecs: 393806000
      frame_id: "map"
    child_frame_id: "velodyne"
    transform: 
      translation: 
        x: -22.2900829315
        y: -339.04473877
        z: -7.60513591766
      rotation: 
        x: -0.0241975672543
        y: -0.0132473083213
        z: 0.887805223465
        w: -0.459391921759
---
transforms: 
  - 
    header: 
      seq: 0
      stamp: 
        secs: 1574453588
        nsecs: 597803000
      frame_id: "map"
    child_frame_id: "velodyne"
    transform: 
      translation: 
        x: -22.743812561
        y: -339.617980957
        z: -7.66936206818
      rotation: 
        x: -0.0261303056031
        y: -0.00964828766882
        z: 0.900479614735
        w: -0.434005349874
---
transforms: 
  - 
    header: 
      seq: 0
      stamp: 
        secs: 1574453588
        nsecs: 699830000
      frame_id: "map"
    child_frame_id: "velodyne"
    transform: 
      translation: 
        x: -22.9861698151
        y: -339.889465332
        z: -7.7013926506
      rotation: 
        x: -0.0236942898482
        y: -0.0119667490944
        z: 0.90211802721
        w: -0.430672049522
---
transforms: 
  - 
    header: 
      seq: 0
      stamp: 
        secs: 1574453588
        nsecs: 801827000
      frame_id: "map"
    child_frame_id: "velodyne"
    transform: 
      translation: 
        x: -23.2295131683
        y: -340.129211426
        z: -7.71641731262
      rotation: 
        x: -0.023766618222
        y: -0.015366461128
        z: 0.909337580204
        w: -0.415095478296
---
transforms: 
  - 
    header: 
      seq: 0
      stamp: 
        secs: 1574453588
        nsecs: 903830000
      frame_id: "map"
    child_frame_id: "velodyne"
    transform: 
      translation: 
        x: -23.4732303619
        y: -340.39855957
        z: -7.74051475525
      rotation: 
        x: -0.0226192697883
        y: -0.0188591871411
        z: 0.915287017822
        w: -0.401724308729
---
transforms: 
  - 
    header: 
      seq: 0
      stamp: 
        secs: 1574453589
        nsecs:   5825000
      frame_id: "map"
    child_frame_id: "velodyne"
    transform: 
      translation: 
        x: -23.7424583435
        y: -340.630310059
        z: -7.72489500046
      rotation: 
        x: -0.0216354392469
        y: -0.0196926835924
        z: 0.921349525452
        w: -0.387632906437
---
transforms: 
  - 
    header: 
      seq: 0
      stamp: 
        secs: 1574453589
        nsecs: 107799000
      frame_id: "map"
    child_frame_id: "velodyne"
    transform: 
      translation: 
        x: -24.0351314545
        y: -340.842803955
        z: -7.74113273621
      rotation: 
        x: -0.0210980959237
        y: -0.014967684634
        z: 0.927365481853
        w: -0.373261600733
---
transforms: 
  - 
    header: 
      seq: 0
      stamp: 
        secs: 1574453589
        nsecs: 209826000
      frame_id: "map"
    child_frame_id: "velodyne"
    transform: 
      translation: 
        x: -24.3557186127
        y: -341.065155029
        z: -7.73439788818
      rotation: 
        x: -0.0196630936116
        y: -0.0130263427272
        z: 0.933422684669
        w: -0.358002454042
---
transforms: 
  - 
    header: 
      seq: 0
      stamp: 
        secs: 1574453589
        nsecs: 311884000
      frame_id: "map"
    child_frame_id: "velodyne"
    transform: 
      translation: 
        x: -24.6637496948
        y: -341.281158447
        z: -7.7432923317
      rotation: 
        x: -0.0194435101002
        y: -0.0111440233886
        z: 0.938866615295
        w: -0.343551069498
---
transforms: 
  - 
    header: 
      seq: 0
      stamp: 
        secs: 1574453589
        nsecs: 413797000
      frame_id: "map"
    child_frame_id: "velodyne"
    transform: 
      translation: 
        x: -24.9777126312
        y: -341.488311768
        z: -7.76597213745
      rotation: 
        x: -0.0179295446724
        y: -0.0117825288326
        z: 0.943986654282
        w: -0.329285502434
---
transforms: 
  - 
    header: 
      seq: 0
      stamp: 
        secs: 1574453589
        nsecs: 515826000
      frame_id: "map"
    child_frame_id: "velodyne"
    transform: 
      translation: 
        x: -25.2955093384
        y: -341.675415039
        z: -7.79028606415
      rotation: 
        x: -0.0178091246635
        y: -0.0110889421776
        z: 0.94890922308
        w: -0.314851105213
---
transforms: 
  - 
    header: 
      seq: 0
      stamp: 
        secs: 1574453589
        nsecs: 617818000
      frame_id: "map"
    child_frame_id: "velodyne"
    transform: 
      translation: 
        x: -25.6114501953
        y: -341.868865967
        z: -7.80624198914
      rotation: 
        x: -0.0180119369179
        y: -0.0115919951349
        z: 0.953608632088
        w: -0.300286382437
---
transforms: 
  - 
    header: 
      seq: 0
      stamp: 
        secs: 1574453589
        nsecs: 719823000
      frame_id: "map"
    child_frame_id: "velodyne"
    transform: 
      translation: 
        x: -25.9422874451
        y: -342.064880371
        z: -7.83639955521
      rotation: 
        x: -0.0208350457251
        y: -0.00872745364904
        z: 0.957718133926
        w: -0.286819964647
---
transforms: 
  - 
    header: 
      seq: 0
      stamp: 
        secs: 1574453589
        nsecs: 821822000
      frame_id: "map"
    child_frame_id: "velodyne"
    transform: 
      translation: 
        x: -26.2857494354
        y: -342.255126953
        z: -7.83017349243
      rotation: 
        x: -0.0218794588
        y: -0.0105472235009
        z: 0.961461722851
        w: -0.273863911629
---
transforms: 
  - 
    header: 
      seq: 0
      stamp: 
        secs: 1574453589
        nsecs: 923793000
      frame_id: "map"
    child_frame_id: "velodyne"
    transform: 
      translation: 
        x: -26.6387004852
        y: -342.432006836
        z: -7.82509231567
      rotation: 
        x: -0.0223592333496
        y: -0.0110815279186
        z: 0.965077877045
        w: -0.260771989822
---
transforms: 
  - 
    header: 
      seq: 0
      stamp: 
        secs: 1574453590
        nsecs:  25817000
      frame_id: "map"
