transforms: 
  - 
    header: 
      seq: 0
      stamp: 
        secs: 1574453573
        nsecs: 909948000
      frame_id: "map"
    child_frame_id: "velodyne"
    transform: 
      translation: 
        x: -0.345853626728
        y: 0.606485843658
        z: -2.37598323822
      rotation: 
        x: 0.0328305736184
        y: 0.00866276491433
        z: -0.000908938061912
        w: 0.999422967434
---
transforms: 
  - 
    header: 
      seq: 0
      stamp: 
        secs: 1574453574
        nsecs:  12010000
      frame_id: "map"
    child_frame_id: "velodyne"
    transform: 
      translation: 
        x: 2.49293088913
        y: -280.07321167
        z: -7.7149977684
      rotation: 
        x: 0.0
        y: 0.0
        z: -0.517745554447
        w: 0.855534732342
---
transforms: 
  - 
    header: 
      seq: 0
      stamp: 
        secs: 1574453574
        nsecs: 827909000
      frame_id: "map"
    child_frame_id: "velodyne"
    transform: 
      translation: 
        x: 2.00019788742
        y: -279.871490479
        z: -7.08460044861
      rotation: 
        x: 0.0119480155408
        y: 0.000346396758687
        z: -0.504272937775
        w: 0.863461613655
---
transforms: 
  - 
    header: 
      seq: 0
      stamp: 
        secs: 1574453575
        nsecs: 439932000
      frame_id: "map"
    child_frame_id: "velodyne"
    transform: 
      translation: 
        x: 3.13649487495
        y: -278.162353516
        z: -5.82245445251
      rotation: 
        x: 0.042188283056
        y: -0.0131084052846
        z: -0.539488196373
        w: 0.840833425522
---
transforms: 
  - 
    header: 
      seq: 0
      stamp: 
        secs: 1574453575
        nsecs: 541904000
      frame_id: "map"
    child_frame_id: "velodyne"
    transform: 
      translation: 
        x: 5.25682401657
        y: -277.187683105
        z: -5.82151937485
      rotation: 
        x: 0.0198928676546
        y: -0.00849450286478
        z: -0.588297367096
        w: 0.808355391026
---
transforms: 
  - 
    header: 
      seq: 0
      stamp: 
        secs: 1574453575
        nsecs: 745934000
      frame_id: "map"
    child_frame_id: "velodyne"
    transform: 
      translation: 
        x: 5.64801836014
        y: -276.650421143
        z: -5.79806900024
      rotation: 
        x: 0.0313297249377
        y: -0.0129009466618
        z: -0.58090031147
        w: 0.813269257545
---
transforms: 
  - 
    header: 
      seq: 0
      stamp: 
        secs: 1574453575
        nsecs: 847933000
      frame_id: "map"
    child_frame_id: "velodyne"
    transform: 
      translation: 
        x: 5.93440485001
        y: -276.54309082
        z: -5.77362442017
      rotation: 
        x: 0.0201956629753
        y: -0.00952784623951
        z: -0.579142987728
        w: 0.814920067787
---
transforms: 
  - 
    header: 
      seq: 0
      stamp: 
        secs: 1574453575
        nsecs: 949905000
      frame_id: "map"
    child_frame_id: "velodyne"
    transform: 
      translation: 
        x: 6.01236534119
        y: -276.393981934
        z: -5.76162290573
      rotation: 
        x: 0.0244833249599
        y: -0.0158056560904
        z: -0.610411584377
        w: 0.791548192501
---
transforms: 
  - 
    header: 
      seq: 0
      stamp: 
        secs: 1574453576
        nsecs:  51905000
      frame_id: "map"
    child_frame_id: "velodyne"
    transform: 
      translation: 
        x: 5.62228775024
        y: -277.087524414
        z: -5.82497835159
      rotation: 
        x: 0.0220165941864
        y: -0.0103475535288
        z: -0.643005430698
        w: 0.765475213528
---
transforms: 
  - 
    header: 
      seq: 0
      stamp: 
        secs: 1574453576
        nsecs: 153903000
      frame_id: "map"
    child_frame_id: "velodyne"
    transform: 
      translation: 
        x: 5.21642017365
        y: -274.584533691
        z: -5.75314569473
      rotation: 
        x: 0.0201298687607
        y: -0.00701536843553
        z: -0.677403748035
        w: 0.735302507877
---
transforms: 
  - 
    header: 
      seq: 0
      stamp: 
        secs: 1574453576
        nsecs: 255911000
      frame_id: "map"
    child_frame_id: "velodyne"
    transform: 
      translation: 
        x: 4.89656877518
        y: -272.703125
        z: -5.68762588501
      rotation: 
        x: 0.0202765390277
        y: -0.00794882792979
        z: -0.690146803856
        w: 0.723341584206
---
transforms: 
  - 
    header: 
      seq: 0
      stamp: 
        secs: 1574453576
        nsecs: 357930000
      frame_id: "map"
    child_frame_id: "velodyne"
    transform: 
      translation: 
        x: 4.86113739014
        y: -270.613250732
        z: -5.61911249161
      rotation: 
        x: 0.0191033519804
        y: -0.0062298020348
        z: -0.681252896786
        w: 0.731772363186
---
transforms: 
  - 
    header: 
      seq: 0
      stamp: 
        secs: 1574453576
        nsecs: 459923000
      frame_id: "map"
    child_frame_id: "velodyne"
    transform: 
      translation: 
        x: 4.83165645599
        y: -270.278900146
        z: -5.61129617691
      rotation: 
        x: 0.0193923972547
        y: -0.00637266365811
        z: -0.683207035065
        w: 0.729939341545
---
transforms: 
  - 
    header: 
      seq: 0
      stamp: 
        secs: 1574453576
        nsecs: 561930000
      frame_id: "map"
    child_frame_id: "velodyne"
    transform: 
      translation: 
        x: 4.69455957413
        y: -270.1484375
        z: -5.6048207283
      rotation: 
        x: 0.0187522117049
        y: -0.00600084057078
        z: -0.679957568645
        w: 0.732987105846
---
transforms: 
  - 
    header: 
      seq: 0
      stamp: 
        secs: 1574453576
        nsecs: 663915000
      frame_id: "map"
    child_frame_id: "velodyne"
    transform: 
      translation: 
        x: 4.73117542267
        y: -270.331512451
        z: -5.60663414001
      rotation: 
        x: 0.0181738547981
        y: -0.00506328977644
        z: -0.677236974239
        w: 0.735523045063
---
transforms: 
  - 
    header: 
      seq: 0
      stamp: 
        secs: 1574453576
        nsecs: 765928000
      frame_id: "map"
    child_frame_id: "velodyne"
    transform: 
      translation: 
        x: 4.83670377731
        y: -271.151916504
        z: -5.62149858475
      rotation: 
        x: 0.0178506076336
        y: -0.00413337815553
        z: -0.676999211311
        w: 0.735755681992
---
transforms: 
  - 
    header: 
      seq: 0
      stamp: 
        secs: 1574453576
        nsecs: 867895000
      frame_id: "map"
    child_frame_id: "velodyne"
    transform: 
      translation: 
        x: 4.88692760468
        y: -271.142791748
        z: -5.62391471863
      rotation: 
        x: 0.0176353994757
        y: -0.00464851036668
        z: -0.677201390266
        w: 0.735571682453
---
transforms: 
  - 
    header: 
      seq: 0
      stamp: 
        secs: 1574453576
        nsecs: 969927000
      frame_id: "map"
    child_frame_id: "velodyne"
    transform: 
      translation: 
        x: 5.00095748901
        y: -271.908050537
        z: -5.64951086044
      rotation: 
        x: 0.0167501997203
        y: -0.0042339162901
        z: -0.677330851555
        w: 0.73547565937
---
transforms: 
  - 
    header: 
      seq: 0
      stamp: 
        secs: 1574453577
        nsecs:  71936000
      frame_id: "map"
    child_frame_id: "velodyne"
    transform: 
      translation: 
        x: 4.99332761765
        y: -272.38482666
        z: -5.66312932968
      rotation: 
        x: 0.0158042069525
        y: -0.00277052563615
        z: -0.682550013065
        w: 0.730662822723
---
transforms: 
  - 
    header: 
      seq: 0
      stamp: 
        secs: 1574453577
        nsecs: 173910000
      frame_id: "map"
    child_frame_id: "velodyne"
    transform: 
      translation: 
        x: 5.06805562973
        y: -272.686431885
        z: -5.66495513916
      rotation: 
        x: 0.015831798315
        y: -0.00138499063905
        z: -0.68835568428
        w: 0.725199222565
---
transforms: 
  - 
    header: 
      seq: 0
      stamp: 
        secs: 1574453577
        nsecs: 275911000
      frame_id: "map"
    child_frame_id: "velodyne"
    transform: 
      translation: 
        x: 5.05480003357
        y: -273.268066406
        z: -5.69053268433
      rotation: 
        x: 0.0153576238081
        y: -0.0014071179321
        z: -0.693612873554
        w: 0.720182955265
---
transforms: 
  - 
    header: 
      seq: 0
      stamp: 
        secs: 1574453577
        nsecs: 377900000
      frame_id: "map"
    child_frame_id: "velodyne"
    transform: 
      translation: 
        x: 5.02421855927
        y: -273.676574707
        z: -5.70350790024
      rotation: 
        x: 0.0170591585338
        y: -0.00186218100134
        z: -0.697661519051
        w: 0.716221988201
---
transforms: 
  - 
    header: 
      seq: 0
      stamp: 
        secs: 1574453577
        nsecs: 479891000
      frame_id: "map"
    child_frame_id: "velodyne"
    transform: 
      translation: 
        x: 4.92822790146
        y: -274.315490723
        z: -5.71638584137
      rotation: 
        x: 0.0171330980957
        y: -0.00190624443348
        z: -0.701120793819
        w: 0.712834119797
---
transforms: 
  - 
    header: 
      seq: 0
      stamp: 
        secs: 1574453577
        nsecs: 581919000
      frame_id: "map"
    child_frame_id: "velodyne"
    transform: 
      translation: 
        x: 4.90929269791
        y: -274.888122559
        z: -5.73691511154
      rotation: 
        x: 0.0177158322185
        y: -0.00197157775983
        z: -0.707343220711
        w: 0.706645548344
---
transforms: 
  - 
    header: 
      seq: 0
      stamp: 
        secs: 1574453577
        nsecs: 683920000
      frame_id: "map"
    child_frame_id: "velodyne"
    transform: 
      translation: 
        x: 4.83462095261
        y: -275.359558105
        z: -5.74362516403
      rotation: 
        x: 0.0186938401312
        y: -0.000576103164349
        z: -0.714194536209
        w: 0.699697315693
---
transforms: 
  - 
    header: 
      seq: 0
      stamp: 
        secs: 1574453577
        nsecs: 785889000
      frame_id: "map"
    child_frame_id: "velodyne"
    transform: 
      translation: 
        x: 5.28507423401
        y: -275.172637939
        z: -5.74569749832
      rotation: 
        x: 0.0189790576696
        y: -0.00132555083837
        z: -0.716776907444
        w: 0.697043061256
---
transforms: 
  - 
    header: 
      seq: 0
      stamp: 
        secs: 1574453577
        nsecs: 887889000
      frame_id: "map"
    child_frame_id: "velodyne"
    transform: 
      translation: 
        x: -1.6135225296
        y: -286.499755859
        z: -6.00429153442
      rotation: 
        x: 0.0152617609128
        y: 0.00222462392412
        z: -0.766885697842
        w: 0.641598403454
---
transforms: 
  - 
    header: 
      seq: 0
      stamp: 
        secs: 1574453578
        nsecs:  91911000
      frame_id: "map"
    child_frame_id: "velodyne"
    transform: 
      translation: 
        x: -1.95907819271
        y: -287.412261963
        z: -6.03157281876
      rotation: 
        x: 0.0152706904337
        y: 0.00588765833527
        z: -0.777083158493
        w: 0.629185199738
---
transforms: 
  - 
    header: 
      seq: 0
      stamp: 
        secs: 1574453578
        nsecs: 193897000
      frame_id: "map"
    child_frame_id: "velodyne"
    transform: 
      translation: 
        x: -2.07353830338
        y: -287.8487854
        z: -6.04458665848
      rotation: 
        x: 0.015445205383
        y: 0.00460324576125
        z: -0.77464389801
        w: 0.632192373276
---
transforms: 
  - 
    header: 
      seq: 0
      stamp: 
        secs: 1574453578
        nsecs: 295907000
      frame_id: "map"
    child_frame_id: "velodyne"
    transform: 
      translation: 
        x: -2.18529868126
        y: -288.297302246
        z: -6.06961250305
      rotation: 
        x: 0.0151273394004
        y: 0.005729297176
        z: -0.78015011549
        w: 0.625383257866
---
transforms: 
  - 
    header: 
      seq: 0
      stamp: 
        secs: 1574453578
        nsecs: 397910000
      frame_id: "map"
    child_frame_id: "velodyne"
    transform: 
      translation: 
        x: -2.3065969944
        y: -288.768676758
        z: -6.09140062332
      rotation: 
        x: 0.015418660827
        y: 0.00632728589699
        z: -0.784022212029
        w: 0.620509028435
---
transforms: 
  - 
    header: 
      seq: 0
      stamp: 
        secs: 1574453578
        nsecs: 499884000
      frame_id: "map"
    child_frame_id: "velodyne"
    transform: 
      translation: 
        x: -2.4334859848
        y: -289.233764648
        z: -6.10415697098
      rotation: 
        x: 0.0142454560846
        y: 0.0068151508458
        z: -0.787514507771
        w: 0.616093754768
---
transforms: 
  - 
    header: 
      seq: 0
      stamp: 
        secs: 1574453578
        nsecs: 601901000
      frame_id: "map"
    child_frame_id: "velodyne"
    transform: 
      translation: 
        x: -2.5476360321
        y: -289.71987915
        z: -6.12873363495
      rotation: 
        x: 0.0143091166392
        y: 0.00679157115519
        z: -0.790671646595
        w: 0.612035572529
---
transforms: 
  - 
    header: 
      seq: 0
      stamp: 
        secs: 1574453578
        nsecs: 703909000
      frame_id: "map"
    child_frame_id: "velodyne"
    transform: 
      translation: 
        x: -2.67117357254
        y: -290.200134277
        z: -6.15480041504
      rotation: 
        x: 0.0127586722374
        y: 0.00806270819157
        z: -0.79408031702
        w: 0.607625484467
---
transforms: 
  - 
    header: 
      seq: 0
      stamp: 
        secs: 1574453578
        nsecs: 805882000
      frame_id: "map"
    child_frame_id: "velodyne"
    transform: 
      translation: 
        x: -2.80084395409
        y: -290.699676514
        z: -6.17430448532
      rotation: 
        x: 0.0104951113462
        y: 0.00706223398447
        z: -0.797950088978
        w: 0.602590858936
---
transforms: 
  - 
    header: 
      seq: 0
      stamp: 
        secs: 1574453578
        nsecs: 907905000
      frame_id: "map"
    child_frame_id: "velodyne"
    transform: 
      translation: 
        x: -2.95848798752
        y: -291.215362549
        z: -6.16351413727
      rotation: 
        x: 0.0112389102578
        y: 0.00602691713721
        z: -0.802281618118
        w: 0.596809506416
---
transforms: 
  - 
    header: 
      seq: 0
      stamp: 
        secs: 1574453579
        nsecs:   9878000
      frame_id: "map"
    child_frame_id: "velodyne"
    transform: 
      translation: 
        x: -3.12993073463
        y: -291.694671631
        z: -6.19108629227
      rotation: 
        x: 0.0122365606949
        y: 0.00745366094634
        z: -0.806670546532
        w: 0.590827703476
---
transforms: 
  - 
    header: 
      seq: 0
      stamp: 
        secs: 1574453579
        nsecs: 111982000
      frame_id: "map"
    child_frame_id: "velodyne"
    transform: 
      translation: 
        x: -3.31335091591
        y: -292.206665039
        z: -6.20597696304
      rotation: 
        x: 0.0129853701219
        y: 0.00712637417018
        z: -0.815505325794
        w: 0.578560054302
---
transforms: 
  - 
    header: 
      seq: 0
      stamp: 
        secs: 1574453579
        nsecs: 213882000
      frame_id: "map"
    child_frame_id: "velodyne"
    transform: 
      translation: 
        x: -3.46854352951
        y: -292.667510986
        z: -6.22115802765
      rotation: 
        x: 0.0133892260492
        y: 0.00860028341413
        z: -0.816114187241
        w: 0.577671587467
---
transforms: 
  - 
    header: 
      seq: 0
      stamp: 
        secs: 1574453579
        nsecs: 315880000
      frame_id: "map"
    child_frame_id: "velodyne"
    transform: 
      translation: 
        x: -3.64004182816
        y: -293.153686523
        z: -6.24669933319
      rotation: 
        x: 0.0142766740173
        y: 0.00928048416972
        z: -0.819334089756
        w: 0.57306343317
---
transforms: 
  - 
    header: 
      seq: 0
      stamp: 
        secs: 1574453579
        nsecs: 417877000
      frame_id: "map"
    child_frame_id: "velodyne"
    transform: 
      translation: 
        x: -3.82125616074
        y: -293.662139893
        z: -6.23893165588
      rotation: 
        x: 0.0148519165814
        y: 0.00919509679079
        z: -0.822461485863
        w: 0.568552613258
---
transforms: 
  - 
    header: 
      seq: 0
      stamp: 
        secs: 1574453579
        nsecs: 519886000
      frame_id: "map"
    child_frame_id: "velodyne"
    transform: 
      translation: 
        x: -4.01948690414
        y: -294.180297852
        z: -6.24366903305
      rotation: 
        x: 0.0133971925825
        y: 0.00826625525951
        z: -0.825297832489
        w: 0.564478218555
---
transforms: 
  - 
    header: 
      seq: 0
      stamp: 
        secs: 1574453579
        nsecs: 621912000
      frame_id: "map"
    child_frame_id: "velodyne"
    transform: 
      translation: 
        x: -4.22189044952
        y: -294.680450439
        z: -6.25620698929
      rotation: 
        x: 0.0129696801305
        y: 0.00733028585091
        z: -0.828265547752
        w: 0.560137689114
---
transforms: 
  - 
    header: 
      seq: 0
      stamp: 
        secs: 1574453579
        nsecs: 723901000
      frame_id: "map"
    child_frame_id: "velodyne"
    transform: 
      translation: 
        x: -4.4107170105
        y: -295.203674316
        z: -6.28615474701
      rotation: 
        x: 0.0126987798139
        y: 0.0084608560428
        z: -0.830685973167
        w: 0.556532144547
---
transforms: 
  - 
    header: 
      seq: 0
      stamp: 
        secs: 1574453579
        nsecs: 825875000
      frame_id: "map"
    child_frame_id: "velodyne"
    transform: 
      translation: 
        x: -4.6188158989
        y: -295.721160889
        z: -6.30830287933
      rotation: 
        x: 0.012876409106
        y: 0.00889736693352
        z: -0.832924902439
        w: 0.553164601326
---
transforms: 
  - 
    header: 
      seq: 0
      stamp: 
        secs: 1574453579
        nsecs: 927897000
      frame_id: "map"
    child_frame_id: "velodyne"
    transform: 
      translation: 
        x: -4.83568334579
        y: -296.235473633
        z: -6.31949615479
      rotation: 
        x: 0.0126147540286
        y: 0.00908412318677
        z: -0.835323274136
        w: 0.549539327621
---
transforms: 
  - 
    header: 
      seq: 0
      stamp: 
        secs: 1574453580
        nsecs:  29902000
      frame_id: "map"
    child_frame_id: "velodyne"
    transform: 
      translation: 
        x: -5.05539989471
        y: -296.744873047
        z: -6.34112644196
      rotation: 
        x: 0.0128151774406
        y: 0.00879550538957
        z: -0.837621808052
        w: 0.546029448509
---
transforms: 
  - 
    header: 
      seq: 0
      stamp: 
        secs: 1574453580
        nsecs: 131895000
      frame_id: "map"
    child_frame_id: "velodyne"
    transform: 
      translation: 
        x: -5.27412939072
        y: -297.265808105
        z: -6.34885787964
      rotation: 
        x: 0.0125763593242
        y: 0.00788880605251
        z: -0.83948135376
        w: 0.543185710907
---
transforms: 
  - 
    header: 
      seq: 0
      stamp: 
        secs: 1574453580
        nsecs: 233902000
      frame_id: "map"
    child_frame_id: "velodyne"
    transform: 
      translation: 
        x: -5.49995422363
        y: -297.780639648
        z: -6.36168336868
      rotation: 
        x: 0.0125504890457
        y: 0.00739155476913
        z: -0.840528190136
        w: 0.541571974754
---
transforms: 
  - 
    header: 
      seq: 0
      stamp: 
        secs: 1574453580
        nsecs: 335870000
      frame_id: "map"
    child_frame_id: "velodyne"
    transform: 
      translation: 
        x: -5.72253322601
        y: -298.290588379
        z: -6.37585067749
      rotation: 
        x: 0.0121253849939
        y: 0.00677177496254
        z: -0.841522932053
        w: 0.540042877197
---
transforms: 
  - 
    header: 
      seq: 0
      stamp: 
        secs: 1574453580
        nsecs: 437866000
      frame_id: "map"
    child_frame_id: "velodyne"
    transform: 
      translation: 
        x: -5.94332408905
        y: -298.848510742
        z: -6.38649940491
      rotation: 
        x: 0.0120964823291
        y: 0.00658826576546
        z: -0.847476422787
        w: 0.53065431118
---
transforms: 
  - 
    header: 
      seq: 0
      stamp: 
        secs: 1574453580
        nsecs: 539895000
      frame_id: "map"
    child_frame_id: "velodyne"
    transform: 
      translation: 
        x: -6.14501857758
        y: -299.336914062
        z: -6.41355514526
      rotation: 
        x: 0.0127464048564
        y: 0.00667430274189
        z: -0.843245744705
        w: 0.537335634232
---
transforms: 
  - 
    header: 
      seq: 0
      stamp: 
        secs: 1574453580
        nsecs: 641865000
      frame_id: "map"
    child_frame_id: "velodyne"
    transform: 
      translation: 
        x: -6.37514686584
        y: -299.876251221
        z: -6.4254283905
      rotation: 
        x: 0.0126105258241
        y: 0.00676500005648
        z: -0.841805815697
        w: 0.539590656757
---
transforms: 
  - 
    header: 
      seq: 0
      stamp: 
        secs: 1574453580
        nsecs: 743877000
      frame_id: "map"
    child_frame_id: "velodyne"
    transform: 
      translation: 
        x: -6.60509634018
        y: -300.419464111
        z: -6.45017051697
      rotation: 
        x: 0.0124882860109
        y: 0.00757174519822
        z: -0.841194570065
        w: 0.540535330772
---
transforms: 
  - 
    header: 
      seq: 0
      stamp: 
        secs: 1574453580
        nsecs: 845870000
      frame_id: "map"
    child_frame_id: "velodyne"
    transform: 
      translation: 
        x: -6.83356761932
        y: -300.970336914
        z: -6.46459627151
      rotation: 
        x: 0.0125695513561
        y: 0.00786372926086
        z: -0.840714812279
        w: 0.541275143623
---
transforms: 
  - 
    header: 
      seq: 0
      stamp: 
        secs: 1574453580
        nsecs: 947863000
      frame_id: "map"
    child_frame_id: "velodyne"
    transform: 
      translation: 
        x: -7.0690536499
        y: -301.52456665
        z: -6.4909696579
      rotation: 
        x: 0.0135801434517
        y: 0.00768150109798
        z: -0.840116739273
        w: 0.542181193829
---
transforms: 
  - 
    header: 
      seq: 0
      stamp: 
        secs: 1574453581
        nsecs:  49894000
      frame_id: "map"
    child_frame_id: "velodyne"
    transform: 
      translation: 
        x: -7.30821228027
        y: -302.063842773
        z: -6.49854469299
      rotation: 
        x: 0.014369616285
        y: 0.00765279866755
        z: -0.839674770832
        w: 0.542845547199
---
transforms: 
  - 
    header: 
      seq: 0
      stamp: 
        secs: 1574453581
        nsecs: 151888000
      frame_id: "map"
    child_frame_id: "velodyne"
    transform: 
      translation: 
        x: -7.53932714462
        y: -302.608123779
        z: -6.51226997375
      rotation: 
        x: 0.0144433854148
        y: 0.00818008743227
        z: -0.839345633984
        w: 0.543344676495
---
transforms: 
  - 
    header: 
      seq: 0
      stamp: 
        secs: 1574453581
        nsecs: 253891000
      frame_id: "map"
    child_frame_id: "velodyne"
    transform: 
      translation: 
        x: -7.769718647
        y: -303.154937744
        z: -6.53398561478
      rotation: 
        x: 0.0139977149665
        y: 0.00852518994361
        z: -0.839022517204
        w: 0.543849825859
---
transforms: 
  - 
    header: 
      seq: 0
      stamp: 
        secs: 1574453581
        nsecs: 355875000
      frame_id: "map"
    child_frame_id: "velodyne"
    transform: 
      translation: 
        x: -8.00761413574
        y: -303.703857422
        z: -6.53871917725
      rotation: 
        x: 0.0136621491984
        y: 0.00889302231371
        z: -0.83900731802
        w: 0.543875813484
---
transforms: 
  - 
    header: 
      seq: 0
      stamp: 
        secs: 1574453581
        nsecs: 457872000
      frame_id: "map"
    child_frame_id: "velodyne"
    transform: 
      translation: 
        x: -8.24047660828
        y: -304.261444092
        z: -6.56991481781
      rotation: 
        x: 0.0135220214725
        y: 0.00899867434055
        z: -0.839367628098
        w: 0.543321430683
---
transforms: 
  - 
    header: 
      seq: 0
      stamp: 
        secs: 1574453581
        nsecs: 559886000
      frame_id: "map"
    child_frame_id: "velodyne"
    transform: 
      translation: 
        x: -8.47728538513
        y: -304.807281494
        z: -6.57544279099
      rotation: 
        x: 0.0132477171719
        y: 0.00882007647306
        z: -0.839763045311
        w: 0.542719721794
---
transforms: 
  - 
    header: 
      seq: 0
      stamp: 
        secs: 1574453581
        nsecs: 661858000
      frame_id: "map"
    child_frame_id: "velodyne"
    transform: 
      translation: 
        x: -8.72518825531
        y: -305.353424072
        z: -6.59751367569
      rotation: 
        x: 0.0135679645464
        y: 0.00804333481938
        z: -0.840059518814
        w: 0.54226487875
---
transforms: 
  - 
    header: 
      seq: 0
      stamp: 
        secs: 1574453581
        nsecs: 763886000
      frame_id: "map"
    child_frame_id: "velodyne"
    transform: 
      translation: 
        x: -8.97167491913
        y: -305.894714355
        z: -6.60892915726
      rotation: 
        x: 0.0137566272169
        y: 0.00780308293179
        z: -0.840471625328
        w: 0.541624844074
---
transforms: 
  - 
    header: 
      seq: 0
      stamp: 
        secs: 1574453581
        nsecs: 865880000
      frame_id: "map"
    child_frame_id: "velodyne"
    transform: 
      translation: 
        x: -9.22211170197
        y: -306.435638428
        z: -6.63311386108
      rotation: 
        x: 0.0130226332694
        y: 0.00817496329546
        z: -0.8408665061
        w: 0.541024148464
---
transforms: 
  - 
    header: 
      seq: 0
      stamp: 
        secs: 1574453581
        nsecs: 967853000
      frame_id: "map"
    child_frame_id: "velodyne"
    transform: 
      translation: 
        x: -9.46555805206
        y: -306.985351562
        z: -6.65738391876
      rotation: 
        x: 0.0120671186596
        y: 0.00804635789245
        z: -0.846705436707
        w: 0.531864285469
---
transforms: 
  - 
    header: 
      seq: 0
      stamp: 
        secs: 1574453582
        nsecs:  69858000
      frame_id: "map"
    child_frame_id: "velodyne"
    transform: 
      translation: 
        x: -9.69110298157
        y: -307.484161377
        z: -6.66481304169
      rotation: 
        x: 0.0100265955552
        y: 0.00806204881519
        z: -0.843016326427
        w: 0.537734150887
---
transforms: 
  - 
    header: 
      seq: 0
      stamp: 
        secs: 1574453582
        nsecs: 171851000
      frame_id: "map"
    child_frame_id: "velodyne"
    transform: 
      translation: 
        x: -9.94002151489
        y: -308.027862549
        z: -6.66604948044
      rotation: 
        x: 0.00951595045626
        y: 0.00768493488431
        z: -0.842372000217
        w: 0.538757681847
---
transforms: 
  - 
    header: 
      seq: 0
      stamp: 
        secs: 1574453582
        nsecs: 273883000
      frame_id: "map"
    child_frame_id: "velodyne"
    transform: 
      translation: 
        x: -10.194144249
        y: -308.576721191
        z: -6.66202449799
      rotation: 
        x: 0.0100484238937
        y: 0.00582155678421
        z: -0.842404544353
        w: 0.538720607758
---
transforms: 
  - 
    header: 
      seq: 0
      stamp: 
        secs: 1574453582
        nsecs: 375851000
      frame_id: "map"
    child_frame_id: "velodyne"
    transform: 
      translation: 
        x: -10.4404907227
        y: -309.122314453
        z: -6.68075752258
      rotation: 
        x: 0.0113555174321
        y: 0.00794729404151
        z: -0.842620134354
        w: 0.538330197334
---
transforms: 
  - 
    header: 
      seq: 0
      stamp: 
        secs: 1574453582
        nsecs: 477864000
      frame_id: "map"
    child_frame_id: "velodyne"
    transform: 
      translation: 
        x: -10.7268724442
        y: -309.687164307
        z: -6.67767333984
      rotation: 
        x: 0.0124134290963
        y: 0.00921138562262
        z: -0.842873156071
        w: 0.537890315056
---
transforms: 
  - 
    header: 
      seq: 0
      stamp: 
        secs: 1574453582
        nsecs: 579879000
      frame_id: "map"
    child_frame_id: "velodyne"
    transform: 
      translation: 
        x: -11.0148630142
        y: -310.265869141
        z: -6.72793102264
      rotation: 
        x: 0.0129578216001
        y: 0.0108818942681
        z: -0.84315508604
        w: 0.537404239178
---
transforms: 
  - 
    header: 
      seq: 0
      stamp: 
        secs: 1574453582
        nsecs: 681847000
      frame_id: "map"
    child_frame_id: "velodyne"
    transform: 
      translation: 
        x: -11.3266973495
        y: -310.874847412
        z: -6.74940729141
      rotation: 
        x: 0.0144879482687
        y: 0.0108558610082
        z: -0.843471944332
        w: 0.536868035793
---
transforms: 
  - 
    header: 
      seq: 0
      stamp: 
        secs: 1574453582
        nsecs: 783875000
      frame_id: "map"
    child_frame_id: "velodyne"
    transform: 
      translation: 
        x: -11.6120815277
        y: -311.470581055
        z: -6.78069496155
      rotation: 
        x: 0.012974861078
        y: 0.0104101188481
        z: -0.844014585018
        w: 0.536062180996
---
transforms: 
  - 
    header: 
      seq: 0
      stamp: 
        secs: 1574453582
        nsecs: 885878000
      frame_id: "map"
    child_frame_id: "velodyne"
    transform: 
      translation: 
        x: -11.8957204819
        y: -312.035980225
        z: -6.80896854401
      rotation: 
        x: 0.0127271609381
        y: 0.0101861367002
        z: -0.843847930431
        w: 0.536334753036
---
transforms: 
  - 
    header: 
      seq: 0
      stamp: 
        secs: 1574453582
        nsecs: 987847000
      frame_id: "map"
    child_frame_id: "velodyne"
    transform: 
      translation: 
        x: -12.1794185638
        y: -312.663513184
        z: -6.81758832932
      rotation: 
        x: 0.012334998697
        y: 0.0102557092905
        z: -0.84928637743
        w: 0.527688741684
---
transforms: 
  - 
    header: 
      seq: 0
      stamp: 
        secs: 1574453583
        nsecs:  89860000
      frame_id: "map"
    child_frame_id: "velodyne"
    transform: 
      translation: 
        x: -12.4343509674
        y: -313.253753662
        z: -6.84021759033
      rotation: 
        x: 0.012799359858
        y: 0.0103629175574
        z: -0.849092125893
        w: 0.527988016605
---
transforms: 
  - 
    header: 
      seq: 0
      stamp: 
        secs: 1574453583
        nsecs: 191848000
      frame_id: "map"
    child_frame_id: "velodyne"
    transform: 
      translation: 
        x: -12.6845941544
        y: -313.781982422
        z: -6.85421657562
      rotation: 
        x: 0.0137639855966
        y: 0.0111030573025
        z: -0.844600021839
        w: 0.535105645657
---
transforms: 
  - 
    header: 
      seq: 0
      stamp: 
        secs: 1574453583
        nsecs: 293876000
      frame_id: "map"
    child_frame_id: "velodyne"
    transform: 
      translation: 
        x: -12.947063446
        y: -314.359710693
        z: -6.88008403778
      rotation: 
        x: 0.0142430635169
        y: 0.0102807004005
        z: -0.843197822571
        w: 0.537316322327
---
transforms: 
  - 
    header: 
      seq: 0
      stamp: 
        secs: 1574453583
        nsecs: 395877000
      frame_id: "map"
    child_frame_id: "velodyne"
    transform: 
      translation: 
        x: -8.01651000977
        y: -310.04473877
        z: -6.60451698303
      rotation: 
        x: 0.0211851578206
        y: -0.000418904557591
        z: -0.822066783905
        w: 0.568996667862
---
transforms: 
  - 
    header: 
      seq: 0
      stamp: 
        secs: 1574453583
        nsecs: 497859000
      frame_id: "map"
    child_frame_id: "velodyne"
    transform: 
      translation: 
        x: -9.57975101471
        y: -308.444213867
        z: -6.74650239944
      rotation: 
        x: 0.0178684964776
        y: 0.00995819456875
        z: -0.823525309563
        w: 0.566910564899
---
transforms: 
  - 
    header: 
      seq: 0
      stamp: 
        secs: 1574453583
        nsecs: 599871000
      frame_id: "map"
    child_frame_id: "velodyne"
    transform: 
      translation: 
        x: -8.76092529297
        y: -307.009429932
        z: -6.72749757767
      rotation: 
        x: 0.021302010864
        y: 0.00441425666213
        z: -0.822646141052
        w: 0.568137347698
---
transforms: 
  - 
    header: 
      seq: 0
      stamp: 
        secs: 1574453583
        nsecs: 701862000
      frame_id: "map"
    child_frame_id: "velodyne"
    transform: 
      translation: 
        x: -8.84094047546
        y: -307.351409912
        z: -6.74294137955
      rotation: 
        x: 0.0202069878578
        y: 0.00712567288429
        z: -0.821229279041
        w: 0.570195972919
---
transforms: 
  - 
    header: 
      seq: 0
      stamp: 
        secs: 1574453583
        nsecs: 803842000
      frame_id: "map"
    child_frame_id: "velodyne"
    transform: 
      translation: 
        x: -9.08712291718
        y: -307.930297852
        z: -6.76436901093
      rotation: 
        x: 0.0214434098452
        y: 0.00551752699539
        z: -0.819602966309
        w: 0.57250392437
---
transforms: 
  - 
    header: 
      seq: 0
      stamp: 
        secs: 1574453583
        nsecs: 905846000
      frame_id: "map"
    child_frame_id: "velodyne"
    transform: 
      translation: 
        x: -9.32748031616
        y: -308.540039062
        z: -6.78485488892
      rotation: 
        x: 0.0211406648159
        y: 0.00674746930599
        z: -0.81802636385
        w: 0.574752449989
---
transforms: 
  - 
    header: 
      seq: 0
      stamp: 
        secs: 1574453584
        nsecs:   7845000
      frame_id: "map"
    child_frame_id: "velodyne"
    transform: 
      translation: 
        x: -9.51486968994
        y: -309.106018066
        z: -6.80135822296
      rotation: 
        x: 0.0221444871277
        y: 0.00662421109155
        z: -0.816245675087
        w: 0.577242314816
---
transforms: 
  - 
    header: 
      seq: 0
      stamp: 
        secs: 1574453584
        nsecs: 109844000
      frame_id: "map"
    child_frame_id: "velodyne"
    transform: 
      translation: 
        x: -9.69764995575
        y: -309.434814453
        z: -6.81971597672
      rotation: 
        x: 0.0229694545269
        y: 0.00678348680958
        z: -0.814413309097
        w: 0.579790830612
---
transforms: 
  - 
    header: 
      seq: 0
      stamp: 
        secs: 1574453584
        nsecs: 211919000
      frame_id: "map"
    child_frame_id: "velodyne"
    transform: 
      translation: 
        x: -10.3267765045
        y: -315.955322266
        z: -6.05095863342
      rotation: 
        x: 0.0209571216255
        y: -0.0108466893435
        z: -0.803737938404
        w: 0.594515323639
---
transforms: 
  - 
    header: 
      seq: 0
      stamp: 
        secs: 1574453584
        nsecs: 313843000
      frame_id: "map"
    child_frame_id: "velodyne"
    transform: 
      translation: 
        x: -12.6025619507
        y: -317.234863281
        z: -6.98182821274
      rotation: 
        x: 0.0195307843387
        y: 0.016986489296
        z: -0.804047763348
        w: 0.594000995159
---
transforms: 
  - 
    header: 
      seq: 0
      stamp: 
        secs: 1574453584
        nsecs: 517841000
      frame_id: "map"
    child_frame_id: "velodyne"
    transform: 
      translation: 
        x: -14.7621488571
        y: -319.904418945
        z: -7.09059429169
      rotation: 
        x: 0.0191008113325
        y: 0.00357635226101
        z: -0.815800905228
        w: 0.578006207943
---
transforms: 
  - 
    header: 
      seq: 0
      stamp: 
        secs: 1574453584
        nsecs: 619841000
      frame_id: "map"
    child_frame_id: "velodyne"
    transform: 
      translation: 
        x: -15.8373537064
        y: -321.939453125
        z: -7.13460016251
      rotation: 
        x: 0.016127936542
        y: 0.0141090424731
        z: -0.824753701687
        w: 0.565086007118
---
transforms: 
  - 
    header: 
      seq: 0
      stamp: 
        secs: 1574453584
        nsecs: 823860000
      frame_id: "map"
    child_frame_id: "velodyne"
    transform: 
      translation: 
        x: -16.2934417725
        y: -323.159332275
        z: -7.15995597839
      rotation: 
        x: 0.0156286824495
        y: 0.0101348021999
        z: -0.828291118145
        w: 0.559988260269
---
transforms: 
  - 
    header: 
      seq: 0
      stamp: 
        secs: 1574453585
        nsecs: 129855000
      frame_id: "map"
    child_frame_id: "velodyne"
    transform: 
      translation: 
        x: -16.8164539337
        y: -324.661071777
        z: -7.2096362114
      rotation: 
        x: 0.0139077836648
        y: 0.00773722212762
        z: -0.817616343498
        w: 0.575543522835
---
transforms: 
  - 
    header: 
      seq: 0
      stamp: 
        secs: 1574453585
        nsecs: 231860000
      frame_id: "map"
    child_frame_id: "velodyne"
    transform: 
      translation: 
        x: -17.0019626617
        y: -325.186157227
        z: -7.23526382446
      rotation: 
        x: 0.0153408497572
        y: 0.00918370019644
        z: -0.816109538078
        w: 0.577620625496
---
transforms: 
  - 
    header: 
      seq: 0
      stamp: 
        secs: 1574453585
        nsecs: 333851000
      frame_id: "map"
    child_frame_id: "velodyne"
    transform: 
      translation: 
        x: -12.009478569
        y: -321.023132324
        z: -4.85620307922
      rotation: 
        x: 0.00612523546442
        y: -0.0259759090841
        z: -0.772892594337
        w: 0.633975446224
---
transforms: 
  - 
    header: 
      seq: 0
      stamp: 
        secs: 1574453585
        nsecs: 843860000
      frame_id: "map"
    child_frame_id: "velodyne"
    transform: 
      translation: 
        x: -12.570063591
        y: -321.146057129
        z: -7.17354011536
      rotation: 
        x: 0.0452602766454
        y: 0.0446854308248
        z: -0.790970921516
        w: 0.608539044857
---
transforms: 
  - 
    header: 
      seq: 0
      stamp: 
        secs: 1574453586
        nsecs:  47827000
      frame_id: "map"
    child_frame_id: "velodyne"
    transform: 
      translation: 
        x: -11.9055347443
        y: -318.1277771
        z: -7.17236375809
      rotation: 
        x: 0.01109092962
        y: -0.0422303304076
        z: -0.81947863102
        w: 0.57144421339
---
transforms: 
  - 
    header: 
      seq: 0
      stamp: 
        secs: 1574453586
        nsecs: 251826000
      frame_id: "map"
    child_frame_id: "velodyne"
    transform: 
      translation: 
        x: -12.4480991364
        y: -315.544891357
        z: -7.12607383728
      rotation: 
        x: 0.0588932111859
        y: 0.0615840852261
        z: -0.786910891533
        w: 0.611154854298
---
transforms: 
  - 
    header: 
      seq: 0
      stamp: 
        secs: 1574453586
        nsecs: 455826000
      frame_id: "map"
    child_frame_id: "velodyne"
    transform: 
      translation: 
        x: -13.2417812347
        y: -313.400482178
        z: -6.99869203568
      rotation: 
        x: 0.00505505828187
        y: -0.0509453862906
        z: -0.818014860153
        w: 0.572914302349
---
transforms: 
  - 
    header: 
      seq: 0
      stamp: 
        secs: 1574453586
        nsecs: 557825000
      frame_id: "map"
    child_frame_id: "velodyne"
    transform: 
      translation: 
        x: -13.4434757233
        y: -313.634979248
        z: -7.01246976852
      rotation: 
        x: 0.0318036079407
        y: 0.00519932247698
        z: -0.806272447109
        w: 0.590665996075
---
transforms: 
  - 
    header: 
      seq: 0
      stamp: 
        secs: 1574453586
        nsecs: 761834000
      frame_id: "map"
    child_frame_id: "velodyne"
    transform: 
      translation: 
        x: -13.8755807877
        y: -314.050415039
        z: -7.0061507225
      rotation: 
        x: 0.0295273717493
        y: 0.00328942318447
        z: -0.816216051579
        w: 0.576982438564
---
transforms: 
  - 
    header: 
      seq: 0
      stamp: 
        secs: 1574453586
        nsecs: 965818000
      frame_id: "map"
    child_frame_id: "velodyne"
    transform: 
      translation: 
        x: -14.1853218079
        y: -314.855560303
        z: -7.01779842377
      rotation: 
        x: 0.0353669337928
        y: 0.0030946789775
        z: -0.822353839874
        w: 0.56786775589
---
transforms: 
  - 
    header: 
      seq: 0
      stamp: 
        secs: 1574453587
        nsecs:  67836000
      frame_id: "map"
    child_frame_id: "velodyne"
    transform: 
      translation: 
        x: -14.3315229416
        y: -315.47052002
        z: -7.02186870575
      rotation: 
        x: 0.0337712392211
        y: 0.00153861311264
        z: -0.819252192974
        w: 0.572436034679
---
transforms: 
  - 
    header: 
      seq: 0
      stamp: 
        secs: 1574453587
        nsecs: 169829000
      frame_id: "map"
    child_frame_id: "velodyne"
    transform: 
      translation: 
        x: -14.5208044052
        y: -315.636871338
        z: -7.02995681763
      rotation: 
        x: 0.032177887857
        y: 0.00465494114906
        z: -0.819141864777
        w: 0.572668910027
---
transforms: 
  - 
    header: 
      seq: 0
      stamp: 
        secs: 1574453587
        nsecs: 271847000
      frame_id: "map"
    child_frame_id: "velodyne"
    transform: 
      translation: 
        x: -14.8127985001
        y: -315.139404297
        z: -7.05546045303
      rotation: 
        x: 0.0312028732151
        y: 0.00566087150946
        z: -0.818192183971
        w: 0.574069559574
---
transforms: 
  - 
    header: 
      seq: 0
      stamp: 
        secs: 1574453587
        nsecs: 373826000
      frame_id: "map"
    child_frame_id: "velodyne"
    transform: 
      translation: 
        x: -15.0044059753
        y: -315.231536865
        z: -7.04390335083
      rotation: 
        x: 0.0327977389097
        y: 0.00587880751118
        z: -0.825089633465
        w: 0.56401848793
---
transforms: 
  - 
    header: 
      seq: 0
      stamp: 
        secs: 1574453587
        nsecs: 475838000
      frame_id: "map"
    child_frame_id: "velodyne"
    transform: 
      translation: 
        x: -15.1367635727
        y: -315.966217041
        z: -7.03982305527
      rotation: 
        x: 0.0351458080113
        y: 0.0016559594078
        z: -0.829876601696
        w: 0.556836545467
---
transforms: 
  - 
    header: 
      seq: 0
      stamp: 
        secs: 1574453587
        nsecs: 679808000
      frame_id: "map"
    child_frame_id: "velodyne"
    transform: 
      translation: 
        x: -15.5965108871
        y: -316.489746094
        z: -7.08928537369
      rotation: 
        x: 0.0377117209136
        y: -0.0039724544622
        z: -0.842520296574
        w: 0.53732830286
---
transforms: 
  - 
    header: 
      seq: 0
      stamp: 
        secs: 1574453587
        nsecs: 781839000
      frame_id: "map"
    child_frame_id: "velodyne"
    transform: 
      translation: 
        x: -15.8084554672
        y: -317.390075684
        z: -7.11468362808
      rotation: 
        x: 0.0342188552022
        y: 0.00376899330877
        z: -0.842847585678
        w: 0.537050127983
---
transforms: 
  - 
    header: 
      seq: 0
      stamp: 
        secs: 1574453587
        nsecs: 985831000
      frame_id: "map"
    child_frame_id: "velodyne"
    transform: 
      translation: 
        x: -16.1897182465
        y: -318.434265137
        z: -7.15043354034
      rotation: 
        x: 0.0371288396418
        y: 0.0112608885393
        z: -0.862819850445
        w: 0.504020452499
---
transforms: 
  - 
    header: 
      seq: 0
      stamp: 
        secs: 1574453588
        nsecs: 189824000
      frame_id: "map"
    child_frame_id: "velodyne"
    transform: 
      translation: 
        x: -16.6688308716
        y: -318.57434082
        z: -7.17455625534
      rotation: 
        x: -0.0363337025046
        y: -0.0069386693649
        z: 0.87149810791
        w: -0.489001899958
---
transforms: 
  - 
    header: 
      seq: 0
      stamp: 
        secs: 1574453588
        nsecs: 291823000
      frame_id: "map"
    child_frame_id: "velodyne"
    transform: 
      translation: 
        x: -16.8947925568
        y: -318.708709717
        z: -7.17960262299
      rotation: 
        x: -0.0369525775313
        y: -0.0112196570262
        z: 0.875232219696
        w: -0.482159048319
---
transforms: 
  - 
    header: 
      seq: 0
      stamp: 
        secs: 1574453588
        nsecs: 393806000
      frame_id: "map"
    child_frame_id: "velodyne"
    transform: 
      translation: 
        x: -17.1562786102
        y: -318.564910889
        z: -7.16944169998
      rotation: 
        x: -0.0391771942377
        y: -0.0108417328447
        z: 0.882749199867
        w: -0.468082696199
---
transforms: 
  - 
    header: 
      seq: 0
      stamp: 
        secs: 1574453588
        nsecs: 495834000
      frame_id: "map"
    child_frame_id: "velodyne"
    transform: 
      translation: 
        x: -17.3321342468
        y: -319.177947998
        z: -7.18678092957
      rotation: 
        x: -0.0409250333905
        y: -0.0102352946997
        z: 0.888930380344
        w: -0.456095635891
---
transforms: 
  - 
    header: 
      seq: 0
      stamp: 
        secs: 1574453588
        nsecs: 597803000
      frame_id: "map"
    child_frame_id: "velodyne"
    transform: 
      translation: 
        x: -17.6059188843
        y: -318.759674072
        z: -7.2390832901
      rotation: 
        x: -0.0415866523981
        y: -0.00627845525742
        z: 0.89673435688
        w: -0.440566301346
---
transforms: 
  - 
    header: 
      seq: 0
      stamp: 
        secs: 1574453588
        nsecs: 699830000
      frame_id: "map"
    child_frame_id: "velodyne"
    transform: 
      translation: 
        x: -17.8824882507
        y: -318.963562012
        z: -7.26735401154
      rotation: 
        x: -0.0394299998879
        y: -0.00946697499603
        z: 0.902928411961
        w: -0.427873700857
---
transforms: 
  - 
    header: 
      seq: 0
      stamp: 
        secs: 1574453588
        nsecs: 801827000
      frame_id: "map"
    child_frame_id: "velodyne"
    transform: 
      translation: 
        x: -18.1560955048
        y: -319.186462402
        z: -7.29083347321
      rotation: 
        x: -0.0370659530163
        y: -0.0144859496504
        z: 0.909394800663
        w: -0.414025902748
---
transforms: 
  - 
    header: 
      seq: 0
      stamp: 
        secs: 1574453588
        nsecs: 903830000
      frame_id: "map"
    child_frame_id: "velodyne"
    transform: 
      translation: 
        x: -18.4284477234
        y: -319.271026611
        z: -7.30519628525
      rotation: 
        x: -0.0372719913721
        y: -0.018372034654
        z: 0.915469765663
        w: -0.400235414505
---
transforms: 
  - 
    header: 
      seq: 0
      stamp: 
        secs: 1574453589
        nsecs:   5825000
      frame_id: "map"
    child_frame_id: "velodyne"
    transform: 
      translation: 
        x: -18.6820659637
        y: -319.420959473
        z: -7.32649850845
      rotation: 
        x: -0.0367690660059
        y: -0.0171659868211
        z: 0.921382069588
        w: -0.386534065008
---
transforms: 
  - 
    header: 
      seq: 0
      stamp: 
        secs: 1574453589
        nsecs: 107799000
      frame_id: "map"
    child_frame_id: "velodyne"
    transform: 
      translation: 
        x: -18.916059494
        y: -320.193908691
        z: -7.31574583054
      rotation: 
        x: -0.0355084091425
        y: -0.0164317917079
        z: 0.92686522007
        w: -0.373349815607
---
transforms: 
  - 
    header: 
      seq: 0
      stamp: 
        secs: 1574453589
        nsecs: 209826000
      frame_id: "map"
    child_frame_id: "velodyne"
    transform: 
      translation: 
        x: -19.2377128601
        y: -320.211181641
        z: -7.31023979187
      rotation: 
        x: -0.0332121215761
        y: -0.0123541997746
        z: 0.932898581028
        w: -0.358391702175
---
transforms: 
  - 
    header: 
      seq: 0
      stamp: 
        secs: 1574453589
        nsecs: 311884000
      frame_id: "map"
    child_frame_id: "velodyne"
    transform: 
      translation: 
        x: -19.4473438263
        y: -320.960266113
        z: -7.35548257828
      rotation: 
        x: -0.0351047329605
        y: -0.010349788703
        z: 0.937969207764
        w: -0.34478148818
---
transforms: 
  - 
    header: 
      seq: 0
      stamp: 
        secs: 1574453589
        nsecs: 413797000
      frame_id: "map"
    child_frame_id: "velodyne"
    transform: 
      translation: 
        x: -19.8089561462
        y: -320.64553833
        z: -7.34816026688
      rotation: 
        x: -0.0316216275096
        y: -0.012106093578
        z: 0.943279802799
        w: -0.330267757177
---
transforms: 
  - 
    header: 
      seq: 0
      stamp: 
        secs: 1574453589
        nsecs: 515826000
      frame_id: "map"
    child_frame_id: "velodyne"
    transform: 
      translation: 
        x: -17.4050426483
        y: -337.6690979
        z: -3.29577112198
      rotation: 
        x: -0.0154139883816
        y: 0.0086213927716
        z: 0.88934725523
        w: -0.456891149282
---
transforms: 
  - 
    header: 
      seq: 0
      stamp: 
        secs: 1574453589
        nsecs: 923793000
      frame_id: "map"
    child_frame_id: "velodyne"
    transform: 
      translation: 
        x: -17.358297348
        y: -336.307128906
        z: -6.45744657516
      rotation: 
        x: -0.0250321496278
        y: -0.00670658564195
        z: 0.888923823833
        w: -0.457321345806
---
transforms: 
  - 
    header: 
      seq: 0
      stamp: 
        secs: 1574453590
        nsecs: 127821000
      frame_id: "map"
    child_frame_id: "velodyne"
    transform: 
      translation: 
        x: -17.8294677734
        y: -335.009765625
        z: -7.65546131134
      rotation: 
        x: -0.0197168793529
        y: -0.0165437441319
        z: 0.886678099632
        w: -0.461670339108
---
transforms: 
  - 
    header: 
      seq: 0
      stamp: 
        secs: 1574453590
        nsecs: 229803000
      frame_id: "map"
    child_frame_id: "velodyne"
    transform: 
      translation: 
        x: -21.4813537598
        y: -341.033935547
        z: -3.98853158951
      rotation: 
        x: -0.0151876397431
        y: 0.0122367329895
        z: 0.966969251633
        w: -0.254146009684
---
transforms: 
  - 
    header: 
      seq: 0
      stamp: 
        secs: 1574453590
        nsecs: 943788000
      frame_id: "map"
    child_frame_id: "velodyne"
    transform: 
      translation: 
        x: -21.9031028748
        y: -341.172210693
        z: -7.46132183075
      rotation: 
        x: -0.0367922186852
        y: -0.00784105435014
        z: 0.966507077217
        w: -0.253867983818
---
transforms: 
  - 
    header: 
      seq: 0
      stamp: 
        secs: 1574453591
        nsecs: 147808000
      frame_id: "map"
    child_frame_id: "velodyne"
    transform: 
      translation: 
        x: -24.6405830383
        y: -342.479553223
        z: -4.48097324371
      rotation: 
        x: -0.0128764146939
        y: 0.00289234425873
        z: 0.991048812866
        w: -0.132846146822
---
transforms: 
  - 
    header: 
      seq: 0
      stamp: 
        secs: 1574453591
        nsecs: 865498000
      frame_id: "map"
    child_frame_id: "velodyne"
    transform: 
      translation: 
        x: -24.9282646179
        y: -341.716247559
        z: -7.88443517685
      rotation: 
        x: -0.0235562436283
        y: -0.0026323418133
        z: 0.991784453392
        w: -0.125705331564
---
transforms: 
  - 
    header: 
      seq: 0
      stamp: 
        secs: 1574453592
        nsecs:  69331000
      frame_id: "map"
    child_frame_id: "velodyne"
    transform: 
      translation: 
        x: -28.1975669861
        y: -342.745941162
        z: -8.10884952545
      rotation: 
        x: -0.00439987005666
        y: 0.000665916420985
        z: 0.997485458851
        w: -0.0707323327661
---
transforms: 
  - 
    header: 
      seq: 0
      stamp: 
        secs: 1574453592
        nsecs: 167778000
      frame_id: "map"
    child_frame_id: "velodyne"
    transform: 
      translation: 
        x: -27.9840698242
        y: -343.513275146
        z: -8.2426109314
      rotation: 
        x: -0.0249476674944
        y: 0.00653121992946
        z: 0.999218940735
        w: -0.0299419965595
---
transforms: 
  - 
    header: 
      seq: 0
      stamp: 
        secs: 1574453592
        nsecs: 269797000
      frame_id: "map"
    child_frame_id: "velodyne"
    transform: 
      translation: 
        x: -28.3633995056
        y: -343.640930176
        z: -8.29250431061
      rotation: 
        x: -0.0155294500291
        y: 0.00736721418798
        z: 0.999219059944
        w: -0.0355786643922
---
transforms: 
  - 
    header: 
      seq: 0
      stamp: 
        secs: 1574453592
        nsecs: 371782000
      frame_id: "map"
    child_frame_id: "velodyne"
    transform: 
      translation: 
        x: -28.8794651031
        y: -343.677490234
        z: -8.23912525177
      rotation: 
        x: -0.020100036636
        y: 0.00545951537788
        z: 0.999305963516
        w: -0.0308835264295
---
transforms: 
  - 
    header: 
      seq: 0
      stamp: 
        secs: 1574453592
        nsecs: 473786000
      frame_id: "map"
    child_frame_id: "velodyne"
    transform: 
      translation: 
        x: -29.4380950928
        y: -343.72644043
        z: -8.14723873138
      rotation: 
        x: -0.0188343767077
        y: 0.0055556348525
        z: 0.999241292477
        w: -0.0336353033781
---
transforms: 
  - 
    header: 
      seq: 0
      stamp: 
        secs: 1574453592
        nsecs: 575781000
      frame_id: "map"
    child_frame_id: "velodyne"
    transform: 
      translation: 
        x: -29.8599624634
        y: -343.771118164
        z: -8.12590122223
      rotation: 
        x: -0.0219141282141
        y: 0.00204662024044
        z: 0.998904645443
        w: -0.0412935353816
---
transforms: 
  - 
    header: 
      seq: 0
      stamp: 
        secs: 1574453592
        nsecs: 677776000
      frame_id: "map"
    child_frame_id: "velodyne"
    transform: 
      translation: 
        x: -30.2933540344
        y: -343.786315918
        z: -8.17693138123
      rotation: 
        x: -0.0201035179198
        y: 0.00383325107396
        z: 0.998906075954
        w: -0.0420447811484
---
transforms: 
  - 
    header: 
      seq: 0
      stamp: 
        secs: 1574453592
        nsecs: 779776000
      frame_id: "map"
    child_frame_id: "velodyne"
    transform: 
      translation: 
        x: -30.762752533
        y: -343.826049805
        z: -8.18225669861
      rotation: 
        x: -0.0193059556186
        y: 0.00492797186598
        z: 0.99883043766
        w: -0.0440555624664
---
transforms: 
  - 
    header: 
      seq: 0
      stamp: 
        secs: 1574453592
        nsecs: 881787000
      frame_id: "map"
    child_frame_id: "velodyne"
    transform: 
      translation: 
        x: -31.2366657257
        y: -343.873535156
        z: -8.22972679138
      rotation: 
        x: -0.01812296547
        y: 0.00849429890513
        z: 0.998706400394
        w: -0.046744287014
---
transforms: 
  - 
    header: 
      seq: 0
      stamp: 
        secs: 1574453592
        nsecs: 983803000
      frame_id: "map"
    child_frame_id: "velodyne"
    transform: 
      translation: 
        x: -31.7595386505
        y: -343.932128906
        z: -8.27060031891
      rotation: 
        x: -0.0137046491727
        y: 0.00964501127601
        z: 0.998603105545
        w: -0.0501100718975
---
transforms: 
  - 
    header: 
      seq: 0
      stamp: 
        secs: 1574453593
        nsecs:  85795000
      frame_id: "map"
    child_frame_id: "velodyne"
    transform: 
      translation: 
        x: -32.2124252319
        y: -344.019500732
        z: -8.23328113556
      rotation: 
        x: -0.0144646922126
        y: 0.00624434649944
        z: 0.998565733433
        w: -0.0511704012752
---
transforms: 
  - 
    header: 
      seq: 0
      stamp: 
        secs: 1574453593
        nsecs: 187771000
      frame_id: "map"
    child_frame_id: "velodyne"
    transform: 
      translation: 
        x: -32.6713638306
        y: -344.098632812
        z: -8.23371982574
      rotation: 
        x: -0.0160663146526
        y: 0.0051136626862
        z: 0.998374998569
        w: -0.0544346496463
---
transforms: 
  - 
    header: 
      seq: 0
      stamp: 
        secs: 1574453593
        nsecs: 289803000
      frame_id: "map"
    child_frame_id: "velodyne"
    transform: 
      translation: 
        x: -33.144443512
        y: -344.156005859
        z: -8.17966365814
      rotation: 
        x: -0.0163652524352
        y: 0.00287745799869
        z: 0.998220741749
        w: -0.0572662092745
---
transforms: 
  - 
    header: 
      seq: 0
      stamp: 
        secs: 1574453593
        nsecs: 391800000
      frame_id: "map"
    child_frame_id: "velodyne"
    transform: 
      translation: 
        x: -33.6029205322
        y: -344.219665527
        z: -8.13430309296
      rotation: 
        x: -0.0170766655356
        y: 0.00275577954017
        z: 0.998099863529
        w: -0.0591397471726
---
transforms: 
  - 
    header: 
      seq: 0
      stamp: 
        secs: 1574453593
        nsecs: 493801000
      frame_id: "map"
    child_frame_id: "velodyne"
    transform: 
      translation: 
        x: -34.0736732483
        y: -344.278045654
        z: -8.166264534
      rotation: 
        x: -0.0178587529808
        y: 0.00549416290596
        z: 0.997879862785
        w: -0.0623435378075
---
transforms: 
  - 
    header: 
      seq: 0
      stamp: 
        secs: 1574453593
        nsecs: 595798000
      frame_id: "map"
    child_frame_id: "velodyne"
    transform: 
      translation: 
        x: -34.577495575
        y: -344.355255127
        z: -8.17016792297
      rotation: 
        x: -0.0167561490089
        y: 0.00424495851621
        z: 0.997721195221
        w: -0.0652203187346
---
transforms: 
  - 
    header: 
      seq: 0
      stamp: 
        secs: 1574453593
        nsecs: 697765000
      frame_id: "map"
    child_frame_id: "velodyne"
    transform: 
      translation: 
        x: -35.0345916748
        y: -344.436157227
        z: -8.1845998764
      rotation: 
        x: -0.0171790234745
        y: 0.00519592128694
        z: 0.997542142868
        w: -0.0677318200469
---
transforms: 
  - 
    header: 
      seq: 0
      stamp: 
        secs: 1574453593
        nsecs: 799795000
      frame_id: "map"
    child_frame_id: "velodyne"
    transform: 
      translation: 
        x: -35.5181655884
        y: -344.499206543
        z: -8.15414619446
      rotation: 
        x: -0.0162821244448
        y: 0.00407353043556
        z: 0.997312664986
        w: -0.0713144168258
---
transforms: 
  - 
    header: 
      seq: 0
      stamp: 
        secs: 1574453593
        nsecs: 901799000
      frame_id: "map"
    child_frame_id: "velodyne"
    transform: 
      translation: 
        x: -35.9849357605
        y: -344.573516846
        z: -8.17164897919
      rotation: 
