transforms: 
  - 
    header: 
      seq: 0
      stamp: 
        secs: 1574453718
        nsecs: 340812000
      frame_id: "map"
    child_frame_id: "velodyne"
    transform: 
      translation: 
        x: -289.473205566
        y: -290.826049805
        z: -7.611536026
      rotation: 
        x: -0.0110366214067
        y: -0.0319808125496
        z: 0.990274548531
        w: 0.134951069951
---
transforms: 
  - 
    header: 
      seq: 0
      stamp: 
        secs: 1574453718
        nsecs: 442824000
      frame_id: "map"
    child_frame_id: "velodyne"
    transform: 
      translation: 
        x: -289.973022461
        y: -290.747528076
        z: -7.6276512146
      rotation: 
        x: -0.0122465258464
        y: -0.03273781389
        z: 0.992495179176
        w: 0.117181956768
---
transforms: 
  - 
    header: 
      seq: 0
      stamp: 
        secs: 1574453718
        nsecs: 544807000
      frame_id: "map"
    child_frame_id: "velodyne"
    transform: 
      translation: 
        x: -290.529449463
        y: -290.660888672
        z: -7.64102506638
      rotation: 
        x: -0.011053679511
        y: -0.0302535872906
        z: 0.995279610157
        w: 0.0915482863784
---
transforms: 
  - 
    header: 
      seq: 0
      stamp: 
        secs: 1574453718
        nsecs: 646800000
      frame_id: "map"
    child_frame_id: "velodyne"
    transform: 
      translation: 
        x: -291.019561768
        y: -290.59185791
        z: -7.65533971786
      rotation: 
        x: -0.0143777132034
        y: -0.0371154621243
        z: 0.995302915573
        w: 0.0882497355342
---
transforms: 
  - 
    header: 
      seq: 0
      stamp: 
        secs: 1574453718
        nsecs: 748832000
      frame_id: "map"
    child_frame_id: "velodyne"
    transform: 
      translation: 
        x: -291.558898926
        y: -290.538238525
        z: -7.66790914536
      rotation: 
        x: -0.0156105048954
        y: -0.0357475578785
        z: 0.996736168861
        w: 0.0706788748503
---
transforms: 
  - 
    header: 
      seq: 0
      stamp: 
        secs: 1574453718
        nsecs: 850802000
      frame_id: "map"
    child_frame_id: "velodyne"
    transform: 
      translation: 
        x: -292.109527588
        y: -290.473937988
        z: -7.68584728241
      rotation: 
        x: -0.0168078057468
        y: -0.0366102457047
        z: 0.997442722321
        w: 0.0590359121561
---
transforms: 
  - 
    header: 
      seq: 0
      stamp: 
        secs: 1574453718
        nsecs: 952834000
      frame_id: "map"
    child_frame_id: "velodyne"
    transform: 
      translation: 
        x: -292.706237793
        y: -290.413909912
        z: -7.69913482666
      rotation: 
        x: -0.0171247459948
        y: -0.0371370501816
        z: 0.998062908649
        w: 0.0468834862113
---
transforms: 
  - 
    header: 
      seq: 0
      stamp: 
        secs: 1574453719
        nsecs:  54834000
      frame_id: "map"
    child_frame_id: "velodyne"
    transform: 
      translation: 
        x: -293.331268311
        y: -290.352111816
        z: -7.72017049789
      rotation: 
        x: -0.0181984435767
        y: -0.0375326648355
        z: 0.998492598534
        w: 0.0356751456857
---
transforms: 
  - 
    header: 
      seq: 0
      stamp: 
        secs: 1574453719
        nsecs: 156838000
      frame_id: "map"
    child_frame_id: "velodyne"
    transform: 
      translation: 
        x: -294.008392334
        y: -290.296600342
        z: -7.73916959763
      rotation: 
        x: -0.0179066620767
        y: -0.039214361459
        z: 0.99876087904
        w: 0.0248644463718
---
transforms: 
  - 
    header: 
      seq: 0
      stamp: 
        secs: 1574453719
        nsecs: 258831000
      frame_id: "map"
    child_frame_id: "velodyne"
    transform: 
      translation: 
        x: -294.626922607
        y: -290.284484863
        z: -7.7595243454
      rotation: 
        x: -0.0185741800815
        y: -0.0413979962468
        z: 0.998837947845
        w: 0.0162514988333
---
transforms: 
  - 
    header: 
      seq: 0
      stamp: 
        secs: 1574453719
        nsecs: 360840000
      frame_id: "map"
    child_frame_id: "velodyne"
    transform: 
      translation: 
        x: -295.257415771
        y: -290.289489746
        z: -7.79041290283
      rotation: 
        x: -0.019518809393
        y: -0.0417416542768
        z: 0.998904168606
        w: 0.00819236878306
---
transforms: 
  - 
    header: 
      seq: 0
      stamp: 
        secs: 1574453719
        nsecs: 462796000
      frame_id: "map"
    child_frame_id: "velodyne"
    transform: 
      translation: 
        x: -295.926361084
        y: -290.313598633
        z: -7.7979221344
      rotation: 
        x: -0.0210739970207
        y: -0.0412735193968
        z: 0.998925209045
        w: 0.000911442097276
---
transforms: 
  - 
    header: 
      seq: 0
      stamp: 
        secs: 1574453719
        nsecs: 564799000
      frame_id: "map"
    child_frame_id: "velodyne"
    transform: 
      translation: 
        x: -296.596069336
        y: -290.345825195
        z: -7.83197546005
      rotation: 
        x: -0.0222205892205
        y: -0.0415696687996
        z: 0.998871088028
        w: -0.00590277975425
---
transforms: 
  - 
    header: 
      seq: 0
      stamp: 
        secs: 1574453719
        nsecs: 666817000
      frame_id: "map"
    child_frame_id: "velodyne"
    transform: 
      translation: 
        x: -297.284820557
        y: -290.396759033
        z: -7.85789394379
      rotation: 
        x: -0.0231724716723
        y: -0.0421937517822
        z: 0.998765826225
        w: -0.0122343990952
---
transforms: 
  - 
    header: 
      seq: 0
      stamp: 
        secs: 1574453719
        nsecs: 768791000
      frame_id: "map"
    child_frame_id: "velodyne"
    transform: 
      translation: 
        x: -298.024932861
        y: -290.437194824
        z: -7.8897652626
      rotation: 
        x: -0.0233673378825
        y: -0.0423295013607
        z: 0.998688161373
        w: -0.0168567895889
---
transforms: 
  - 
    header: 
      seq: 0
      stamp: 
        secs: 1574453719
        nsecs: 870792000
      frame_id: "map"
    child_frame_id: "velodyne"
    transform: 
      translation: 
        x: -298.762145996
        y: -290.488739014
        z: -7.92800045013
      rotation: 
        x: -0.0202094092965
        y: -0.0360411517322
        z: 0.998974561691
        w: -0.0185087434947
---
transforms: 
  - 
    header: 
      seq: 0
      stamp: 
        secs: 1574453719
        nsecs: 972818000
      frame_id: "map"
    child_frame_id: "velodyne"
    transform: 
      translation: 
        x: -299.416168213
        y: -290.550048828
        z: -7.94784355164
      rotation: 
        x: -0.0244187321514
        y: -0.0429847612977
        z: 0.998385131359
        w: -0.0279852505773
---
transforms: 
  - 
    header: 
      seq: 0
      stamp: 
        secs: 1574453720
        nsecs:  74790000
      frame_id: "map"
    child_frame_id: "velodyne"
    transform: 
      translation: 
        x: -300.184753418
        y: -290.622314453
        z: -7.98293590546
      rotation: 
        x: -0.0208674874157
        y: -0.0356701686978
        z: 0.998805344105
        w: -0.0260776504874
---
transforms: 
  - 
    header: 
      seq: 0
      stamp: 
        secs: 1574453720
        nsecs: 176790000
      frame_id: "map"
    child_frame_id: "velodyne"
    transform: 
      translation: 
        x: -300.827423096
        y: -290.680206299
        z: -8.00476741791
      rotation: 
        x: -0.0257818903774
        y: -0.0427951328456
        z: 0.99811065197
        w: -0.0357626341283
---
transforms: 
  - 
    header: 
      seq: 0
      stamp: 
        secs: 1574453720
        nsecs: 278802000
      frame_id: "map"
    child_frame_id: "velodyne"
    transform: 
      translation: 
        x: -301.524139404
        y: -290.749389648
        z: -8.03993415833
      rotation: 
        x: -0.0243010465056
        y: -0.0385288596153
        z: 0.998277127743
        w: -0.0369848422706
---
transforms: 
  - 
    header: 
      seq: 0
      stamp: 
        secs: 1574453720
        nsecs: 380788000
      frame_id: "map"
    child_frame_id: "velodyne"
    transform: 
      translation: 
        x: -302.233459473
        y: -290.806091309
        z: -8.06942653656
      rotation: 
        x: -0.0256574545056
        y: -0.0389293320477
        z: 0.998101472855
        w: -0.0402454808354
---
transforms: 
  - 
    header: 
      seq: 0
      stamp: 
        secs: 1574453720
        nsecs: 482815000
      frame_id: "map"
    child_frame_id: "velodyne"
    transform: 
      translation: 
        x: -302.948181152
        y: -290.885772705
        z: -8.10176086426
      rotation: 
        x: -0.0262617599219
        y: -0.0359670445323
        z: 0.998070478439
        w: -0.0432675667107
---
transforms: 
  - 
    header: 
      seq: 0
      stamp: 
        secs: 1574453720
        nsecs: 584812000
      frame_id: "map"
    child_frame_id: "velodyne"
    transform: 
      translation: 
        x: -303.722320557
        y: -290.969970703
        z: -8.13837146759
      rotation: 
        x: -0.0232723709196
        y: -0.0301743783057
        z: 0.998488247395
        w: -0.0396119616926
---
transforms: 
  - 
    header: 
      seq: 0
      stamp: 
        secs: 1574453720
        nsecs: 686816000
      frame_id: "map"
    child_frame_id: "velodyne"
    transform: 
      translation: 
        x: -304.359466553
        y: -291.038421631
        z: -8.16739749908
      rotation: 
        x: -0.0289560519159
        y: -0.0351739116013
        z: 0.997704446316
        w: -0.0501021370292
---
transforms: 
  - 
    header: 
      seq: 0
      stamp: 
        secs: 1574453720
        nsecs: 788806000
      frame_id: "map"
    child_frame_id: "velodyne"
    transform: 
      translation: 
        x: -305.130889893
        y: -291.141021729
        z: -8.21420383453
      rotation: 
        x: -0.0238288138062
        y: -0.0292903650552
        z: 0.998355388641
        w: -0.0431380495429
---
transforms: 
  - 
    header: 
      seq: 0
      stamp: 
        secs: 1574453720
        nsecs: 890800000
      frame_id: "map"
    child_frame_id: "velodyne"
    transform: 
      translation: 
        x: -305.813781738
        y: -291.222076416
        z: -8.26550102234
      rotation: 
        x: -0.0279687680304
        y: -0.0341221056879
        z: 0.99759799242
        w: -0.0534016005695
---
transforms: 
  - 
    header: 
      seq: 0
      stamp: 
        secs: 1574453720
        nsecs: 992829000
      frame_id: "map"
    child_frame_id: "velodyne"
    transform: 
      translation: 
        x: -306.518463135
        y: -291.321472168
        z: -8.27833366394
      rotation: 
        x: -0.025565976277
        y: -0.0313485041261
        z: 0.997829794884
        w: -0.051955036819
---
transforms: 
  - 
    header: 
      seq: 0
      stamp: 
        secs: 1574453721
        nsecs:  94818000
      frame_id: "map"
    child_frame_id: "velodyne"
    transform: 
      translation: 
        x: -307.247894287
        y: -291.413543701
        z: -8.32023620605
      rotation: 
        x: -0.0245022121817
        y: -0.0307992715389
        z: 0.997780025005
        w: -0.0537227652967
---
transforms: 
  - 
    header: 
      seq: 0
      stamp: 
        secs: 1574453721
        nsecs: 196785000
      frame_id: "map"
    child_frame_id: "velodyne"
    transform: 
      translation: 
        x: -307.973175049
        y: -291.49520874
        z: -8.35646820068
      rotation: 
        x: -0.0244599636644
        y: -0.0293512884527
        z: 0.997797071934
        w: -0.0542337186635
---
transforms: 
  - 
    header: 
      seq: 0
      stamp: 
        secs: 1574453721
        nsecs: 298816000
      frame_id: "map"
    child_frame_id: "velodyne"
    transform: 
      translation: 
        x: -308.707733154
        y: -291.594604492
        z: -8.38495254517
      rotation: 
        x: -0.0249253939837
        y: -0.0288617387414
        z: 0.997720003128
        w: -0.0556830950081
---
transforms: 
  - 
    header: 
      seq: 0
      stamp: 
        secs: 1574453721
        nsecs: 400813000
      frame_id: "map"
    child_frame_id: "velodyne"
    transform: 
      translation: 
        x: -309.4737854
        y: -291.708953857
        z: -8.43358421326
      rotation: 
        x: -0.0247195661068
        y: -0.0289971213788
        z: 0.997694194317
        w: -0.0561645366251
---
transforms: 
  - 
    header: 
      seq: 0
      stamp: 
        secs: 1574453721
        nsecs: 502805000
      frame_id: "map"
    child_frame_id: "velodyne"
    transform: 
      translation: 
        x: -310.27722168
        y: -291.827819824
        z: -8.43627166748
      rotation: 
        x: -0.0202211495489
        y: -0.0259101334959
        z: 0.998252987862
        w: -0.0491002239287
---
transforms: 
  - 
    header: 
      seq: 0
      stamp: 
        secs: 1574453721
        nsecs: 604810000
      frame_id: "map"
    child_frame_id: "velodyne"
    transform: 
      translation: 
        x: -310.984893799
        y: -291.923095703
        z: -8.48554229736
      rotation: 
        x: -0.0222595855594
        y: -0.0316981188953
        z: 0.997480273247
        w: -0.0594381168485
---
transforms: 
  - 
    header: 
      seq: 0
      stamp: 
        secs: 1574453721
        nsecs: 706818000
      frame_id: "map"
    child_frame_id: "velodyne"
    transform: 
      translation: 
        x: -311.758270264
        y: -292.026702881
        z: -8.51585960388
      rotation: 
        x: -0.0210568495095
        y: -0.027800206095
        z: 0.997797310352
        w: -0.0564297661185
---
transforms: 
  - 
    header: 
      seq: 0
      stamp: 
        secs: 1574453721
        nsecs: 808807000
      frame_id: "map"
    child_frame_id: "velodyne"
    transform: 
      translation: 
        x: -312.548980713
        y: -292.130523682
        z: -8.54541683197
      rotation: 
        x: -0.0234119612724
        y: -0.0263729523867
        z: 0.99772721529
        w: -0.0574185401201
---
transforms: 
  - 
    header: 
      seq: 0
      stamp: 
        secs: 1574453721
        nsecs: 910819000
      frame_id: "map"
    child_frame_id: "velodyne"
    transform: 
      translation: 
        x: -313.351531982
        y: -292.229888916
        z: -8.59379482269
      rotation: 
        x: -0.0249833557755
        y: -0.0266115572304
        z: 0.997714817524
        w: -0.0568580664694
---
transforms: 
  - 
    header: 
      seq: 0
      stamp: 
        secs: 1574453722
        nsecs:  12810000
      frame_id: "map"
    child_frame_id: "velodyne"
    transform: 
      translation: 
        x: -314.22277832
        y: -292.346710205
        z: -8.60203075409
      rotation: 
        x: -0.0222952477634
        y: -0.022472884506
        z: 0.998267054558
        w: -0.049607116729
---
transforms: 
  - 
    header: 
      seq: 0
      stamp: 
        secs: 1574453722
        nsecs: 114808000
      frame_id: "map"
    child_frame_id: "velodyne"
    transform: 
      translation: 
        x: -314.93081665
        y: -292.43637085
        z: -8.63088798523
      rotation: 
        x: -0.0261223986745
        y: -0.026155333966
        z: 0.997551560402
        w: -0.0593665465713
---
transforms: 
  - 
    header: 
      seq: 0
      stamp: 
        secs: 1574453722
        nsecs: 216796000
      frame_id: "map"
    child_frame_id: "velodyne"
    transform: 
      translation: 
        x: -315.798309326
        y: -292.561004639
        z: -8.66387367249
      rotation: 
        x: -0.0210878364742
        y: -0.0198727864772
        z: 0.998340606689
        w: -0.0497641563416
---
transforms: 
  - 
    header: 
      seq: 0
      stamp: 
        secs: 1574453722
        nsecs: 318820000
      frame_id: "map"
    child_frame_id: "velodyne"
    transform: 
      translation: 
        x: -316.566558838
        y: -292.663238525
        z: -8.68734455109
      rotation: 
        x: -0.0238796621561
        y: -0.0209607686847
        z: 0.997730910778
        w: -0.059359408915
---
transforms: 
  - 
    header: 
      seq: 0
      stamp: 
        secs: 1574453722
        nsecs: 420776000
      frame_id: "map"
    child_frame_id: "velodyne"
    transform: 
      translation: 
        x: -317.361297607
        y: -292.772644043
        z: -8.7349729538
      rotation: 
        x: -0.0216021127999
        y: -0.0207980275154
        z: 0.997971355915
        w: -0.0561600029469
---
transforms: 
  - 
    header: 
      seq: 0
      stamp: 
        secs: 1574453722
        nsecs: 522807000
      frame_id: "map"
    child_frame_id: "velodyne"
    transform: 
      translation: 
        x: -318.204956055
        y: -292.89074707
        z: -8.75950431824
      rotation: 
        x: -0.0187387764454
        y: -0.0188106074929
        z: 0.998436152935
        w: -0.0491961203516
---
transforms: 
  - 
    header: 
      seq: 0
      stamp: 
        secs: 1574453722
        nsecs: 624803000
      frame_id: "map"
    child_frame_id: "velodyne"
    transform: 
      translation: 
        x: -319.002502441
        y: -292.996368408
        z: -8.801612854
      rotation: 
        x: -0.0184071641415
        y: -0.0190675910562
        z: 0.998471021652
        w: -0.0485110133886
---
transforms: 
  - 
    header: 
      seq: 0
      stamp: 
        secs: 1574453722
        nsecs: 726802000
      frame_id: "map"
    child_frame_id: "velodyne"
    transform: 
      translation: 
        x: -319.73651123
        y: -293.091369629
        z: -8.83508205414
      rotation: 
        x: -0.0221250075847
        y: -0.0236963480711
        z: 0.997805714607
        w: -0.0577307641506
---
transforms: 
  - 
    header: 
      seq: 0
      stamp: 
        secs: 1574453722
        nsecs: 828771000
      frame_id: "map"
    child_frame_id: "velodyne"
    transform: 
      translation: 
        x: -320.515655518
        y: -293.197174072
        z: -8.85214519501
      rotation: 
        x: -0.022331405431
        y: -0.0223610606045
        z: 0.998041391373
        w: -0.0539880394936
---
transforms: 
  - 
    header: 
      seq: 0
      stamp: 
        secs: 1574453722
        nsecs: 930798000
      frame_id: "map"
    child_frame_id: "velodyne"
    transform: 
      translation: 
        x: -321.321044922
        y: -293.297790527
        z: -8.89518356323
      rotation: 
        x: -0.0236981343478
        y: -0.0224244818091
        z: 0.998032510281
        w: -0.0535411722958
---
transforms: 
  - 
    header: 
      seq: 0
      stamp: 
        secs: 1574453723
        nsecs:  32782000
      frame_id: "map"
    child_frame_id: "velodyne"
    transform: 
      translation: 
        x: -322.16998291
        y: -293.406280518
        z: -8.92692089081
      rotation: 
        x: -0.0214105974883
        y: -0.019621187821
        z: 0.998506546021
        w: -0.0462740659714
---
transforms: 
  - 
    header: 
      seq: 0
      stamp: 
        secs: 1574453723
        nsecs: 134783000
      frame_id: "map"
    child_frame_id: "velodyne"
    transform: 
      translation: 
        x: -322.95892334
        y: -293.509613037
        z: -8.96373081207
      rotation: 
        x: -0.0224390551448
        y: -0.0204178299755
        z: 0.998506724834
        w: -0.0454302579165
---
transforms: 
  - 
    header: 
      seq: 0
      stamp: 
        secs: 1574453723
        nsecs: 236768000
      frame_id: "map"
    child_frame_id: "velodyne"
    transform: 
      translation: 
        x: -323.685699463
        y: -293.598144531
        z: -9.00154018402
      rotation: 
        x: -0.0282227415591
        y: -0.0261392835528
        z: 0.997835993767
        w: -0.0533255673945
---
transforms: 
  - 
    header: 
      seq: 0
      stamp: 
        secs: 1574453723
        nsecs: 338782000
      frame_id: "map"
    child_frame_id: "velodyne"
    transform: 
      translation: 
        x: -324.489379883
        y: -293.697906494
        z: -9.02608585358
      rotation: 
        x: -0.0269978437573
        y: -0.0246403235942
        z: 0.998088419437
        w: -0.0498359501362
---
transforms: 
  - 
    header: 
      seq: 0
      stamp: 
        secs: 1574453723
        nsecs: 440764000
      frame_id: "map"
    child_frame_id: "velodyne"
    transform: 
      translation: 
        x: -325.314575195
        y: -293.802062988
        z: -9.06613826752
      rotation: 
        x: -0.0274378675967
        y: -0.0263741128147
        z: 0.998024523258
        w: -0.0499876849353
---
transforms: 
  - 
    header: 
      seq: 0
      stamp: 
        secs: 1574453723
        nsecs: 542766000
      frame_id: "map"
    child_frame_id: "velodyne"
    transform: 
      translation: 
        x: -326.138122559
        y: -293.904388428
        z: -9.10806179047
      rotation: 
        x: -0.02752587758
        y: -0.0275592189282
        z: 0.99806112051
        w: -0.0485478304327
---
transforms: 
  - 
    header: 
      seq: 0
      stamp: 
        secs: 1574453723
        nsecs: 644791000
      frame_id: "map"
    child_frame_id: "velodyne"
    transform: 
      translation: 
        x: -326.954193115
        y: -293.99911499
        z: -9.15071678162
      rotation: 
        x: -0.0282220430672
        y: -0.0278980880976
        z: 0.998033881187
        w: -0.0485146194696
---
transforms: 
  - 
    header: 
      seq: 0
      stamp: 
        secs: 1574453723
        nsecs: 746789000
      frame_id: "map"
    child_frame_id: "velodyne"
    transform: 
      translation: 
        x: -327.853637695
        y: -294.110412598
        z: -9.22728538513
      rotation: 
        x: -0.0252725686878
        y: -0.0251274369657
        z: 0.99848139286
        w: -0.0420102588832
---
transforms: 
  - 
    header: 
      seq: 0
      stamp: 
        secs: 1574453723
        nsecs: 848774000
      frame_id: "map"
    child_frame_id: "velodyne"
    transform: 
      translation: 
        x: -328.582397461
        y: -294.180480957
        z: -9.21739006042
      rotation: 
        x: -0.0323572792113
        y: -0.0213990062475
        z: 0.998027920723
        w: -0.0493493415415
---
transforms: 
  - 
    header: 
      seq: 0
      stamp: 
        secs: 1574453723
        nsecs: 950788000
      frame_id: "map"
    child_frame_id: "velodyne"
    transform: 
      translation: 
        x: -329.402923584
        y: -294.263061523
        z: -9.30162143707
      rotation: 
        x: -0.0316653624177
        y: -0.0194077026099
        z: 0.998197972775
        w: -0.0471337139606
---
transforms: 
  - 
    header: 
      seq: 0
      stamp: 
        secs: 1574453724
        nsecs:  52786000
      frame_id: "map"
    child_frame_id: "velodyne"
    transform: 
      translation: 
        x: -330.235290527
        y: -294.356018066
        z: -9.28613090515
      rotation: 
        x: -0.0325129181147
        y: -0.0204290188849
        z: 0.998107731342
        w: -0.0480269268155
---
transforms: 
  - 
    header: 
      seq: 0
      stamp: 
        secs: 1574453724
        nsecs: 154757000
      frame_id: "map"
    child_frame_id: "velodyne"
    transform: 
      translation: 
        x: -331.035308838
        y: -294.463653564
        z: -9.33758735657
      rotation: 
        x: -0.0300682336092
        y: -0.0182772260159
        z: 0.99823230505
        w: -0.0478971637785
---
transforms: 
  - 
    header: 
      seq: 0
      stamp: 
        secs: 1574453724
        nsecs: 256786000
      frame_id: "map"
    child_frame_id: "velodyne"
    transform: 
      translation: 
        x: -331.931030273
        y: -294.55847168
        z: -9.41199684143
      rotation: 
        x: -0.0240015722811
        y: -0.0150798670948
        z: 0.998683691025
        w: -0.0427475012839
---
transforms: 
  - 
    header: 
      seq: 0
      stamp: 
        secs: 1574453724
        nsecs: 358786000
      frame_id: "map"
    child_frame_id: "velodyne"
    transform: 
      translation: 
        x: -332.682281494
        y: -294.628143311
        z: -9.38486862183
      rotation: 
        x: -0.0264513771981
        y: -0.0178601928055
        z: 0.998140513897
        w: -0.0519313849509
---
transforms: 
  - 
    header: 
      seq: 0
      stamp: 
        secs: 1574453724
        nsecs: 460772000
      frame_id: "map"
    child_frame_id: "velodyne"
    transform: 
      translation: 
        x: -333.51940918
        y: -294.731658936
        z: -9.42273426056
      rotation: 
        x: -0.0241804532707
        y: -0.0173679795116
        z: 0.998319983482
        w: -0.049707531929
---
transforms: 
  - 
    header: 
      seq: 0
      stamp: 
        secs: 1574453724
        nsecs: 562765000
      frame_id: "map"
    child_frame_id: "velodyne"
    transform: 
      translation: 
        x: -334.417541504
        y: -294.850860596
        z: -9.47707366943
      rotation: 
        x: -0.0220727007836
        y: -0.0174452345818
        z: 0.998607456684
        w: -0.0446278378367
---
transforms: 
  - 
    header: 
      seq: 0
      stamp: 
        secs: 1574453724
        nsecs: 664783000
      frame_id: "map"
    child_frame_id: "velodyne"
    transform: 
      translation: 
        x: -335.229278564
        y: -294.949005127
        z: -9.48581790924
      rotation: 
        x: -0.0232607461512
        y: -0.0173604935408
        z: 0.998563289642
        w: -0.0450426898897
---
transforms: 
  - 
    header: 
      seq: 0
      stamp: 
        secs: 1574453724
        nsecs: 766788000
      frame_id: "map"
    child_frame_id: "velodyne"
    transform: 
      translation: 
        x: -336.071929932
        y: -295.047149658
        z: -9.53293704987
      rotation: 
        x: -0.0239312574267
        y: -0.0160039048642
        z: 0.998556554317
        w: -0.0453438386321
---
transforms: 
  - 
    header: 
      seq: 0
      stamp: 
        secs: 1574453724
        nsecs: 868754000
      frame_id: "map"
    child_frame_id: "velodyne"
    transform: 
      translation: 
        x: -336.860595703
        y: -295.137512207
        z: -9.59084033966
      rotation: 
        x: -0.0308352056891
        y: -0.0166299697012
        z: 0.997883081436
        w: -0.05479016155
---
transforms: 
  - 
    header: 
      seq: 0
      stamp: 
        secs: 1574453724
        nsecs: 970794000
      frame_id: "map"
    child_frame_id: "velodyne"
    transform: 
      translation: 
        x: -337.797027588
        y: -295.258209229
        z: -9.60645198822
      rotation: 
        x: -0.030958533287
        y: -0.0176395960152
        z: 0.998004972935
        w: -0.0521203801036
---
transforms: 
  - 
    header: 
      seq: 0
      stamp: 
        secs: 1574453725
        nsecs:  72793000
      frame_id: "map"
    child_frame_id: "velodyne"
    transform: 
      translation: 
        x: -338.758911133
        y: -295.352264404
        z: -9.6443195343
      rotation: 
        x: -0.0345745794475
        y: -0.0119521394372
        z: 0.997937500477
        w: -0.0527506619692
---
transforms: 
  - 
    header: 
      seq: 0
      stamp: 
        secs: 1574453725
        nsecs: 174798000
      frame_id: "map"
    child_frame_id: "velodyne"
    transform: 
      translation: 
        x: -339.664123535
        y: -295.46282959
        z: -9.71267795563
      rotation: 
        x: -0.0291149914265
        y: -0.0102761918679
        z: 0.998470187187
        w: -0.0458706729114
---
transforms: 
  - 
    header: 
      seq: 0
      stamp: 
        secs: 1574453725
        nsecs: 276781000
      frame_id: "map"
    child_frame_id: "velodyne"
    transform: 
      translation: 
        x: -340.440185547
        y: -295.564941406
        z: -9.8324098587
      rotation: 
        x: -0.0253131147474
        y: -0.00993190705776
        z: 0.998589217663
        w: -0.045610062778
---
transforms: 
  - 
    header: 
      seq: 0
      stamp: 
        secs: 1574453725
        nsecs: 378774000
      frame_id: "map"
    child_frame_id: "velodyne"
    transform: 
      translation: 
        x: -341.172210693
        y: -295.638397217
        z: -9.83931446075
      rotation: 
        x: -0.0237848777324
        y: -0.0131866233423
        z: 0.998062491417
        w: -0.0559613071382
---
transforms: 
  - 
    header: 
      seq: 0
      stamp: 
        secs: 1574453725
        nsecs: 480780000
      frame_id: "map"
    child_frame_id: "velodyne"
    transform: 
      translation: 
        x: -342.041473389
        y: -295.771972656
        z: -9.84856414795
      rotation: 
        x: -0.0171901099384
        y: -0.00859935302287
        z: 0.998699426651
        w: -0.047223739326
---
transforms: 
  - 
    header: 
      seq: 0
      stamp: 
        secs: 1574453725
        nsecs: 582781000
      frame_id: "map"
    child_frame_id: "velodyne"
    transform: 
      translation: 
        x: -342.779724121
        y: -295.869903564
        z: -9.8638677597
      rotation: 
        x: -0.025022694841
        y: -0.00818570982665
        z: 0.998020708561
        w: -0.0571093447506
---
transforms: 
  - 
    header: 
      seq: 0
      stamp: 
        secs: 1574453725
        nsecs: 684778000
      frame_id: "map"
    child_frame_id: "velodyne"
    transform: 
      translation: 
        x: -343.558166504
        y: -295.966644287
        z: -9.88020038605
      rotation: 
        x: -0.0294112060219
        y: -0.00856971461326
        z: 0.99803352356
        w: -0.0546865463257
---
transforms: 
  - 
    header: 
      seq: 0
      stamp: 
        secs: 1574453725
        nsecs: 786778000
      frame_id: "map"
    child_frame_id: "velodyne"
    transform: 
      translation: 
        x: -344.358673096
        y: -296.074707031
        z: -9.90988349915
      rotation: 
        x: -0.0301489252597
        y: -0.00934503693134
        z: 0.997923195362
        w: -0.0561523064971
---
transforms: 
  - 
    header: 
      seq: 0
      stamp: 
        secs: 1574453725
        nsecs: 888775000
      frame_id: "map"
    child_frame_id: "velodyne"
    transform: 
      translation: 
        x: -345.121490479
        y: -296.171234131
        z: -9.98828887939
      rotation: 
        x: -0.0307016894221
        y: -0.00956548098475
        z: 0.997865498066
        w: -0.0568369589746
---
transforms: 
  - 
    header: 
      seq: 0
      stamp: 
        secs: 1574453725
        nsecs: 990772000
      frame_id: "map"
    child_frame_id: "velodyne"
    transform: 
      translation: 
        x: -345.855926514
        y: -296.260345459
        z: -10.0135879517
      rotation: 
        x: -0.0294135790318
        y: -0.00965417083353
        z: 0.997813940048
        w: -0.0583873875439
---
transforms: 
  - 
    header: 
      seq: 0
      stamp: 
        secs: 1574453726
        nsecs:  92758000
      frame_id: "map"
    child_frame_id: "velodyne"
    transform: 
      translation: 
        x: -346.618041992
        y: -296.362731934
        z: -10.034614563
      rotation: 
        x: -0.0284835193306
        y: -0.00945177394897
        z: 0.997726857662
        w: -0.0603364147246
---
transforms: 
  - 
    header: 
      seq: 0
      stamp: 
        secs: 1574453726
        nsecs: 194793000
      frame_id: "map"
    child_frame_id: "velodyne"
    transform: 
      translation: 
        x: -347.372344971
        y: -296.476104736
        z: -10.0647735596
      rotation: 
        x: -0.0289712119848
        y: -0.0102946599945
        z: 0.997586548328
        w: -0.0622561424971
---
transforms: 
  - 
    header: 
      seq: 0
      stamp: 
        secs: 1574453726
        nsecs: 296774000
      frame_id: "map"
    child_frame_id: "velodyne"
    transform: 
      translation: 
        x: -348.123535156
        y: -296.600067139
        z: -10.0968122482
      rotation: 
        x: -0.0298712532967
        y: -0.0109296618029
        z: 0.997449696064
        w: -0.063893713057
---
transforms: 
  - 
    header: 
      seq: 0
      stamp: 
        secs: 1574453726
        nsecs: 398768000
      frame_id: "map"
    child_frame_id: "velodyne"
    transform: 
      translation: 
        x: -348.867797852
        y: -296.716156006
        z: -10.1411132812
      rotation: 
        x: -0.0304499808699
        y: -0.0106046264991
        z: 0.997319281101
        w: -0.0656853765249
---
transforms: 
  - 
    header: 
      seq: 0
      stamp: 
        secs: 1574453726
        nsecs: 500741000
      frame_id: "map"
    child_frame_id: "velodyne"
    transform: 
      translation: 
        x: -349.629455566
        y: -296.841125488
        z: -10.1751937866
      rotation: 
        x: -0.0325430892408
        y: -0.0101798381656
        z: 0.997143745422
        w: -0.0673924908042
---
transforms: 
  - 
    header: 
      seq: 0
      stamp: 
        secs: 1574453726
        nsecs: 602767000
      frame_id: "map"
    child_frame_id: "velodyne"
    transform: 
      translation: 
        x: -350.404815674
        y: -296.979064941
        z: -10.2270050049
      rotation: 
        x: -0.028111256659
        y: -0.0096775945276
        z: 0.997797191143
        w: -0.0593033730984
---
transforms: 
  - 
    header: 
      seq: 0
      stamp: 
        secs: 1574453726
        nsecs: 704781000
      frame_id: "map"
    child_frame_id: "velodyne"
    transform: 
      translation: 
        x: -351.147094727
        y: -297.096160889
        z: -10.258562088
      rotation: 
        x: -0.0285056568682
        y: -0.00945651251823
        z: 0.997694909573
        w: -0.060851637274
---
transforms: 
  - 
    header: 
      seq: 0
      stamp: 
        secs: 1574453726
        nsecs: 806771000
      frame_id: "map"
    child_frame_id: "velodyne"
    transform: 
      translation: 
        x: -351.839019775
        y: -297.199584961
        z: -10.2888860703
      rotation: 
        x: -0.0291667003185
        y: -0.0104114022106
        z: 0.997621953487
        w: -0.0615741051733
---
transforms: 
  - 
    header: 
      seq: 0
      stamp: 
        secs: 1574453726
        nsecs: 908772000
      frame_id: "map"
    child_frame_id: "velodyne"
    transform: 
      translation: 
        x: -352.465881348
        y: -297.307373047
        z: -10.3171596527
      rotation: 
        x: -0.0330851450562
        y: -0.0135203506798
        z: 0.996636390686
        w: -0.0737460255623
---
transforms: 
  - 
    header: 
      seq: 0
      stamp: 
        secs: 1574453727
        nsecs:  10740000
      frame_id: "map"
    child_frame_id: "velodyne"
    transform: 
      translation: 
        x: -353.188568115
        y: -297.431427002
        z: -10.3169574738
      rotation: 
        x: -0.0311962552369
        y: -0.0149476388469
        z: 0.996865570545
        w: -0.0711499452591
---
transforms: 
  - 
    header: 
      seq: 0
      stamp: 
        secs: 1574453727
        nsecs: 112770000
      frame_id: "map"
    child_frame_id: "velodyne"
    transform: 
      translation: 
        x: -353.854217529
        y: -297.530853271
        z: -10.3894815445
      rotation: 
        x: -0.03270335868
        y: -0.0141296265647
        z: 0.996804833412
        w: -0.0714917108417
---
transforms: 
  - 
    header: 
      seq: 0
      stamp: 
        secs: 1574453727
        nsecs: 214765000
      frame_id: "map"
    child_frame_id: "velodyne"
    transform: 
      translation: 
        x: -354.537384033
        y: -297.640991211
        z: -10.4164476395
      rotation: 
        x: -0.0325418710709
        y: -0.0140540003777
        z: 0.996805906296
        w: -0.0715650692582
---
transforms: 
  - 
    header: 
      seq: 0
      stamp: 
        secs: 1574453727
        nsecs: 316763000
      frame_id: "map"
    child_frame_id: "velodyne"
    transform: 
      translation: 
        x: -355.193908691
        y: -297.737731934
        z: -10.44227314
      rotation: 
        x: -0.0330865569413
        y: -0.0135621586815
        z: 0.99682956934
        w: -0.0710791274905
---
transforms: 
  - 
    header: 
      seq: 0
      stamp: 
        secs: 1574453727
        nsecs: 418745000
      frame_id: "map"
    child_frame_id: "velodyne"
    transform: 
      translation: 
        x: -355.893920898
        y: -297.849975586
        z: -10.4863491058
      rotation: 
        x: -0.0280456002802
        y: -0.0112616783008
        z: 0.997632324696
        w: -0.0617768764496
---
transforms: 
  - 
    header: 
      seq: 0
      stamp: 
        secs: 1574453727
        nsecs: 520747000
      frame_id: "map"
    child_frame_id: "velodyne"
    transform: 
      translation: 
        x: -356.472808838
        y: -297.950469971
        z: -10.5012102127
      rotation: 
        x: -0.032664552331
        y: -0.0129720447585
        z: 0.996747970581
        w: -0.0725145116448
---
transforms: 
  - 
    header: 
      seq: 0
      stamp: 
        secs: 1574453727
        nsecs: 622733000
      frame_id: "map"
    child_frame_id: "velodyne"
    transform: 
      translation: 
        x: -357.092010498
        y: -298.038146973
        z: -10.5378303528
      rotation: 
        x: -0.030362104997
        y: -0.0127361845225
        z: 0.997083306313
        w: -0.0688536018133
---
transforms: 
  - 
    header: 
      seq: 0
      stamp: 
        secs: 1574453727
        nsecs: 724765000
      frame_id: "map"
    child_frame_id: "velodyne"
    transform: 
      translation: 
        x: -357.671600342
        y: -298.114135742
        z: -10.5539569855
      rotation: 
        x: -0.0309908967465
        y: -0.0123981889337
        z: 0.997064113617
        w: -0.0689135044813
---
transforms: 
  - 
    header: 
      seq: 0
      stamp: 
        secs: 1574453727
        nsecs: 826739000
      frame_id: "map"
    child_frame_id: "velodyne"
    transform: 
      translation: 
        x: -358.281402588
        y: -298.214050293
        z: -10.5837888718
      rotation: 
        x: -0.0312865525484
        y: -0.0118228159845
        z: 0.997080147266
        w: -0.0686480924487
---
transforms: 
  - 
    header: 
      seq: 0
      stamp: 
        secs: 1574453727
        nsecs: 928764000
      frame_id: "map"
    child_frame_id: "velodyne"
    transform: 
      translation: 
        x: -358.880126953
        y: -298.308807373
        z: -10.6012096405
      rotation: 
        x: -0.0313219949603
        y: -0.0122571997344
        z: 0.997091889381
        w: -0.0683854147792
---
transforms: 
  - 
    header: 
      seq: 0
      stamp: 
        secs: 1574453728
        nsecs:  30755000
      frame_id: "map"
    child_frame_id: "velodyne"
    transform: 
      translation: 
        x: -359.476165771
        y: -298.400756836
        z: -10.6387081146
      rotation: 
        x: -0.0315247811377
        y: -0.011632502079
        z: 0.997130095959
        w: -0.0678416341543
---
transforms: 
  - 
    header: 
      seq: 0
      stamp: 
        secs: 1574453728
        nsecs: 132757000
      frame_id: "map"
    child_frame_id: "velodyne"
    transform: 
      translation: 
        x: -360.068389893
        y: -298.495269775
        z: -10.6583242416
      rotation: 
        x: -0.0273115597665
        y: -0.0109872100875
        z: 0.997834742069
        w: -0.0588162355125
---
transforms: 
  - 
    header: 
      seq: 0
      stamp: 
        secs: 1574453728
        nsecs: 234747000
      frame_id: "map"
    child_frame_id: "velodyne"
    transform: 
      translation: 
        x: -360.569763184
        y: -298.568878174
        z: -10.6928005219
      rotation: 
        x: -0.0326452739537
        y: -0.012844610028
        z: 0.996973395348
        w: -0.0693779438734
---
transforms: 
  - 
    header: 
      seq: 0
      stamp: 
        secs: 1574453728
        nsecs: 336738000
      frame_id: "map"
    child_frame_id: "velodyne"
    transform: 
      translation: 
        x: -361.089447021
        y: -298.646209717
        z: -10.7165412903
      rotation: 
        x: -0.031517457217
        y: -0.0109842503443
        z: 0.997308015823
        w: -0.0652892664075
---
transforms: 
  - 
    header: 
      seq: 0
      stamp: 
        secs: 1574453728
        nsecs: 438730000
      frame_id: "map"
    child_frame_id: "velodyne"
    transform: 
      translation: 
        x: -361.67956543
        y: -298.730682373
        z: -10.7523326874
      rotation: 
        x: -0.0278355330229
        y: -0.00944745074958
        z: 0.997928678989
        w: -0.057221326977
---
transforms: 
  - 
    header: 
      seq: 0
      stamp: 
        secs: 1574453728
        nsecs: 540740000
      frame_id: "map"
    child_frame_id: "velodyne"
    transform: 
      translation: 
        x: -362.176055908
        y: -298.809631348
        z: -10.7732810974
      rotation: 
        x: -0.0328901819885
        y: -0.0103086791933
        z: 0.997132480145
        w: -0.0673705860972
---
transforms: 
  - 
    header: 
      seq: 0
      stamp: 
        secs: 1574453728
        nsecs: 642743000
      frame_id: "map"
    child_frame_id: "velodyne"
    transform: 
      translation: 
        x: -362.708679199
        y: -298.891052246
        z: -10.7806081772
      rotation: 
        x: -0.0308731105179
        y: -0.0108823757619
        z: 0.997422099113
        w: -0.0638560578227
---
transforms: 
  - 
    header: 
      seq: 0
      stamp: 
        secs: 1574453728
        nsecs: 744725000
      frame_id: "map"
    child_frame_id: "velodyne"
    transform: 
      translation: 
        x: -363.216888428
        y: -298.967651367
        z: -10.8104658127
      rotation: 
        x: -0.0317908339202
        y: -0.00863195210695
        z: 0.997420430183
        w: -0.0637753009796
---
transforms: 
  - 
    header: 
      seq: 0
      stamp: 
        secs: 1574453728
        nsecs: 846723000
      frame_id: "map"
    child_frame_id: "velodyne"
    transform: 
      translation: 
        x: -363.726776123
        y: -299.032897949
        z: -10.8578205109
      rotation: 
        x: -0.0329390242696
        y: -0.00904608797282
        z: 0.997429609299
        w: -0.0629870966077
---
transforms: 
  - 
    header: 
      seq: 0
      stamp: 
        secs: 1574453728
        nsecs: 948756000
      frame_id: "map"
    child_frame_id: "velodyne"
    transform: 
      translation: 
        x: -364.193023682
        y: -299.093597412
        z: -10.8605632782
      rotation: 
        x: -0.0353128612041
        y: -0.00984777417034
        z: 0.997399568558
        w: -0.0620503313839
---
transforms: 
  - 
    header: 
      seq: 0
      stamp: 
        secs: 1574453729
        nsecs:  50752000
      frame_id: "map"
    child_frame_id: "velodyne"
    transform: 
      translation: 
        x: -364.677246094
        y: -299.162078857
        z: -10.878364563
      rotation: 
        x: -0.0368521548808
        y: -0.00962937902659
        z: 0.997365295887
        w: -0.0617390647531
---
transforms: 
  - 
    header: 
      seq: 0
      stamp: 
        secs: 1574453729
        nsecs: 152725000
      frame_id: "map"
    child_frame_id: "velodyne"
    transform: 
      translation: 
        x: -365.162139893
        y: -299.226898193
        z: -10.8994922638
      rotation: 
        x: -0.0372897647321
        y: -0.011873668991
        z: 0.997369647026
        w: -0.0610104724765
---
transforms: 
  - 
    header: 
      seq: 0
      stamp: 
        secs: 1574453729
        nsecs: 254726000
      frame_id: "map"
    child_frame_id: "velodyne"
    transform: 
      translation: 
        x: -365.618041992
        y: -299.295898438
        z: -10.9182796478
      rotation: 
        x: -0.0373787507415
        y: -0.0105132432655
        z: 0.997416198254
        w: -0.0604420602322
---
transforms: 
  - 
    header: 
      seq: 0
      stamp: 
        secs: 1574453729
        nsecs: 356724000
      frame_id: "map"
    child_frame_id: "velodyne"
    transform: 
      translation: 
        x: -366.067169189
        y: -299.352020264
        z: -10.9441642761
      rotation: 
        x: -0.0371378138661
        y: -0.00915029924363
        z: 0.997422873974
        w: -0.0607023835182
---
transforms: 
  - 
    header: 
      seq: 0
      stamp: 
        secs: 1574453729
        nsecs: 458755000
      frame_id: "map"
    child_frame_id: "velodyne"
    transform: 
      translation: 
        x: -366.506866455
        y: -299.401245117
        z: -10.9760322571
      rotation: 
        x: -0.0357394516468
        y: -0.00837140344083
        z: 0.997515022755
        w: -0.0601358935237
---
transforms: 
  - 
    header: 
      seq: 0
      stamp: 
        secs: 1574453729
        nsecs: 560719000
      frame_id: "map"
    child_frame_id: "velodyne"
    transform: 
      translation: 
        x: -366.950042725
        y: -299.479644775
        z: -10.9949121475
      rotation: 
        x: -0.0304363425821
        y: -0.0070672435686
        z: 0.998191773891
        w: -0.0513512827456
---
transforms: 
  - 
    header: 
      seq: 0
      stamp: 
        secs: 1574453729
        nsecs: 662719000
      frame_id: "map"
    child_frame_id: "velodyne"
    transform: 
      translation: 
        x: -367.362731934
        y: -299.522674561
        z: -11.0095882416
      rotation: 
        x: -0.0355973504484
        y: -0.00971680786461
        z: 0.99745541811
        w: -0.0610007941723
---
transforms: 
  - 
    header: 
      seq: 0
      stamp: 
        secs: 1574453729
        nsecs: 764751000
      frame_id: "map"
    child_frame_id: "velodyne"
    transform: 
      translation: 
        x: -367.775054932
        y: -299.580230713
        z: -11.0344781876
      rotation: 
        x: -0.0335273966193
        y: -0.00963482540101
        z: 0.997735202312
        w: -0.0575126521289
---
transforms: 
  - 
    header: 
      seq: 0
      stamp: 
        secs: 1574453729
        nsecs: 866722000
      frame_id: "map"
    child_frame_id: "velodyne"
    transform: 
      translation: 
        x: -368.148620605
        y: -299.628540039
        z: -11.0483932495
      rotation: 
        x: -0.0342463999987
        y: -0.0101304566488
        z: 0.997685611248
        w: -0.0578620620072
---
transforms: 
  - 
    header: 
      seq: 0
      stamp: 
        secs: 1574453729
        nsecs: 968718000
      frame_id: "map"
    child_frame_id: "velodyne"
    transform: 
      translation: 
        x: -368.497192383
        y: -299.67767334
        z: -11.0620613098
      rotation: 
        x: -0.0340664871037
        y: -0.0102002583444
        z: 0.997719287872
        w: -0.0573735833168
---
transforms: 
  - 
    header: 
      seq: 0
      stamp: 
        secs: 1574453730
        nsecs:  70742000
      frame_id: "map"
    child_frame_id: "velodyne"
    transform: 
      translation: 
        x: -368.837890625
        y: -299.720092773
        z: -11.0827455521
      rotation: 
        x: -0.0340056158602
        y: -0.00954304821789
        z: 0.99775326252
        w: -0.0569296143949
---
transforms: 
  - 
    header: 
      seq: 0
      stamp: 
        secs: 1574453730
        nsecs: 172746000
      frame_id: "map"
    child_frame_id: "velodyne"
    transform: 
      translation: 
        x: -369.196258545
        y: -299.766174316
        z: -11.1012420654
      rotation: 
        x: -0.0295925009996
        y: -0.0089308032766
        z: 0.998308777809
        w: -0.049235381186
---
transforms: 
  - 
    header: 
      seq: 0
      stamp: 
        secs: 1574453730
        nsecs: 274732000
      frame_id: "map"
    child_frame_id: "velodyne"
    transform: 
      translation: 
        x: -369.469970703
        y: -299.801239014
        z: -11.116692543
      rotation: 
        x: -0.0348158106208
        y: -0.0103901941329
        z: 0.99761980772
        w: -0.0586059577763
---
transforms: 
  - 
    header: 
      seq: 0
      stamp: 
        secs: 1574453730
        nsecs: 376717000
      frame_id: "map"
    child_frame_id: "velodyne"
    transform: 
      translation: 
        x: -369.763916016
        y: -299.844604492
        z: -11.1268997192
      rotation: 
        x: -0.0323496572673
        y: -0.0100094592199
        z: 0.997898876667
        w: -0.0552385635674
---
transforms: 
  - 
    header: 
      seq: 0
      stamp: 
        secs: 1574453730
        nsecs: 478711000
      frame_id: "map"
    child_frame_id: "velodyne"
    transform: 
      translation: 
        x: -370.030334473
        y: -299.879821777
        z: -11.141002655
      rotation: 
        x: -0.0322876833379
        y: -0.00868309475482
        z: 0.99788492918
        w: -0.0557473748922
---
transforms: 
  - 
    header: 
      seq: 0
      stamp: 
        secs: 1574453730
        nsecs: 580710000
      frame_id: "map"
    child_frame_id: "velodyne"
    transform: 
      translation: 
        x: -370.295013428
        y: -299.905487061
        z: -11.1477098465
      rotation: 
        x: -0.0316828079522
        y: -0.00910209026188
        z: 0.997929811478
        w: -0.0552218332887
---
transforms: 
  - 
    header: 
      seq: 0
      stamp: 
        secs: 1574453730
        nsecs: 682720000
      frame_id: "map"
    child_frame_id: "velodyne"
    transform: 
      translation: 
        x: -370.538970947
        y: -299.941894531
        z: -11.1645069122
      rotation: 
        x: -0.031355381012
        y: -0.00848508626223
        z: 0.997955620289
        w: -0.0550405569375
---
transforms: 
  - 
    header: 
      seq: 0
      stamp: 
        secs: 1574453730
        nsecs: 784735000
      frame_id: "map"
    child_frame_id: "velodyne"
    transform: 
      translation: 
        x: -370.77331543
        y: -299.965270996
        z: -11.1765861511
      rotation: 
        x: -0.0312144197524
        y: -0.00913062691689
        z: 0.997964918613
        w: -0.0548495948315
---
transforms: 
  - 
    header: 
      seq: 0
      stamp: 
        secs: 1574453730
        nsecs: 886738000
      frame_id: "map"
    child_frame_id: "velodyne"
    transform: 
      translation: 
        x: -370.985290527
        y: -299.995147705
        z: -11.1822814941
      rotation: 
        x: -0.0305863786489
        y: -0.00906519591808
        z: 0.998015999794
        w: -0.0542805083096
---
transforms: 
  - 
    header: 
      seq: 0
      stamp: 
        secs: 1574453730
        nsecs: 988705000
      frame_id: "map"
    child_frame_id: "velodyne"
    transform: 
      translation: 
        x: -371.186401367
        y: -300.022064209
        z: -11.1951360703
      rotation: 
        x: -0.0301957577467
        y: -0.00871874950826
        z: 0.99803930521
        w: -0.0541281066835
---
transforms: 
  - 
    header: 
      seq: 0
      stamp: 
        secs: 1574453731
        nsecs:  90734000
      frame_id: "map"
    child_frame_id: "velodyne"
    transform: 
      translation: 
        x: -371.385253906
        y: -300.042602539
        z: -11.2047023773
      rotation: 
        x: -0.0259226243943
        y: -0.00783933512866
        z: 0.998525559902
        w: -0.047045558691
---
transforms: 
  - 
    header: 
      seq: 0
      stamp: 
        secs: 1574453731
        nsecs: 192705000
      frame_id: "map"
    child_frame_id: "velodyne"
    transform: 
      translation: 
        x: -371.553466797
        y: -300.072143555
        z: -11.2087526321
      rotation: 
        x: -0.0252381674945
        y: -0.00781961437315
        z: 0.998559355736
        w: -0.0467027537525
---
transforms: 
  - 
    header: 
      seq: 0
      stamp: 
        secs: 1574453731
        nsecs: 294702000
      frame_id: "map"
    child_frame_id: "velodyne"
    transform: 
      translation: 
        x: -371.698364258
        y: -300.085571289
        z: -11.2188358307
      rotation: 
        x: -0.029622297734
        y: -0.0099106952548
        z: 0.997964322567
        w: -0.055601041764
---
transforms: 
  - 
    header: 
      seq: 0
      stamp: 
        secs: 1574453731
        nsecs: 396729000
      frame_id: "map"
    child_frame_id: "velodyne"
    transform: 
      translation: 
        x: -371.86920166
        y: -300.101013184
        z: -11.2237091064
      rotation: 
        x: -0.0244870800525
        y: -0.00786388572305
        z: 0.998597323895
        w: -0.0462819896638
---
transforms: 
  - 
    header: 
      seq: 0
      stamp: 
        secs: 1574453731
        nsecs: 498736000
      frame_id: "map"
    child_frame_id: "velodyne"
    transform: 
      translation: 
        x: -372.002471924
        y: -300.119049072
        z: -11.2237644196
      rotation: 
        x: -0.0295300614089
        y: -0.00931362342089
        z: 0.998005509377
        w: -0.0550120770931
---
transforms: 
  - 
    header: 
      seq: 0
      stamp: 
        secs: 1574453731
        nsecs: 600734000
      frame_id: "map"
    child_frame_id: "velodyne"
    transform: 
      translation: 
        x: -372.11920166
        y: -300.135620117
        z: -11.2277832031
      rotation: 
        x: -0.0278920382261
        y: -0.00868518650532
        z: 0.998237848282
        w: -0.0516510754824
---
transforms: 
  - 
    header: 
      seq: 0
      stamp: 
        secs: 1574453731
        nsecs: 702725000
      frame_id: "map"
    child_frame_id: "velodyne"
    transform: 
      translation: 
        x: -372.228881836
        y: -300.138031006
        z: -11.2333459854
      rotation: 
        x: -0.0282554943115
        y: -0.00881877169013
        z: 0.998186290264
        w: -0.0524220690131
---
transforms: 
  - 
    header: 
      seq: 0
      stamp: 
        secs: 1574453731
        nsecs: 804734000
      frame_id: "map"
    child_frame_id: "velodyne"
    transform: 
      translation: 
        x: -372.332550049
        y: -300.149597168
        z: -11.2325410843
      rotation: 
        x: -0.0244940351695
        y: -0.00749712437391
        z: 0.998643159866
        w: -0.0453405082226
---
transforms: 
  - 
    header: 
      seq: 0
      stamp: 
        secs: 1574453731
        nsecs: 906732000
      frame_id: "map"
    child_frame_id: "velodyne"
    transform: 
      translation: 
        x: -372.400878906
        y: -300.156341553
        z: -11.2326402664
      rotation: 
        x: -0.029315084219
        y: -0.00904910545796
        z: 0.998064279556
        w: -0.0540980249643
---
transforms: 
  - 
    header: 
      seq: 0
      stamp: 
        secs: 1574453732
        nsecs:   8722000
      frame_id: "map"
    child_frame_id: "velodyne"
    transform: 
      translation: 
        x: -372.466461182
        y: -300.165496826
        z: -11.2318439484
      rotation: 
        x: -0.0275570973754
        y: -0.00839446298778
        z: 0.998289346695
        w: -0.0508778318763
---
transforms: 
  - 
    header: 
      seq: 0
      stamp: 
        secs: 1574453732
        nsecs: 110713000
      frame_id: "map"
    child_frame_id: "velodyne"
    transform: 
      translation: 
        x: -372.522766113
        y: -300.168914795
        z: -11.2390098572
      rotation: 
        x: -0.0277665946633
        y: -0.00845226831734
        z: 0.998249292374
        w: -0.0515360496938
---
transforms: 
  - 
    header: 
      seq: 0
      stamp: 
        secs: 1574453732
        nsecs: 212729000
      frame_id: "map"
    child_frame_id: "velodyne"
    transform: 
      translation: 
        x: -372.564147949
        y: -300.178894043
        z: -11.2402133942
      rotation: 
        x: -0.0276637412608
        y: -0.00828700140119
        z: 0.998274922371
        w: -0.0511203929782
---
transforms: 
  - 
    header: 
      seq: 0
      stamp: 
        secs: 1574453732
        nsecs: 314714000
      frame_id: "map"
    child_frame_id: "velodyne"
    transform: 
      translation: 
        x: -372.592102051
        y: -300.182983398
        z: -11.2428941727
      rotation: 
        x: -0.0275043006986
        y: -0.00840449146926
        z: 0.998275637627
        w: -0.051174018532
---
transforms: 
  - 
    header: 
      seq: 0
      stamp: 
        secs: 1574453732
        nsecs: 416734000
      frame_id: "map"
    child_frame_id: "velodyne"
    transform: 
      translation: 
        x: -372.607116699
        y: -300.184570312
        z: -11.2425518036
      rotation: 
        x: -0.0273452159017
        y: -0.00850638002157
        z: 0.998283267021
        w: -0.0510928146541
---
transforms: 
  - 
    header: 
      seq: 0
      stamp: 
        secs: 1574453732
        nsecs: 518728000
      frame_id: "map"
    child_frame_id: "velodyne"
    transform: 
      translation: 
        x: -372.610473633
        y: -300.189086914
        z: -11.2398109436
      rotation: 
        x: -0.0273023750633
        y: -0.00851740781218
        z: 0.998279869556
        w: -0.0511800982058
---
transforms: 
  - 
    header: 
      seq: 0
      stamp: 
        secs: 1574453732
        nsecs: 620695000
      frame_id: "map"
    child_frame_id: "velodyne"
    transform: 
      translation: 
        x: -372.609191895
        y: -300.185058594
        z: -11.239153862
      rotation: 
        x: -0.0267306491733
        y: -0.00854022428393
        z: 0.99829018116
        w: -0.0512763001025
---
transforms: 
  - 
    header: 
      seq: 0
      stamp: 
        secs: 1574453732
        nsecs: 722720000
      frame_id: "map"
    child_frame_id: "velodyne"
    transform: 
      translation: 
        x: -372.611816406
        y: -300.186065674
        z: -11.2367601395
      rotation: 
        x: -0.0263635739684
        y: -0.00877641607076
        z: 0.998296558857
        w: -0.0513031408191
---
transforms: 
  - 
    header: 
      seq: 0
      stamp: 
        secs: 1574453732
        nsecs: 824696000
      frame_id: "map"
    child_frame_id: "velodyne"
    transform: 
      translation: 
        x: -372.612304688
        y: -300.188018799
        z: -11.2333250046
      rotation: 
        x: -0.0261120721698
        y: -0.00848054606467
        z: 0.998303353786
        w: -0.0513493493199
---
transforms: 
  - 
    header: 
      seq: 0
      stamp: 
        secs: 1574453732
        nsecs: 926709000
      frame_id: "map"
    child_frame_id: "velodyne"
    transform: 
      translation: 
        x: -372.610900879
        y: -300.18359375
        z: -11.2342252731
      rotation: 
        x: -0.0260182414204
        y: -0.00910700112581
        z: 0.998292148113
        w: -0.0515063777566
---
transforms: 
  - 
    header: 
      seq: 0
      stamp: 
        secs: 1574453733
        nsecs:  28739000
      frame_id: "map"
    child_frame_id: "velodyne"
    transform: 
      translation: 
        x: -372.604797363
        y: -300.182769775
        z: -11.2327032089
      rotation: 
        x: -0.0258815325797
        y: -0.0087471511215
        z: 0.998293697834
        w: -0.0516076609492
---
transforms: 
  - 
    header: 
      seq: 0
      stamp: 
        secs: 1574453733
        nsecs: 130690000
      frame_id: "map"
    child_frame_id: "velodyne"
    transform: 
      translation: 
        x: -372.602539062
        y: -300.17868042
        z: -11.2346401215
      rotation: 
        x: -0.0228039063513
        y: -0.00797647982836
        z: 0.998700499535
        w: -0.0448756106198
---
transforms: 
  - 
    header: 
      seq: 0
      stamp: 
        secs: 1574453733
        nsecs: 232719000
      frame_id: "map"
    child_frame_id: "velodyne"
    transform: 
      translation: 
        x: -372.606018066
        y: -300.184051514
        z: -11.2288770676
      rotation: 
        x: -0.0273262839764
        y: -0.00956205651164
        z: 0.998125851154
        w: -0.0539138056338
---
transforms: 
  - 
    header: 
      seq: 0
      stamp: 
        secs: 1574453733
        nsecs: 334696000
      frame_id: "map"
    child_frame_id: "velodyne"
    transform: 
      translation: 
        x: -372.606933594
        y: -300.180358887
        z: -11.2289104462
      rotation: 
        x: -0.0257475692779
        y: -0.00903407391161
        z: 0.998327076435
