transforms: 
  - 
    header: 
      seq: 0
      stamp: 
        secs: 1574453574
        nsecs: 215961000
      frame_id: "map"
    child_frame_id: "velodyne"
    transform: 
      translation: 
        x: 2.49293088913
        y: -280.07321167
        z: -7.7149977684
      rotation: 
        x: 0.0
        y: 0.0
        z: -0.517745554447
        w: 0.855534732342
---
transforms: 
  - 
    header: 
      seq: 0
      stamp: 
        secs: 1574453574
        nsecs: 521912000
      frame_id: "map"
    child_frame_id: "velodyne"
    transform: 
      translation: 
        x: 2.49293088913
        y: -280.07321167
        z: -7.71499919891
      rotation: 
        x: 0.0
        y: 0.0
        z: -0.518013119698
        w: 0.855372667313
---
transforms: 
  - 
    header: 
      seq: 0
      stamp: 
        secs: 1574453574
        nsecs: 623943000
      frame_id: "map"
    child_frame_id: "velodyne"
    transform: 
      translation: 
        x: 2.49293088913
        y: -280.07321167
        z: -7.71500015259
      rotation: 
        x: 0.0
        y: 0.0
        z: -0.518103182316
        w: 0.855318129063
---
transforms: 
  - 
    header: 
      seq: 0
      stamp: 
        secs: 1574453574
        nsecs: 725947000
      frame_id: "map"
    child_frame_id: "velodyne"
    transform: 
      translation: 
        x: 2.49293088913
        y: -280.07321167
        z: -7.71499919891
      rotation: 
        x: 0.0
        y: 0.0
        z: -0.518145978451
        w: 0.855292201042
---
transforms: 
  - 
    header: 
      seq: 0
      stamp: 
        secs: 1574453574
        nsecs: 827909000
      frame_id: "map"
    child_frame_id: "velodyne"
    transform: 
      translation: 
        x: 2.49293088913
        y: -280.07321167
        z: -7.71500015259
      rotation: 
        x: 0.0
        y: 0.0
        z: -0.518170833588
        w: 0.855277121067
---
transforms: 
  - 
    header: 
      seq: 0
      stamp: 
        secs: 1574453574
        nsecs: 929939000
      frame_id: "map"
    child_frame_id: "velodyne"
    transform: 
      translation: 
        x: 2.49293088913
        y: -280.07321167
        z: -7.71499967575
      rotation: 
        x: 0.0
        y: 0.0
        z: -0.518187046051
        w: 0.855267286301
---
transforms: 
  - 
    header: 
      seq: 0
      stamp: 
        secs: 1574453575
        nsecs:  31907000
      frame_id: "map"
    child_frame_id: "velodyne"
    transform: 
      translation: 
        x: 2.49293088913
        y: -280.07321167
        z: -7.71499919891
      rotation: 
        x: 0.0
        y: 0.0
        z: -0.518198788166
        w: 0.855260252953
---
transforms: 
  - 
    header: 
      seq: 0
      stamp: 
        secs: 1574453575
        nsecs: 133931000
      frame_id: "map"
    child_frame_id: "velodyne"
    transform: 
      translation: 
        x: 2.49293088913
        y: -280.07321167
        z: -7.71499967575
      rotation: 
        x: 0.0
        y: 0.0
        z: -0.518207192421
        w: 0.855255126953
---
transforms: 
  - 
    header: 
      seq: 0
      stamp: 
        secs: 1574453575
        nsecs: 235907000
      frame_id: "map"
    child_frame_id: "velodyne"
    transform: 
      translation: 
        x: 2.49293065071
        y: -280.073242188
        z: -7.71499872208
      rotation: 
        x: 0.0
        y: 0.0
        z: -0.524049460888
        w: 0.851687848568
---
transforms: 
  - 
    header: 
      seq: 0
      stamp: 
        secs: 1574453575
        nsecs: 337903000
      frame_id: "map"
    child_frame_id: "velodyne"
    transform: 
      translation: 
        x: 2.49293088913
        y: -280.07321167
        z: -7.7149977684
      rotation: 
        x: 0.0
        y: 0.0
        z: -0.523472547531
        w: 0.852042555809
---
transforms: 
  - 
    header: 
      seq: 0
      stamp: 
        secs: 1574453575
        nsecs: 439932000
      frame_id: "map"
    child_frame_id: "velodyne"
    transform: 
      translation: 
        x: 2.49293065071
        y: -280.073242188
        z: -7.7149977684
      rotation: 
        x: 0.0
        y: 0.0
        z: -0.528660476208
        w: 0.848833441734
---
transforms: 
  - 
    header: 
      seq: 0
      stamp: 
        secs: 1574453575
        nsecs: 541904000
      frame_id: "map"
    child_frame_id: "velodyne"
    transform: 
      translation: 
        x: 2.49293088913
        y: -280.073242188
        z: -7.7149977684
      rotation: 
        x: 0.0
        y: 0.0
        z: -0.534316301346
        w: 0.845284640789
---
transforms: 
  - 
    header: 
      seq: 0
      stamp: 
        secs: 1574453575
        nsecs: 643933000
      frame_id: "map"
    child_frame_id: "velodyne"
    transform: 
      translation: 
        x: 1.38330721855
        y: -280.391906738
        z: -5.37506389618
      rotation: 
        x: 0.000344353087712
        y: 1.11051058411e-05
        z: -0.534699559212
        w: 0.845042169094
---
transforms: 
  - 
    header: 
      seq: 0
      stamp: 
        secs: 1574453575
        nsecs: 745934000
      frame_id: "map"
    child_frame_id: "velodyne"
    transform: 
      translation: 
        x: 1.38330733776
        y: -280.392120361
        z: -5.37506628036
      rotation: 
        x: 0.000349869515048
        y: 1.12819916467e-05
        z: -0.539552509785
        w: 0.841951847076
---
transforms: 
  - 
    header: 
      seq: 0
      stamp: 
        secs: 1574453575
        nsecs: 847933000
      frame_id: "map"
    child_frame_id: "velodyne"
    transform: 
      translation: 
        x: -0.56403696537
        y: -277.635467529
        z: -5.38954782486
      rotation: 
        x: -0.00252192071639
        y: 0.00104758481029
        z: -0.545544087887
        w: 0.83807772398
---
transforms: 
  - 
    header: 
      seq: 0
      stamp: 
        secs: 1574453575
        nsecs: 949905000
      frame_id: "map"
    child_frame_id: "velodyne"
    transform: 
      translation: 
        x: 0.886468827724
        y: -277.274780273
        z: -5.46340370178
      rotation: 
        x: -0.00264704064466
        y: 0.000984930084087
        z: -0.551397144794
        w: 0.834238171577
---
transforms: 
  - 
    header: 
      seq: 0
      stamp: 
        secs: 1574453576
        nsecs:  51905000
      frame_id: "map"
    child_frame_id: "velodyne"
    transform: 
      translation: 
        x: 0.182676210999
        y: -274.749023438
        z: -5.57684898376
      rotation: 
        x: 0.0258820522577
        y: -0.00447652582079
        z: -0.558514714241
        w: 0.829078733921
---
transforms: 
  - 
    header: 
      seq: 0
      stamp: 
        secs: 1574453576
        nsecs: 153903000
      frame_id: "map"
    child_frame_id: "velodyne"
    transform: 
      translation: 
        x: 0.118835777044
        y: -274.666870117
        z: -5.61337614059
      rotation: 
        x: 0.0134839685634
        y: -0.00240498268977
        z: -0.564451098442
        w: 0.825352907181
---
transforms: 
  - 
    header: 
      seq: 0
      stamp: 
        secs: 1574453576
        nsecs: 255911000
      frame_id: "map"
    child_frame_id: "velodyne"
    transform: 
      translation: 
        x: 0.0414578802884
        y: -274.906494141
        z: -5.60601043701
      rotation: 
        x: 0.0182899069041
        y: -0.00258874054998
        z: -0.558829724789
        w: 0.829076707363
---
transforms: 
  - 
    header: 
      seq: 0
      stamp: 
        secs: 1574453576
        nsecs: 357930000
      frame_id: "map"
    child_frame_id: "velodyne"
    transform: 
      translation: 
        x: -0.380129784346
        y: -274.600341797
        z: -5.66478586197
      rotation: 
        x: 0.0175544582307
        y: -0.00437960308045
        z: -0.568490207195
        w: 0.822491049767
---
transforms: 
  - 
    header: 
      seq: 0
      stamp: 
        secs: 1574453576
        nsecs: 459923000
      frame_id: "map"
    child_frame_id: "velodyne"
    transform: 
      translation: 
        x: 0.0881199464202
        y: -275.404602051
        z: -5.68567466736
      rotation: 
        x: 0.0159794185311
        y: -0.00266626966186
        z: -0.584975719452
        w: 0.810889065266
---
transforms: 
  - 
    header: 
      seq: 0
      stamp: 
        secs: 1574453576
        nsecs: 561930000
      frame_id: "map"
    child_frame_id: "velodyne"
    transform: 
      translation: 
        x: 2.5333609581
        y: -274.343536377
        z: -5.66111564636
      rotation: 
        x: 0.0170722417533
        y: -0.00648984033614
        z: -0.59804469347
        w: 0.801254689693
---
transforms: 
  - 
    header: 
      seq: 0
      stamp: 
        secs: 1574453576
        nsecs: 663915000
      frame_id: "map"
    child_frame_id: "velodyne"
    transform: 
      translation: 
        x: 2.67759203911
        y: -272.527954102
        z: -5.58618831635
      rotation: 
        x: 0.0140947978944
        y: -0.00117474747822
        z: -0.592531144619
        w: 0.805423438549
---
transforms: 
  - 
    header: 
      seq: 0
      stamp: 
        secs: 1574453576
        nsecs: 765928000
      frame_id: "map"
    child_frame_id: "velodyne"
    transform: 
      translation: 
        x: 2.82946801186
        y: -272.428527832
        z: -5.58288621902
      rotation: 
        x: 0.015148841776
        y: -0.00349925318733
        z: -0.591063439846
        w: 0.806475281715
---
transforms: 
  - 
    header: 
      seq: 0
      stamp: 
        secs: 1574453576
        nsecs: 867895000
      frame_id: "map"
    child_frame_id: "velodyne"
    transform: 
      translation: 
        x: 2.88237810135
        y: -272.662994385
        z: -5.59713792801
      rotation: 
        x: 0.0144826313481
        y: -0.0035851560533
        z: -0.589205086231
        w: 0.807845771313
---
transforms: 
  - 
    header: 
      seq: 0
      stamp: 
        secs: 1574453576
        nsecs: 969927000
      frame_id: "map"
    child_frame_id: "velodyne"
    transform: 
      translation: 
        x: 2.96977329254
        y: -273.092834473
        z: -5.60378694534
      rotation: 
        x: 0.013169689104
        y: -0.00285425921902
        z: -0.590378522873
        w: 0.807013988495
---
transforms: 
  - 
    header: 
      seq: 0
      stamp: 
        secs: 1574453577
        nsecs:  71936000
      frame_id: "map"
    child_frame_id: "velodyne"
    transform: 
      translation: 
        x: 3.26181983948
        y: -273.631134033
        z: -5.62441492081
      rotation: 
        x: 0.0124568976462
        y: -0.00186518556438
        z: -0.594165503979
        w: 0.804244160652
---
transforms: 
  - 
    header: 
      seq: 0
      stamp: 
        secs: 1574453577
        nsecs: 173910000
      frame_id: "map"
    child_frame_id: "velodyne"
    transform: 
      translation: 
        x: 3.27639865875
        y: -273.334991455
        z: -5.60333681107
      rotation: 
        x: 0.0115868803114
        y: 0.000531611498445
        z: -0.598470151424
        w: 0.801061153412
---
transforms: 
  - 
    header: 
      seq: 0
      stamp: 
        secs: 1574453577
        nsecs: 275911000
      frame_id: "map"
    child_frame_id: "velodyne"
    transform: 
      translation: 
        x: 3.51923322678
        y: -273.601806641
        z: -5.61711072922
      rotation: 
        x: 0.0112351290882
        y: -0.000809074903373
        z: -0.603635430336
        w: 0.797180950642
---
transforms: 
  - 
    header: 
      seq: 0
      stamp: 
        secs: 1574453577
        nsecs: 377900000
      frame_id: "map"
    child_frame_id: "velodyne"
    transform: 
      translation: 
        x: 3.5948638916
        y: -273.857727051
        z: -5.61209774017
      rotation: 
        x: 0.0121573070064
        y: 0.000905246008188
        z: -0.611687302589
        w: 0.791005730629
---
transforms: 
  - 
    header: 
      seq: 0
      stamp: 
        secs: 1574453577
        nsecs: 479891000
      frame_id: "map"
    child_frame_id: "velodyne"
    transform: 
      translation: 
        x: 3.76472854614
        y: -274.189300537
        z: -5.60763263702
      rotation: 
        x: 0.0122935688123
        y: 0.000517245964147
        z: -0.618272185326
        w: 0.785867750645
---
transforms: 
  - 
    header: 
      seq: 0
      stamp: 
        secs: 1574453577
        nsecs: 581919000
      frame_id: "map"
    child_frame_id: "velodyne"
    transform: 
      translation: 
        x: 3.70641899109
        y: -274.622802734
        z: -5.64244031906
      rotation: 
        x: 0.0140463318676
        y: -0.00128865009174
        z: -0.624518752098
        w: 0.78088247776
---
transforms: 
  - 
    header: 
      seq: 0
      stamp: 
        secs: 1574453577
        nsecs: 683920000
      frame_id: "map"
    child_frame_id: "velodyne"
    transform: 
      translation: 
        x: 3.75967907906
        y: -275.219909668
        z: -5.65597820282
      rotation: 
        x: 0.0145372143015
        y: 0.000819572305772
        z: -0.632619261742
        w: 0.774326145649
---
transforms: 
  - 
    header: 
      seq: 0
      stamp: 
        secs: 1574453577
        nsecs: 785889000
      frame_id: "map"
    child_frame_id: "velodyne"
    transform: 
      translation: 
        x: 3.67139792442
        y: -275.634399414
        z: -5.67343139648
      rotation: 
        x: 0.0147001994774
        y: -5.03798901264e-06
        z: -0.638167858124
        w: 0.769756913185
---
transforms: 
  - 
    header: 
      seq: 0
      stamp: 
        secs: 1574453577
        nsecs: 887889000
      frame_id: "map"
    child_frame_id: "velodyne"
    transform: 
      translation: 
        x: 3.68768572807
        y: -275.915313721
        z: -5.69332838058
      rotation: 
        x: 0.0154436472803
        y: 0.000665324740112
        z: -0.644735217094
        w: 0.764249742031
---
transforms: 
  - 
    header: 
      seq: 0
      stamp: 
        secs: 1574453577
        nsecs: 989922000
      frame_id: "map"
    child_frame_id: "velodyne"
    transform: 
      translation: 
        x: 3.6678340435
        y: -276.199676514
        z: -5.69388151169
      rotation: 
        x: 0.0146223753691
        y: 0.00140953355003
        z: -0.649762570858
        w: 0.759995341301
---
transforms: 
  - 
    header: 
      seq: 0
      stamp: 
        secs: 1574453578
        nsecs:  91911000
      frame_id: "map"
    child_frame_id: "velodyne"
    transform: 
      translation: 
        x: 3.76849126816
        y: -277.035522461
        z: -5.72185087204
      rotation: 
        x: 0.0149701572955
        y: 0.00114856299479
        z: -0.654310941696
        w: 0.75607663393
---
transforms: 
  - 
    header: 
      seq: 0
      stamp: 
        secs: 1574453578
        nsecs: 193897000
      frame_id: "map"
    child_frame_id: "velodyne"
    transform: 
      translation: 
        x: 3.73696184158
        y: -277.356445312
        z: -5.73233366013
      rotation: 
        x: 0.0149131482467
        y: 0.00213823281229
        z: -0.661874115467
        w: 0.749463617802
---
transforms: 
  - 
    header: 
      seq: 0
      stamp: 
        secs: 1574453578
        nsecs: 295907000
      frame_id: "map"
    child_frame_id: "velodyne"
    transform: 
      translation: 
        x: 3.93741083145
        y: -277.780334473
        z: -5.74693727493
      rotation: 
        x: 0.015059011057
        y: 0.00194629724137
        z: -0.665165066719
        w: 0.746541976929
---
transforms: 
  - 
    header: 
      seq: 0
      stamp: 
        secs: 1574453578
        nsecs: 397910000
      frame_id: "map"
    child_frame_id: "velodyne"
    transform: 
      translation: 
        x: 4.01832294464
        y: -278.220855713
        z: -5.78256559372
      rotation: 
        x: 0.0163719803095
        y: 0.00069993629586
        z: -0.666130185127
        w: 0.745655417442
---
transforms: 
  - 
    header: 
      seq: 0
      stamp: 
        secs: 1574453578
        nsecs: 499884000
      frame_id: "map"
    child_frame_id: "velodyne"
    transform: 
      translation: 
        x: 4.03384542465
        y: -278.893676758
        z: -5.8014960289
      rotation: 
        x: 0.0150100300089
        y: 0.00176565395668
        z: -0.669858157635
        w: 0.742335319519
---
transforms: 
  - 
    header: 
      seq: 0
      stamp: 
        secs: 1574453578
        nsecs: 601901000
      frame_id: "map"
    child_frame_id: "velodyne"
    transform: 
      translation: 
        x: 4.02201986313
        y: -279.206573486
        z: -5.79303264618
      rotation: 
        x: 0.0138289835304
        y: 0.00299224676564
        z: -0.672012269497
        w: 0.740404903889
---
transforms: 
  - 
    header: 
      seq: 0
      stamp: 
        secs: 1574453578
        nsecs: 703909000
      frame_id: "map"
    child_frame_id: "velodyne"
    transform: 
      translation: 
        x: 3.81458520889
        y: -279.69317627
        z: -5.82775306702
      rotation: 
        x: 0.0132182687521
        y: 0.00319104990922
        z: -0.678772330284
        w: 0.734222888947
---
transforms: 
  - 
    header: 
      seq: 0
      stamp: 
        secs: 1574453578
        nsecs: 805882000
      frame_id: "map"
    child_frame_id: "velodyne"
    transform: 
      translation: 
        x: 3.86056399345
        y: -280.325134277
        z: -5.83257627487
      rotation: 
        x: 0.0104593234137
        y: 0.00386811140925
        z: -0.683604478836
        w: 0.729767501354
---
transforms: 
  - 
    header: 
      seq: 0
      stamp: 
        secs: 1574453578
        nsecs: 907905000
      frame_id: "map"
    child_frame_id: "velodyne"
    transform: 
      translation: 
        x: 3.96422791481
        y: -280.818664551
        z: -5.83671712875
      rotation: 
        x: 0.0123082706705
        y: 0.00224793935195
        z: -0.690178275108
        w: 0.723531246185
---
transforms: 
  - 
    header: 
      seq: 0
      stamp: 
        secs: 1574453579
        nsecs:   9878000
      frame_id: "map"
    child_frame_id: "velodyne"
    transform: 
      translation: 
        x: 4.02841901779
        y: -281.058563232
        z: -5.87093687057
      rotation: 
        x: 0.0138470074162
        y: 0.00279351719655
        z: -0.693981230259
        w: 0.719854533672
---
transforms: 
  - 
    header: 
      seq: 0
      stamp: 
        secs: 1574453579
        nsecs: 111982000
      frame_id: "map"
    child_frame_id: "velodyne"
    transform: 
      translation: 
        x: 4.09786891937
        y: -281.489898682
        z: -5.91238164902
      rotation: 
        x: 0.0166300367564
        y: 0.00138075195719
        z: -0.698667407036
        w: 0.715252041817
---
transforms: 
  - 
    header: 
      seq: 0
      stamp: 
        secs: 1574453579
        nsecs: 213882000
      frame_id: "map"
    child_frame_id: "velodyne"
    transform: 
      translation: 
        x: 4.31699705124
        y: -281.984802246
        z: -5.94854450226
      rotation: 
        x: 0.0172397959977
        y: 0.000780132249929
        z: -0.700412034988
        w: 0.713530063629
---
transforms: 
  - 
    header: 
      seq: 0
      stamp: 
        secs: 1574453579
        nsecs: 315880000
      frame_id: "map"
    child_frame_id: "velodyne"
    transform: 
      translation: 
        x: 4.43162107468
        y: -282.481445312
        z: -5.97325611115
      rotation: 
        x: 0.018630117178
        y: 0.00191413983703
        z: -0.704146027565
        w: 0.709808170795
---
transforms: 
  - 
    header: 
      seq: 0
      stamp: 
        secs: 1574453579
        nsecs: 417877000
      frame_id: "map"
    child_frame_id: "velodyne"
    transform: 
      translation: 
        x: 4.32148933411
        y: -282.810546875
        z: -5.96527528763
      rotation: 
        x: 0.019165514037
        y: 0.00193976447918
        z: -0.71102809906
        w: 0.702899754047
---
transforms: 
  - 
    header: 
      seq: 0
      stamp: 
        secs: 1574453579
        nsecs: 519886000
      frame_id: "map"
    child_frame_id: "velodyne"
    transform: 
      translation: 
        x: 4.32228660583
        y: -283.598724365
        z: -5.97286844254
      rotation: 
        x: 0.0182688161731
        y: 0.000510903832037
        z: -0.716257035732
        w: 0.697597205639
---
transforms: 
  - 
    header: 
      seq: 0
      stamp: 
        secs: 1574453579
        nsecs: 621912000
      frame_id: "map"
    child_frame_id: "velodyne"
    transform: 
      translation: 
        x: 4.227663517
        y: -283.986480713
        z: -5.97592115402
      rotation: 
        x: 0.0176436733454
        y: -0.000226142627071
        z: -0.72121399641
        w: 0.692487537861
---
transforms: 
  - 
    header: 
      seq: 0
      stamp: 
        secs: 1574453579
        nsecs: 723901000
      frame_id: "map"
    child_frame_id: "velodyne"
    transform: 
      translation: 
        x: 4.17635822296
        y: -284.649383545
        z: -5.98177814484
      rotation: 
        x: 0.0166105274111
        y: 0.00121926958673
        z: -0.726452112198
        w: 0.687015235424
---
transforms: 
  - 
    header: 
      seq: 0
      stamp: 
        secs: 1574453579
        nsecs: 825875000
      frame_id: "map"
    child_frame_id: "velodyne"
    transform: 
      translation: 
        x: 4.05324172974
        y: -285.047973633
        z: -5.97701215744
      rotation: 
        x: 0.0158735979348
        y: 0.00275596324354
        z: -0.727946639061
        w: 0.685444414616
---
transforms: 
  - 
    header: 
      seq: 0
      stamp: 
        secs: 1574453579
        nsecs: 927897000
      frame_id: "map"
    child_frame_id: "velodyne"
    transform: 
      translation: 
        x: 3.98204541206
        y: -285.609161377
        z: -5.99925708771
      rotation: 
        x: 0.0163567736745
        y: 0.00264023104683
        z: -0.729439079762
        w: 0.683845162392
---
transforms: 
  - 
    header: 
      seq: 0
      stamp: 
        secs: 1574453580
        nsecs:  29902000
      frame_id: "map"
    child_frame_id: "velodyne"
    transform: 
      translation: 
        x: 3.76210236549
        y: -286.052856445
        z: -6.03015756607
      rotation: 
        x: 0.0168369989842
        y: 0.00213641510345
        z: -0.73075056076
        w: 0.682433545589
---
transforms: 
  - 
    header: 
      seq: 0
      stamp: 
        secs: 1574453580
        nsecs: 131895000
      frame_id: "map"
    child_frame_id: "velodyne"
    transform: 
      translation: 
        x: 3.76552176476
        y: -286.51461792
        z: -6.02717351913
      rotation: 
        x: 0.0160056333989
        y: 0.00191310408991
        z: -0.73258048296
        w: 0.680489599705
---
transforms: 
  - 
    header: 
      seq: 0
      stamp: 
        secs: 1574453580
        nsecs: 233902000
      frame_id: "map"
    child_frame_id: "velodyne"
    transform: 
      translation: 
        x: 3.85792899132
        y: -287.208007812
        z: -6.03995227814
      rotation: 
        x: 0.0165909379721
        y: -0.000473157939268
        z: -0.735936164856
        w: 0.676847457886
---
transforms: 
  - 
    header: 
      seq: 0
      stamp: 
        secs: 1574453580
        nsecs: 335870000
      frame_id: "map"
    child_frame_id: "velodyne"
    transform: 
      translation: 
        x: 3.71823120117
        y: -287.65524292
        z: -6.06376171112
      rotation: 
        x: 0.0167126338929
        y: 0.00110857258551
        z: -0.737827062607
        w: 0.67478197813
---
transforms: 
  - 
    header: 
      seq: 0
      stamp: 
        secs: 1574453580
        nsecs: 437866000
      frame_id: "map"
    child_frame_id: "velodyne"
    transform: 
      translation: 
        x: 3.73070502281
        y: -288.028106689
        z: -6.09542322159
      rotation: 
        x: 0.0178582947701
        y: -0.000114334266982
        z: -0.737763345242
        w: 0.674823224545
---
transforms: 
  - 
    header: 
      seq: 0
      stamp: 
        secs: 1574453580
        nsecs: 539895000
      frame_id: "map"
    child_frame_id: "velodyne"
    transform: 
      translation: 
        x: 3.8058552742
        y: -288.658721924
        z: -6.15074253082
      rotation: 
        x: 0.0200573895127
        y: -0.00130871403962
        z: -0.736399531364
        w: 0.676248431206
---
transforms: 
  - 
    header: 
      seq: 0
      stamp: 
        secs: 1574453580
        nsecs: 641865000
      frame_id: "map"
    child_frame_id: "velodyne"
    transform: 
      translation: 
        x: 3.81645202637
        y: -289.379547119
        z: -6.17588329315
      rotation: 
        x: 0.0194994546473
        y: -0.000909355119802
        z: -0.736071944237
        w: 0.676621854305
---
transforms: 
  - 
    header: 
      seq: 0
      stamp: 
        secs: 1574453580
        nsecs: 743877000
      frame_id: "map"
    child_frame_id: "velodyne"
    transform: 
      translation: 
        x: 3.66477394104
        y: -289.810913086
        z: -6.2140545845
      rotation: 
        x: 0.0209484416991
        y: -0.00121669389773
        z: -0.734113574028
        w: 0.67870247364
---
transforms: 
  - 
    header: 
      seq: 0
      stamp: 
        secs: 1574453580
        nsecs: 845870000
      frame_id: "map"
    child_frame_id: "velodyne"
    transform: 
      translation: 
        x: 3.55646634102
        y: -290.143585205
        z: -6.23871660233
      rotation: 
        x: 0.021104734391
        y: -0.000689749140292
        z: -0.733095169067
        w: 0.679798185825
---
transforms: 
  - 
    header: 
      seq: 0
      stamp: 
        secs: 1574453580
        nsecs: 947863000
      frame_id: "map"
    child_frame_id: "velodyne"
    transform: 
      translation: 
        x: -4.34488582611
        y: -300.50491333
        z: -6.45470809937
      rotation: 
        x: 0.0157864689827
        y: 0.00399900181219
        z: -0.838568329811
        w: 0.544552981853
---
transforms: 
  - 
    header: 
      seq: 0
      stamp: 
        secs: 1574453581
        nsecs: 967853000
      frame_id: "map"
    child_frame_id: "velodyne"
    transform: 
      translation: 
        x: -6.03604269028
        y: -299.693695068
        z: -6.49156284332
      rotation: 
        x: 0.0135998697951
        y: 0.0106101259589
        z: -0.816205084324
        w: 0.577504813671
---
transforms: 
  - 
    header: 
      seq: 0
      stamp: 
        secs: 1574453582
        nsecs:  69858000
      frame_id: "map"
    child_frame_id: "velodyne"
    transform: 
      translation: 
        x: -7.22922515869
        y: -302.109130859
        z: -6.54369449615
      rotation: 
        x: 0.011121654883
        y: 0.00693824933842
        z: -0.826143205166
        w: 0.563307762146
---
transforms: 
  - 
    header: 
      seq: 0
      stamp: 
        secs: 1574453582
        nsecs: 171851000
      frame_id: "map"
    child_frame_id: "velodyne"
    transform: 
      translation: 
        x: -8.55893230438
        y: -305.541229248
        z: -6.62417602539
      rotation: 
        x: 0.0112414425239
        y: 0.00978683121502
        z: -0.831850528717
        w: 0.554799616337
---
transforms: 
  - 
    header: 
      seq: 0
      stamp: 
        secs: 1574453582
        nsecs: 273883000
      frame_id: "map"
    child_frame_id: "velodyne"
    transform: 
      translation: 
        x: -10.1763887405
        y: -308.558959961
        z: -6.65778827667
      rotation: 
        x: 0.00994495488703
        y: 0.00607708049938
        z: -0.863918721676
        w: 0.503496348858
---
transforms: 
  - 
    header: 
      seq: 0
      stamp: 
        secs: 1574453582
        nsecs: 375851000
      frame_id: "map"
    child_frame_id: "velodyne"
    transform: 
      translation: 
        x: -10.473443985
        y: -309.170379639
        z: -6.67873430252
      rotation: 
        x: 0.0110955219716
        y: 0.00790131930262
        z: -0.838158071041
        w: 0.545257389545
---
transforms: 
  - 
    header: 
      seq: 0
      stamp: 
        secs: 1574453582
        nsecs: 477864000
      frame_id: "map"
    child_frame_id: "velodyne"
    transform: 
      translation: 
        x: -10.7584075928
        y: -309.732910156
        z: -6.66863870621
      rotation: 
        x: 0.0119044808671
        y: 0.00931149441749
        z: -0.852877676487
        w: 0.521891891956
---
transforms: 
  - 
    header: 
      seq: 0
      stamp: 
        secs: 1574453582
        nsecs: 579879000
      frame_id: "map"
    child_frame_id: "velodyne"
    transform: 
      translation: 
        x: -11.0442228317
        y: -310.312744141
        z: -6.72327136993
      rotation: 
        x: 0.0124809639528
        y: 0.0105653768405
        z: -0.838506698608
        w: 0.544645905495
---
transforms: 
  - 
    header: 
      seq: 0
      stamp: 
        secs: 1574453582
        nsecs: 681847000
      frame_id: "map"
    child_frame_id: "velodyne"
    transform: 
      translation: 
        x: -11.3564071655
        y: -310.920196533
        z: -6.74780225754
      rotation: 
        x: 0.0143218943849
        y: 0.0108837103471
        z: -0.841986179352
        w: 0.53919917345
---
transforms: 
  - 
    header: 
      seq: 0
      stamp: 
        secs: 1574453582
        nsecs: 783875000
      frame_id: "map"
    child_frame_id: "velodyne"
    transform: 
      translation: 
        x: -11.6403303146
        y: -311.507781982
        z: -6.77655696869
      rotation: 
        x: 0.0126927290112
        y: 0.0104654561728
        z: -0.843344807625
        w: 0.53712105751
---
transforms: 
  - 
    header: 
      seq: 0
      stamp: 
        secs: 1574453582
        nsecs: 885878000
      frame_id: "map"
    child_frame_id: "velodyne"
    transform: 
      translation: 
        x: -11.9243803024
        y: -312.069152832
        z: -6.80569648743
      rotation: 
        x: 0.0122990552336
        y: 0.0100763458759
        z: -0.849503278732
        w: 0.527343690395
---
transforms: 
  - 
    header: 
      seq: 0
      stamp: 
        secs: 1574453582
        nsecs: 987847000
      frame_id: "map"
    child_frame_id: "velodyne"
    transform: 
      translation: 
        x: -12.1688184738
        y: -312.624450684
        z: -6.81133508682
      rotation: 
        x: 0.012239318341
        y: 0.0106586599723
        z: -0.845302045345
        w: 0.534042239189
---
transforms: 
  - 
    header: 
      seq: 0
      stamp: 
        secs: 1574453583
        nsecs:  89860000
      frame_id: "map"
    child_frame_id: "velodyne"
    transform: 
      translation: 
        x: -12.4288568497
        y: -313.202026367
        z: -6.8342165947
      rotation: 
        x: 0.0128980623558
        y: 0.0105763059109
        z: -0.844154119492
        w: 0.535841047764
---
transforms: 
  - 
    header: 
      seq: 0
      stamp: 
        secs: 1574453583
        nsecs: 191848000
      frame_id: "map"
    child_frame_id: "velodyne"
    transform: 
      translation: 
        x: -12.699215889
        y: -313.784698486
        z: -6.84483909607
      rotation: 
        x: 0.0134324068204
        y: 0.0113366851583
        z: -0.843392491341
        w: 0.537010371685
---
transforms: 
  - 
    header: 
      seq: 0
      stamp: 
        secs: 1574453583
        nsecs: 293876000
      frame_id: "map"
    child_frame_id: "velodyne"
    transform: 
      translation: 
        x: -12.9620447159
        y: -314.363922119
        z: -6.87128543854
      rotation: 
        x: 0.0140056209639
        y: 0.0104203959927
        z: -0.842780053616
        w: 0.537974894047
---
transforms: 
  - 
    header: 
      seq: 0
      stamp: 
        secs: 1574453583
        nsecs: 395877000
      frame_id: "map"
    child_frame_id: "velodyne"
    transform: 
      translation: 
        x: -13.2192468643
        y: -314.936889648
        z: -6.88867950439
      rotation: 
        x: 0.0134806856513
        y: 0.0110514890403
        z: -0.842129766941
        w: 0.538993060589
---
transforms: 
  - 
    header: 
      seq: 0
      stamp: 
        secs: 1574453583
        nsecs: 497859000
      frame_id: "map"
    child_frame_id: "velodyne"
    transform: 
      translation: 
        x: -13.472287178
        y: -315.512481689
        z: -6.91424179077
      rotation: 
        x: 0.0143445320427
        y: 0.0106027880684
        z: -0.840987443924
        w: 0.540760576725
---
transforms: 
  - 
    header: 
      seq: 0
      stamp: 
        secs: 1574453583
        nsecs: 599871000
      frame_id: "map"
    child_frame_id: "velodyne"
    transform: 
      translation: 
        x: -13.7206554413
        y: -316.102478027
        z: -6.92161417007
      rotation: 
        x: 0.0148097593337
        y: 0.0103691229597
        z: -0.839623987675
        w: 0.542867124081
---
transforms: 
  - 
    header: 
      seq: 0
      stamp: 
        secs: 1574453583
        nsecs: 701862000
      frame_id: "map"
    child_frame_id: "velodyne"
    transform: 
      translation: 
        x: -13.9682207108
        y: -316.684997559
        z: -6.945104599
      rotation: 
        x: 0.0155243324116
        y: 0.0101836845279
        z: -0.838199019432
        w: 0.545048296452
---
transforms: 
  - 
    header: 
      seq: 0
      stamp: 
        secs: 1574453583
        nsecs: 803842000
      frame_id: "map"
    child_frame_id: "velodyne"
    transform: 
      translation: 
        x: -14.2087154388
        y: -317.28024292
        z: -6.95456552505
      rotation: 
        x: 0.015502740629
        y: 0.0102247428149
        z: -0.836660504341
        w: 0.54740691185
---
transforms: 
  - 
    header: 
      seq: 0
      stamp: 
        secs: 1574453583
        nsecs: 905846000
      frame_id: "map"
    child_frame_id: "velodyne"
    transform: 
      translation: 
        x: -14.439866066
        y: -317.920715332
        z: -6.98054933548
      rotation: 
        x: 0.016154570505
        y: 0.0106352716684
        z: -0.835160970688
        w: 0.54966545105
---
transforms: 
  - 
    header: 
      seq: 0
      stamp: 
        secs: 1574453584
        nsecs:   7845000
      frame_id: "map"
    child_frame_id: "velodyne"
    transform: 
      translation: 
        x: -14.670759201
        y: -318.575805664
        z: -6.99918079376
      rotation: 
        x: 0.0165951699018
        y: 0.0106219537556
        z: -0.833671808243
        w: 0.551908612251
---
transforms: 
  - 
    header: 
      seq: 0
      stamp: 
        secs: 1574453584
        nsecs: 109844000
      frame_id: "map"
    child_frame_id: "velodyne"
    transform: 
      translation: 
        x: -14.8916778564
        y: -319.260498047
        z: -7.02915716171
      rotation: 
        x: 0.0171713065356
        y: 0.0108387544751
        z: -0.83212274313
        w: 0.554219722748
---
transforms: 
  - 
    header: 
      seq: 0
      stamp: 
        secs: 1574453584
        nsecs: 211919000
      frame_id: "map"
    child_frame_id: "velodyne"
    transform: 
      translation: 
        x: -15.1105232239
        y: -319.890777588
        z: -7.05209732056
      rotation: 
        x: 0.0177008286119
        y: 0.0109158195555
        z: -0.830662071705
        w: 0.556388437748
---
transforms: 
  - 
    header: 
      seq: 0
      stamp: 
        secs: 1574453584
        nsecs: 313843000
      frame_id: "map"
    child_frame_id: "velodyne"
    transform: 
      translation: 
        x: -15.3263607025
        y: -320.483825684
        z: -7.08240890503
      rotation: 
        x: 0.0174269024283
        y: 0.0105599928647
        z: -0.829333603382
        w: 0.558382093906
---
transforms: 
  - 
    header: 
      seq: 0
      stamp: 
        secs: 1574453584
        nsecs: 415851000
      frame_id: "map"
    child_frame_id: "velodyne"
    transform: 
      translation: 
        x: -15.5345888138
        y: -321.030029297
        z: -7.09610891342
      rotation: 
        x: 0.0173035953194
        y: 0.0102128079161
        z: -0.828007936478
        w: 0.560356259346
---
transforms: 
  - 
    header: 
      seq: 0
      stamp: 
        secs: 1574453584
        nsecs: 517841000
      frame_id: "map"
    child_frame_id: "velodyne"
    transform: 
      translation: 
        x: -15.7354335785
        y: -321.570861816
        z: -7.11761283875
      rotation: 
        x: 0.0169158354402
        y: 0.0101270955056
        z: -0.826723694801
        w: 0.562262535095
---
transforms: 
  - 
    header: 
      seq: 0
      stamp: 
        secs: 1574453584
        nsecs: 619841000
      frame_id: "map"
    child_frame_id: "velodyne"
    transform: 
      translation: 
        x: -15.9283742905
        y: -322.101013184
        z: -7.12577056885
      rotation: 
        x: 0.0168316010386
        y: 0.00981777254492
        z: -0.825518071651
        w: 0.564039289951
---
transforms: 
  - 
    header: 
      seq: 0
      stamp: 
        secs: 1574453584
        nsecs: 721837000
      frame_id: "map"
    child_frame_id: "velodyne"
    transform: 
      translation: 
        x: -16.1152229309
        y: -322.625549316
        z: -7.1440486908
      rotation: 
        x: 0.0160948876292
        y: 0.00993929430842
        z: -0.829702794552
        w: 0.55788475275
---
transforms: 
  - 
    header: 
      seq: 0
      stamp: 
        secs: 1574453584
        nsecs: 823860000
      frame_id: "map"
    child_frame_id: "velodyne"
    transform: 
      translation: 
        x: -16.2831001282
        y: -323.111907959
        z: -7.15299415588
      rotation: 
        x: 0.0157411377877
        y: 0.0103719653562
        z: -0.824814498425
        w: 0.565089225769
---
transforms: 
  - 
    header: 
      seq: 0
      stamp: 
        secs: 1574453584
        nsecs: 925839000
      frame_id: "map"
    child_frame_id: "velodyne"
    transform: 
      translation: 
        x: -16.4681720734
        y: -323.622253418
        z: -7.16646718979
      rotation: 
        x: 0.015049804002
        y: 0.00969704799354
        z: -0.82232105732
        w: 0.568742036819
---
transforms: 
  - 
    header: 
      seq: 0
      stamp: 
        secs: 1574453585
        nsecs:  27848000
      frame_id: "map"
    child_frame_id: "velodyne"
    transform: 
      translation: 
        x: -16.645860672
        y: -324.142089844
        z: -7.19051122665
      rotation: 
        x: 0.014649393037
        y: 0.00903950631618
        z: -0.820753455162
        w: 0.57102316618
---
transforms: 
  - 
    header: 
      seq: 0
      stamp: 
        secs: 1574453585
        nsecs: 129855000
      frame_id: "map"
    child_frame_id: "velodyne"
    transform: 
      translation: 
        x: -16.824640274
        y: -324.664550781
        z: -7.20417690277
      rotation: 
        x: 0.0146435201168
        y: 0.00898564606905
        z: -0.819319307804
        w: 0.573080062866
---
transforms: 
  - 
    header: 
      seq: 0
      stamp: 
        secs: 1574453585
        nsecs: 231860000
      frame_id: "map"
    child_frame_id: "velodyne"
    transform: 
      translation: 
        x: -17.0055541992
        y: -325.179260254
        z: -7.22833681107
      rotation: 
        x: 0.014811177738
        y: 0.00858208537102
        z: -0.817818462849
        w: 0.575221598148
---
transforms: 
  - 
    header: 
      seq: 0
      stamp: 
        secs: 1574453585
        nsecs: 333851000
      frame_id: "map"
    child_frame_id: "velodyne"
    transform: 
      translation: 
        x: -17.1958217621
        y: -325.727386475
        z: -7.24418210983
      rotation: 
        x: 0.0146954152733
        y: 0.00887546874583
        z: -0.821503341198
        w: 0.569945275784
---
transforms: 
  - 
    header: 
      seq: 0
      stamp: 
        secs: 1574453585
        nsecs: 435860000
      frame_id: "map"
    child_frame_id: "velodyne"
    transform: 
      translation: 
        x: -17.3448524475
        y: -326.198638916
        z: -7.26560735703
      rotation: 
        x: 0.0153592182323
        y: 0.00953436549753
        z: -0.816771864891
        w: 0.576677501202
---
transforms: 
  - 
    header: 
      seq: 0
      stamp: 
        secs: 1574453585
        nsecs: 537835000
      frame_id: "map"
    child_frame_id: "velodyne"
    transform: 
      translation: 
        x: -17.5111179352
        y: -326.700592041
        z: -7.28341150284
      rotation: 
        x: 0.0151529815048
        y: 0.00922118406743
        z: -0.814137637615
        w: 0.580400943756
---
transforms: 
  - 
    header: 
      seq: 0
      stamp: 
        secs: 1574453585
        nsecs: 639831000
      frame_id: "map"
    child_frame_id: "velodyne"
    transform: 
      translation: 
        x: -17.6770935059
        y: -327.212219238
        z: -7.30452537537
      rotation: 
        x: 0.0155240893364
        y: 0.00846382509917
        z: -0.812467992306
        w: 0.582737624645
---
transforms: 
  - 
    header: 
      seq: 0
      stamp: 
        secs: 1574453585
        nsecs: 741827000
      frame_id: "map"
    child_frame_id: "velodyne"
    transform: 
      translation: 
        x: -17.8318901062
        y: -327.710632324
        z: -7.32459545135
      rotation: 
        x: 0.0155521230772
        y: 0.00737393880263
        z: -0.811128437519
        w: 0.584614753723
---
transforms: 
  - 
    header: 
      seq: 0
      stamp: 
        secs: 1574453585
        nsecs: 843860000
      frame_id: "map"
    child_frame_id: "velodyne"
    transform: 
      translation: 
        x: -17.988073349
        y: -328.214996338
        z: -7.33463144302
      rotation: 
        x: 0.0154765816405
        y: 0.00701836915687
        z: -0.809673666954
        w: 0.586634278297
---
transforms: 
  - 
    header: 
      seq: 0
      stamp: 
        secs: 1574453585
        nsecs: 945840000
      frame_id: "map"
    child_frame_id: "velodyne"
    transform: 
      translation: 
        x: -18.1558189392
        y: -328.762634277
        z: -7.35430240631
      rotation: 
        x: 0.0152779808268
        y: 0.00664833420888
        z: -0.813203454018
        w: 0.581740856171
---
transforms: 
  - 
    header: 
      seq: 0
      stamp: 
        secs: 1574453586
        nsecs:  47827000
      frame_id: "map"
    child_frame_id: "velodyne"
    transform: 
      translation: 
        x: -18.2911834717
        y: -329.23324585
        z: -7.36293840408
      rotation: 
        x: 0.0151302842423
        y: 0.0065084528178
        z: -0.808844804764
        w: 0.587791442871
---
transforms: 
  - 
    header: 
      seq: 0
      stamp: 
        secs: 1574453586
        nsecs: 149845000
      frame_id: "map"
    child_frame_id: "velodyne"
    transform: 
      translation: 
        x: -18.4420681
        y: -329.758178711
        z: -7.38660001755
      rotation: 
        x: 0.0148326903582
        y: 0.00688780238852
        z: -0.806453287601
        w: 0.591071605682
---
transforms: 
  - 
    header: 
      seq: 0
      stamp: 
        secs: 1574453586
        nsecs: 251826000
      frame_id: "map"
    child_frame_id: "velodyne"
    transform: 
      translation: 
        x: -18.5900936127
        y: -330.262451172
        z: -7.41176605225
      rotation: 
        x: 0.0146334143355
        y: 0.00687049003318
        z: -0.804925203323
        w: 0.59315598011
---
transforms: 
  - 
    header: 
      seq: 0
      stamp: 
        secs: 1574453586
        nsecs: 353827000
      frame_id: "map"
    child_frame_id: "velodyne"
    transform: 
      translation: 
        x: -18.7514095306
        y: -330.784881592
        z: -7.42449140549
      rotation: 
        x: 0.0147368181497
        y: 0.00638520019129
        z: -0.803872644901
        w: 0.594584584236
---
transforms: 
  - 
    header: 
      seq: 0
      stamp: 
        secs: 1574453586
        nsecs: 455826000
      frame_id: "map"
    child_frame_id: "velodyne"
    transform: 
      translation: 
        x: -18.90873909
        y: -331.291259766
        z: -7.43097686768
      rotation: 
        x: 0.014816975221
        y: 0.00690998416394
        z: -0.80337870121
        w: 0.595244109631
---
transforms: 
  - 
    header: 
      seq: 0
      stamp: 
        secs: 1574453586
        nsecs: 557825000
      frame_id: "map"
    child_frame_id: "velodyne"
    transform: 
      translation: 
        x: -19.0770835876
        y: -331.843078613
        z: -7.42188596725
      rotation: 
        x: 0.0149460816756
        y: 0.00750163057819
        z: -0.807948946953
        w: 0.589015185833
---
transforms: 
  - 
    header: 
      seq: 0
      stamp: 
        secs: 1574453586
        nsecs: 659854000
      frame_id: "map"
    child_frame_id: "velodyne"
    transform: 
      translation: 
        x: -19.2058353424
        y: -332.298187256
        z: -7.42966270447
      rotation: 
        x: 0.0160735063255
        y: 0.00901564676315
        z: -0.805457472801
        w: 0.592366993427
---
transforms: 
  - 
    header: 
      seq: 0
      stamp: 
        secs: 1574453586
        nsecs: 761834000
      frame_id: "map"
    child_frame_id: "velodyne"
    transform: 
      translation: 
        x: -19.352180481
        y: -332.783111572
        z: -7.44102573395
      rotation: 
        x: 0.0164447538555
        y: 0.0100038945675
        z: -0.805968105793
        w: 0.591646015644
---
transforms: 
  - 
    header: 
      seq: 0
      stamp: 
        secs: 1574453586
        nsecs: 863847000
      frame_id: "map"
    child_frame_id: "velodyne"
    transform: 
      translation: 
        x: -19.5029277802
        y: -333.262115479
        z: -7.44018268585
      rotation: 
        x: 0.0180303677917
        y: 0.0102021908388
        z: -0.807867646217
        w: 0.58899974823
---
transforms: 
  - 
    header: 
      seq: 0
      stamp: 
        secs: 1574453586
        nsecs: 965818000
      frame_id: "map"
    child_frame_id: "velodyne"
    transform: 
      translation: 
        x: -19.6492671967
        y: -333.732269287
        z: -7.44210290909
      rotation: 
        x: 0.0197503659874
        y: 0.00913007091731
        z: -0.810383915901
        w: 0.585495173931
---
transforms: 
  - 
    header: 
      seq: 0
      stamp: 
        secs: 1574453587
        nsecs:  67836000
      frame_id: "map"
    child_frame_id: "velodyne"
    transform: 
      translation: 
        x: -19.7968654633
        y: -334.185424805
        z: -7.42907524109
      rotation: 
        x: 0.0194196309894
        y: 0.0101918755099
        z: -0.813812196255
        w: 0.58071398735
---
transforms: 
  - 
    header: 
      seq: 0
      stamp: 
        secs: 1574453587
        nsecs: 169829000
      frame_id: "map"
    child_frame_id: "velodyne"
    transform: 
      translation: 
        x: -19.9361076355
        y: -334.626678467
        z: -7.44648742676
      rotation: 
        x: 0.0187116693705
        y: 0.0106537928805
        z: -0.817719876766
        w: 0.575213432312
---
transforms: 
  - 
    header: 
      seq: 0
      stamp: 
        secs: 1574453587
        nsecs: 271847000
      frame_id: "map"
    child_frame_id: "velodyne"
    transform: 
      translation: 
        x: -20.0888767242
        y: -335.068511963
        z: -7.46828269958
      rotation: 
        x: 0.0178379733115
        y: 0.0130152646452
        z: -0.821882903576
        w: 0.569228351116
---
transforms: 
  - 
    header: 
      seq: 0
      stamp: 
        secs: 1574453587
        nsecs: 373826000
      frame_id: "map"
    child_frame_id: "velodyne"
    transform: 
      translation: 
        x: -20.2390060425
        y: -335.475463867
        z: -7.47677898407
      rotation: 
        x: 0.0200676582754
        y: 0.0121249631047
        z: -0.826283156872
        w: 0.56276679039
---
transforms: 
  - 
    header: 
      seq: 0
      stamp: 
        secs: 1574453587
        nsecs: 475838000
      frame_id: "map"
    child_frame_id: "velodyne"
    transform: 
      translation: 
        x: -20.4417991638
        y: -335.881286621
        z: -7.49201393127
      rotation: 
        x: 0.0212661586702
        y: 0.00845105480403
        z: -0.835449397564
        w: 0.549090862274
---
transforms: 
  - 
    header: 
      seq: 0
      stamp: 
        secs: 1574453587
        nsecs: 577811000
      frame_id: "map"
    child_frame_id: "velodyne"
    transform: 
      translation: 
        x: -20.616065979
        y: -336.230773926
        z: -7.48910808563
      rotation: 
        x: 0.0231049824506
        y: 0.00594919361174
        z: -0.836426913738
        w: 0.547558963299
---
transforms: 
  - 
    header: 
      seq: 0
      stamp: 
        secs: 1574453587
        nsecs: 679808000
      frame_id: "map"
    child_frame_id: "velodyne"
    transform: 
      translation: 
        x: -20.8151779175
        y: -336.606933594
        z: -7.49782514572
      rotation: 
        x: 0.021376773715
        y: 0.00599462212995
        z: -0.84104013443
        w: 0.540516912937
---
transforms: 
  - 
    header: 
      seq: 0
      stamp: 
        secs: 1574453587
        nsecs: 781839000
      frame_id: "map"
    child_frame_id: "velodyne"
    transform: 
      translation: 
        x: -21.0297374725
        y: -337.003204346
        z: -7.51488494873
      rotation: 
        x: 0.0215292833745
        y: 0.00815928913653
        z: -0.846041142941
        w: 0.532620191574
---
transforms: 
  - 
    header: 
      seq: 0
      stamp: 
        secs: 1574453587
        nsecs: 883837000
      frame_id: "map"
    child_frame_id: "velodyne"
    transform: 
      translation: 
        x: -21.217010498
        y: -337.388000488
        z: -7.53453779221
      rotation: 
        x: 0.0211622267962
        y: 0.0111060095951
        z: -0.85168170929
        w: 0.523514151573
---
transforms: 
  - 
    header: 
      seq: 0
      stamp: 
        secs: 1574453587
        nsecs: 985831000
      frame_id: "map"
    child_frame_id: "velodyne"
    transform: 
      translation: 
        x: -21.4224491119
        y: -337.759094238
        z: -7.56142568588
      rotation: 
        x: 0.0229123979807
        y: 0.0121633876115
        z: -0.857932269573
        w: 0.513107538223
---
transforms: 
  - 
    header: 
      seq: 0
      stamp: 
        secs: 1574453588
        nsecs:  87810000
      frame_id: "map"
    child_frame_id: "velodyne"
    transform: 
      translation: 
        x: -21.6498374939
        y: -338.128173828
        z: -7.58269166946
      rotation: 
        x: -0.0225171241909
        y: -0.0119435992092
        z: 0.86854493618
        w: -0.494954645634
---
transforms: 
  - 
    header: 
      seq: 0
      stamp: 
        secs: 1574453588
        nsecs: 189824000
      frame_id: "map"
    child_frame_id: "velodyne"
    transform: 
      translation: 
        x: -21.8395652771
        y: -338.407287598
        z: -7.59237146378
      rotation: 
        x: -0.0233286824077
        y: -0.012258740142
        z: 0.870385587215
        w: -0.491665005684
---
transforms: 
  - 
    header: 
      seq: 0
      stamp: 
        secs: 1574453588
        nsecs: 291823000
      frame_id: "map"
    child_frame_id: "velodyne"
    transform: 
      translation: 
        x: -22.0641441345
        y: -338.758666992
        z: -7.61784410477
      rotation: 
        x: -0.0227983575314
        y: -0.0126343956217
        z: 0.881587028503
        w: -0.471301436424
---
transforms: 
  - 
    header: 
      seq: 0
      stamp: 
        secs: 1574453588
        nsecs: 393806000
      frame_id: "map"
    child_frame_id: "velodyne"
    transform: 
      translation: 
        x: -22.2710399628
        y: -339.02041626
        z: -7.60618972778
      rotation: 
        x: -0.0254550557584
        y: -0.013882576488
        z: 0.883122622967
        w: -0.468245565891
---
transforms: 
  - 
    header: 
      seq: 0
      stamp: 
        secs: 1574453588
        nsecs: 495834000
      frame_id: "map"
    child_frame_id: "velodyne"
    transform: 
      translation: 
        x: -22.5321025848
        y: -339.346130371
        z: -7.63460731506
      rotation: 
        x: -0.024987468496
        y: -0.0124578718096
        z: 0.894263505936
        w: -0.446669012308
---
transforms: 
  - 
    header: 
      seq: 0
      stamp: 
        secs: 1574453588
        nsecs: 597803000
      frame_id: "map"
    child_frame_id: "velodyne"
    transform: 
      translation: 
        x: -22.7453479767
        y: -339.619262695
        z: -7.66898298264
      rotation: 
        x: -0.0255505759269
        y: -0.0106255458668
        z: 0.896351516247
        w: -0.442479550838
---
transforms: 
  - 
    header: 
      seq: 0
      stamp: 
        secs: 1574453588
        nsecs: 699830000
      frame_id: "map"
    child_frame_id: "velodyne"
    transform: 
      translation: 
        x: -23.0077533722
        y: -339.913635254
        z: -7.70513820648
      rotation: 
        x: -0.0236450769007
        y: -0.0108753573149
        z: 0.907825171947
        w: -0.418540507555
---
transforms: 
  - 
    header: 
      seq: 0
      stamp: 
        secs: 1574453588
        nsecs: 801827000
      frame_id: "map"
    child_frame_id: "velodyne"
    transform: 
      translation: 
        x: -23.2295570374
        y: -340.129730225
        z: -7.71655511856
      rotation: 
        x: -0.0235732849687
        y: -0.0156626980752
        z: 0.909220695496
        w: -0.415351390839
---
transforms: 
  - 
    header: 
      seq: 0
      stamp: 
        secs: 1574453588
        nsecs: 903830000
      frame_id: "map"
    child_frame_id: "velodyne"
    transform: 
      translation: 
        x: -23.470916748
        y: -340.39541626
        z: -7.74037504196
      rotation: 
        x: -0.0227272603661
        y: -0.0187318511307
        z: 0.915456175804
        w: -0.401338517666
---
transforms: 
  - 
    header: 
      seq: 0
      stamp: 
        secs: 1574453589
        nsecs:   5825000
      frame_id: "map"
    child_frame_id: "velodyne"
    transform: 
      translation: 
        x: -23.7395381927
        y: -340.626922607
        z: -7.72501134872
      rotation: 
        x: -0.0215892978013
        y: -0.0197335388511
        z: 0.921393036842
        w: -0.387529909611
---
transforms: 
  - 
    header: 
      seq: 0
      stamp: 
        secs: 1574453589
        nsecs: 107799000
      frame_id: "map"
    child_frame_id: "velodyne"
    transform: 
      translation: 
        x: -24.0317974091
        y: -340.839508057
        z: -7.74087429047
      rotation: 
        x: -0.0211137663573
        y: -0.0149695947766
        z: 0.927400827408
        w: -0.37317276001
---
transforms: 
  - 
    header: 
      seq: 0
      stamp: 
        secs: 1574453589
        nsecs: 209826000
      frame_id: "map"
    child_frame_id: "velodyne"
    transform: 
      translation: 
        x: -24.3521118164
        y: -341.06451416
        z: -7.73428630829
      rotation: 
        x: -0.0196385756135
        y: -0.0130170201883
        z: 0.933469831944
        w: -0.357881247997
---
transforms: 
  - 
    header: 
      seq: 0
      stamp: 
        secs: 1574453589
        nsecs: 311884000
      frame_id: "map"
    child_frame_id: "velodyne"
    transform: 
      translation: 
        x: -24.6593933105
        y: -341.281921387
        z: -7.74266815186
      rotation: 
        x: -0.0194520913064
        y: -0.0111639387906
        z: 0.938929736614
        w: -0.343377321959
---
transforms: 
  - 
    header: 
      seq: 0
      stamp: 
        secs: 1574453589
        nsecs: 413797000
      frame_id: "map"
    child_frame_id: "velodyne"
    transform: 
      translation: 
        x: -24.9742622375
        y: -341.48638916
        z: -7.76659011841
      rotation: 
        x: -0.017883291468
        y: -0.0117282569408
        z: 0.943980932236
        w: -0.329306304455
---
transforms: 
  - 
    header: 
      seq: 0
      stamp: 
        secs: 1574453589
        nsecs: 515826000
      frame_id: "map"
    child_frame_id: "velodyne"
    transform: 
      translation: 
        x: -25.2898597717
        y: -341.676239014
        z: -7.79023981094
      rotation: 
        x: -0.0178243089467
        y: -0.0111140795052
        z: 0.948966443539
        w: -0.314676851034
---
transforms: 
  - 
    header: 
      seq: 0
      stamp: 
        secs: 1574453589
        nsecs: 617818000
      frame_id: "map"
    child_frame_id: "velodyne"
    transform: 
      translation: 
        x: -25.6078338623
        y: -341.864440918
        z: -7.80550956726
      rotation: 
        x: -0.0180037729442
        y: -0.0115941679105
        z: 0.953661680222
        w: -0.300117999315
---
transforms: 
  - 
    header: 
      seq: 0
      stamp: 
        secs: 1574453589
        nsecs: 719823000
      frame_id: "map"
    child_frame_id: "velodyne"
    transform: 
      translation: 
        x: -25.9387931824
        y: -342.061065674
        z: -7.83581066132
      rotation: 
        x: -0.0208125896752
        y: -0.00875427573919
        z: 0.957738399506
        w: -0.28675314784
---
transforms: 
  - 
    header: 
      seq: 0
      stamp: 
        secs: 1574453589
        nsecs: 821822000
      frame_id: "map"
    child_frame_id: "velodyne"
    transform: 
      translation: 
        x: -26.3000679016
        y: -342.250732422
        z: -7.82728719711
      rotation: 
        x: -0.0203738212585
        y: -0.00944902654737
        z: 0.965179800987
        w: -0.260621607304
---
transforms: 
  - 
    header: 
      seq: 0
      stamp: 
        secs: 1574453589
        nsecs: 923793000
      frame_id: "map"
    child_frame_id: "velodyne"
    transform: 
      translation: 
        x: -26.6533470154
        y: -342.4296875
        z: -7.82557582855
      rotation: 
        x: -0.0207955949008
        y: -0.0102013582364
        z: 0.968670964241
        w: -0.247265264392
---
transforms: 
  - 
    header: 
      seq: 0
      stamp: 
        secs: 1574453590
        nsecs:  25817000
      frame_id: "map"
    child_frame_id: "velodyne"
    transform: 
      translation: 
        x: -26.9688644409
        y: -342.593505859
        z: -7.83526992798
      rotation: 
        x: -0.0221183560789
        y: -0.0109346127138
        z: 0.968187510967
        w: -0.24900637567
---
transforms: 
  - 
    header: 
      seq: 0
      stamp: 
        secs: 1574453590
        nsecs: 127821000
      frame_id: "map"
    child_frame_id: "velodyne"
    transform: 
      translation: 
        x: -27.3208866119
        y: -342.767303467
        z: -7.84036159515
      rotation: 
        x: -0.0207511279732
        y: -0.0104557117447
        z: 0.971993684769
        w: -0.233855545521
---
transforms: 
  - 
    header: 
      seq: 0
      stamp: 
        secs: 1574453590
        nsecs: 229803000
      frame_id: "map"
    child_frame_id: "velodyne"
    transform: 
      translation: 
        x: -27.6838436127
        y: -342.921112061
        z: -7.87098503113
      rotation: 
        x: -0.0203808993101
        y: -0.00877771340311
        z: 0.974907279015
        w: -0.221502482891
---
transforms: 
  - 
    header: 
      seq: 0
      stamp: 
        secs: 1574453590
        nsecs: 331789000
      frame_id: "map"
    child_frame_id: "velodyne"
    transform: 
      translation: 
        x: -28.0615673065
        y: -343.065704346
        z: -7.88873577118
      rotation: 
        x: -0.0211771447212
        y: -0.00732393888757
        z: 0.977779567242
        w: -0.208434686065
---
transforms: 
  - 
    header: 
      seq: 0
      stamp: 
        secs: 1574453590
        nsecs: 433830000
      frame_id: "map"
    child_frame_id: "velodyne"
    transform: 
      translation: 
        x: -28.439491272
        y: -343.217559814
        z: -7.89855909348
      rotation: 
        x: -0.0219862535596
        y: -0.00540324766189
        z: 0.98040831089
        w: -0.195670619607
---
transforms: 
  - 
    header: 
      seq: 0
      stamp: 
        secs: 1574453590
        nsecs: 535789000
      frame_id: "map"
    child_frame_id: "velodyne"
    transform: 
      translation: 
