transforms: 
  - 
    header: 
      seq: 0
      stamp: 
        secs: 1574453573
        nsecs: 909948000
      frame_id: "map"
    child_frame_id: "velodyne"
    transform: 
      translation: 
        x: -0.345853626728
        y: 0.606485843658
        z: -2.37598323822
      rotation: 
        x: 0.0328305736184
        y: 0.00866276491433
        z: -0.000908938061912
        w: 0.999422967434
---
transforms: 
  - 
    header: 
      seq: 0
      stamp: 
        secs: 1574453574
        nsecs:  12010000
      frame_id: "map"
    child_frame_id: "velodyne"
    transform: 
      translation: 
        x: 2.49293088913
        y: -280.07321167
        z: -7.7149977684
      rotation: 
        x: 0.0
        y: 0.0
        z: -0.517745554447
        w: 0.855534732342
---
transforms: 
  - 
    header: 
      seq: 0
      stamp: 
        secs: 1574453574
        nsecs: 827909000
      frame_id: "map"
    child_frame_id: "velodyne"
    transform: 
      translation: 
        x: 2.00019788742
        y: -279.871490479
        z: -7.08460044861
      rotation: 
        x: 0.0119480155408
        y: 0.000346396758687
        z: -0.504272937775
        w: 0.863461613655
---
transforms: 
  - 
    header: 
      seq: 0
      stamp: 
        secs: 1574453575
        nsecs: 439932000
      frame_id: "map"
    child_frame_id: "velodyne"
    transform: 
      translation: 
        x: 3.13649487495
        y: -278.162353516
        z: -5.82245445251
      rotation: 
        x: 0.042188283056
        y: -0.0131084052846
        z: -0.539488196373
        w: 0.840833425522
---
transforms: 
  - 
    header: 
      seq: 0
      stamp: 
        secs: 1574453575
        nsecs: 643933000
      frame_id: "map"
    child_frame_id: "velodyne"
    transform: 
      translation: 
        x: 5.64287376404
        y: -277.226501465
        z: -5.80903768539
      rotation: 
        x: 0.0127306841314
        y: -0.00668107299134
        z: -0.588574111462
        w: 0.808315396309
---
transforms: 
  - 
    header: 
      seq: 0
      stamp: 
        secs: 1574453575
        nsecs: 745934000
      frame_id: "map"
    child_frame_id: "velodyne"
    transform: 
      translation: 
        x: 5.67824363708
        y: -276.679260254
        z: -5.79789638519
      rotation: 
        x: 0.032126121223
        y: -0.0130388280377
        z: -0.587853074074
        w: 0.808224439621
---
transforms: 
  - 
    header: 
      seq: 0
      stamp: 
        secs: 1574453575
        nsecs: 847933000
      frame_id: "map"
    child_frame_id: "velodyne"
    transform: 
      translation: 
        x: 5.98267602921
        y: -275.698425293
        z: -5.78886365891
      rotation: 
        x: 0.0207547284663
        y: -0.0147678367794
        z: -0.646088540554
        w: 0.762837290764
---
transforms: 
  - 
    header: 
      seq: 0
      stamp: 
        secs: 1574453575
        nsecs: 949905000
      frame_id: "map"
    child_frame_id: "velodyne"
    transform: 
      translation: 
        x: 5.55208015442
        y: -276.94821167
        z: -5.82250785828
      rotation: 
        x: 0.0236498303711
        y: -0.0115163791925
        z: -0.650777697563
        w: 0.75881254673
---
transforms: 
  - 
    header: 
      seq: 0
      stamp: 
        secs: 1574453576
        nsecs:  51905000
      frame_id: "map"
    child_frame_id: "velodyne"
    transform: 
      translation: 
        x: 5.67182159424
        y: -276.851715088
        z: -5.84103345871
      rotation: 
        x: 0.0222511794418
        y: -0.0105072027072
        z: -0.662157595158
        w: 0.7489605546
---
transforms: 
  - 
    header: 
      seq: 0
      stamp: 
        secs: 1574453576
        nsecs: 153903000
      frame_id: "map"
    child_frame_id: "velodyne"
    transform: 
      translation: 
        x: 5.18323040009
        y: -274.209381104
        z: -5.73536300659
      rotation: 
        x: 0.0194332823157
        y: -0.00644620414823
        z: -0.671491920948
        w: 0.740728974342
---
transforms: 
  - 
    header: 
      seq: 0
      stamp: 
        secs: 1574453576
        nsecs: 255911000
      frame_id: "map"
    child_frame_id: "velodyne"
    transform: 
      translation: 
        x: 5.39872360229
        y: -272.581207275
        z: -5.66868257523
      rotation: 
        x: 0.0199348926544
        y: -0.00818553380668
        z: -0.674268841743
        w: 0.738171517849
---
transforms: 
  - 
    header: 
      seq: 0
      stamp: 
        secs: 1574453576
        nsecs: 357930000
      frame_id: "map"
    child_frame_id: "velodyne"
    transform: 
      translation: 
        x: 4.87845230103
        y: -270.223327637
        z: -5.60720062256
      rotation: 
        x: 0.0192406419665
        y: -0.00589497201145
        z: -0.686073482037
        w: 0.727253854275
---
transforms: 
  - 
    header: 
      seq: 0
      stamp: 
        secs: 1574453576
        nsecs: 561930000
      frame_id: "map"
    child_frame_id: "velodyne"
    transform: 
      translation: 
        x: 4.68796443939
        y: -270.092559814
        z: -5.60269927979
      rotation: 
        x: 0.0186492316425
        y: -0.00622874964029
        z: -0.677200615406
        w: 0.735535740852
---
transforms: 
  - 
    header: 
      seq: 0
      stamp: 
        secs: 1574453576
        nsecs: 663915000
      frame_id: "map"
    child_frame_id: "velodyne"
    transform: 
      translation: 
        x: 4.72879505157
        y: -270.33883667
        z: -5.60665178299
      rotation: 
        x: 0.0181547645479
        y: -0.00499351602048
        z: -0.676170349121
        w: 0.736504673958
---
transforms: 
  - 
    header: 
      seq: 0
      stamp: 
        secs: 1574453576
        nsecs: 765928000
      frame_id: "map"
    child_frame_id: "velodyne"
    transform: 
      translation: 
        x: 4.84071302414
        y: -271.178924561
        z: -5.62270498276
      rotation: 
        x: 0.017884677276
        y: -0.00417707813904
        z: -0.680134952068
        w: 0.732856869698
---
transforms: 
  - 
    header: 
      seq: 0
      stamp: 
        secs: 1574453576
        nsecs: 867895000
      frame_id: "map"
    child_frame_id: "velodyne"
    transform: 
      translation: 
        x: 4.88195323944
        y: -271.228942871
        z: -5.62739658356
      rotation: 
        x: 0.0176301989704
        y: -0.00463243294507
        z: -0.680289387703
        w: 0.732716917992
---
transforms: 
  - 
    header: 
      seq: 0
      stamp: 
        secs: 1574453576
        nsecs: 969927000
      frame_id: "map"
    child_frame_id: "velodyne"
    transform: 
      translation: 
        x: 5.00088167191
        y: -271.919006348
        z: -5.64999246597
      rotation: 
        x: 0.0167930927128
        y: -0.00427614431828
        z: -0.679666757584
        w: 0.733316361904
---
transforms: 
  - 
    header: 
      seq: 0
      stamp: 
        secs: 1574453577
        nsecs:  71936000
      frame_id: "map"
    child_frame_id: "velodyne"
    transform: 
      translation: 
        x: 4.99506282806
        y: -272.382354736
        z: -5.66308116913
      rotation: 
        x: 0.0155891142786
        y: -0.00277502741665
        z: -0.688602030277
        w: 0.724966645241
---
transforms: 
  - 
    header: 
      seq: 0
      stamp: 
        secs: 1574453577
        nsecs: 173910000
      frame_id: "map"
    child_frame_id: "velodyne"
    transform: 
      translation: 
        x: 5.0625
        y: -272.6902771
        z: -5.66507101059
      rotation: 
        x: 0.0158087629825
        y: -0.00123682280537
        z: -0.696046769619
        w: 0.71782130003
---
transforms: 
  - 
    header: 
      seq: 0
      stamp: 
        secs: 1574453577
        nsecs: 275911000
      frame_id: "map"
    child_frame_id: "velodyne"
    transform: 
      translation: 
        x: 4.59307336807
        y: -271.47946167
        z: -5.67826032639
      rotation: 
        x: 0.0151704717427
        y: -0.0084549151361
        z: -0.730666041374
        w: 0.682514190674
---
transforms: 
  - 
    header: 
      seq: 0
      stamp: 
        secs: 1574453577
        nsecs: 377900000
      frame_id: "map"
    child_frame_id: "velodyne"
    transform: 
      translation: 
        x: 4.45938825607
        y: -271.708068848
        z: -5.68590784073
      rotation: 
        x: 0.0175777394325
        y: -0.0026919466909
        z: -0.737202107906
        w: 0.675438225269
---
transforms: 
  - 
    header: 
      seq: 0
      stamp: 
        secs: 1574453577
        nsecs: 479891000
      frame_id: "map"
    child_frame_id: "velodyne"
    transform: 
      translation: 
        x: 4.44164943695
        y: -272.162506104
        z: -5.69131135941
      rotation: 
        x: 0.0170920416713
        y: -0.00601116754115
        z: -0.741005122662
        w: 0.67125493288
---
transforms: 
  - 
    header: 
      seq: 0
      stamp: 
        secs: 1574453577
        nsecs: 581919000
      frame_id: "map"
    child_frame_id: "velodyne"
    transform: 
      translation: 
        x: -0.456735730171
        y: -284.365997314
        z: -5.94493770599
      rotation: 
        x: 0.0145390266553
        y: -1.95823340619e-05
        z: -0.728400707245
        w: 0.684997081757
---
transforms: 
  - 
    header: 
      seq: 0
      stamp: 
        secs: 1574453577
        nsecs: 989922000
      frame_id: "map"
    child_frame_id: "velodyne"
    transform: 
      translation: 
        x: -1.83456802368
        y: -286.973327637
        z: -6.00823736191
      rotation: 
        x: 0.015498756431
        y: 0.0086823720485
        z: -0.803514540195
        w: 0.595019996166
---
transforms: 
  - 
    header: 
      seq: 0
      stamp: 
        secs: 1574453578
        nsecs:  91911000
      frame_id: "map"
    child_frame_id: "velodyne"
    transform: 
      translation: 
        x: -1.96435749531
        y: -287.417419434
        z: -6.03104782104
      rotation: 
        x: 0.0149408699945
        y: 0.00208248361014
        z: -0.764595329762
        w: 0.644334077835
---
transforms: 
  - 
    header: 
      seq: 0
      stamp: 
        secs: 1574453578
        nsecs: 193897000
      frame_id: "map"
    child_frame_id: "velodyne"
    transform: 
      translation: 
        x: -2.08426427841
        y: -287.882843018
        z: -6.04466247559
      rotation: 
        x: 0.0151666849852
        y: 0.00491301296279
        z: -0.78089094162
        w: 0.62446397543
---
transforms: 
  - 
    header: 
      seq: 0
      stamp: 
        secs: 1574453578
        nsecs: 397910000
      frame_id: "map"
    child_frame_id: "velodyne"
    transform: 
      translation: 
        x: -2.30600118637
        y: -288.763519287
        z: -6.09092950821
      rotation: 
        x: 0.0154333654791
        y: 0.00703218299896
        z: -0.787264466286
        w: 0.616382181644
---
transforms: 
  - 
    header: 
      seq: 0
      stamp: 
        secs: 1574453578
        nsecs: 499884000
      frame_id: "map"
    child_frame_id: "velodyne"
    transform: 
      translation: 
        x: -2.43419289589
        y: -289.237091064
        z: -6.1004447937
      rotation: 
        x: 0.0139946499839
        y: 0.00590939819813
        z: -0.784872293472
        w: 0.619471311569
---
transforms: 
  - 
    header: 
      seq: 0
      stamp: 
        secs: 1574453578
        nsecs: 601901000
      frame_id: "map"
    child_frame_id: "velodyne"
    transform: 
      translation: 
        x: -2.54621887207
        y: -289.71661377
        z: -6.12815952301
      rotation: 
        x: 0.0144124217331
        y: 0.00717433355749
        z: -0.790230691433
        w: 0.612597942352
---
transforms: 
  - 
    header: 
      seq: 0
      stamp: 
        secs: 1574453578
        nsecs: 703909000
      frame_id: "map"
    child_frame_id: "velodyne"
    transform: 
      translation: 
        x: -2.67957115173
        y: -290.233154297
        z: -6.15657758713
      rotation: 
        x: 0.0130000542849
        y: 0.00760695384815
        z: -0.798312485218
        w: 0.602055132389
---
transforms: 
  - 
    header: 
      seq: 0
      stamp: 
        secs: 1574453578
        nsecs: 805882000
      frame_id: "map"
    child_frame_id: "velodyne"
    transform: 
      translation: 
        x: -2.79774093628
        y: -290.687927246
        z: -6.1736369133
      rotation: 
        x: 0.0103804692626
        y: 0.00727061228827
        z: -0.799237430096
        w: 0.600881755352
---
transforms: 
  - 
    header: 
      seq: 0
      stamp: 
        secs: 1574453578
        nsecs: 907905000
      frame_id: "map"
    child_frame_id: "velodyne"
    transform: 
      translation: 
        x: -2.95393824577
        y: -291.196838379
        z: -6.16281080246
      rotation: 
        x: 0.011253496632
        y: 0.00594960059971
        z: -0.802948951721
        w: 0.595911920071
---
transforms: 
  - 
    header: 
      seq: 0
      stamp: 
        secs: 1574453579
        nsecs:   9878000
      frame_id: "map"
    child_frame_id: "velodyne"
    transform: 
      translation: 
        x: -3.12438893318
        y: -291.676727295
        z: -6.19050550461
      rotation: 
        x: 0.0122179295868
        y: 0.00746236229315
        z: -0.80710709095
        w: 0.590231537819
---
transforms: 
  - 
    header: 
      seq: 0
      stamp: 
        secs: 1574453579
        nsecs: 111982000
      frame_id: "map"
    child_frame_id: "velodyne"
    transform: 
      translation: 
        x: -3.29880070686
        y: -292.166320801
        z: -6.20478153229
      rotation: 
        x: 0.0135401887819
        y: 0.00712866708636
        z: -0.811271011829
        w: 0.584470033646
---
transforms: 
  - 
    header: 
      seq: 0
      stamp: 
        secs: 1574453579
        nsecs: 213882000
      frame_id: "map"
    child_frame_id: "velodyne"
    transform: 
      translation: 
        x: -3.46932482719
        y: -292.669525146
        z: -6.22119235992
      rotation: 
        x: 0.0131877427921
        y: 0.00864889286458
        z: -0.815125226974
        w: 0.579070091248
---
transforms: 
  - 
    header: 
      seq: 0
      stamp: 
        secs: 1574453579
        nsecs: 315880000
      frame_id: "map"
    child_frame_id: "velodyne"
    transform: 
      translation: 
        x: -3.64216828346
        y: -293.162445068
        z: -6.24689006805
      rotation: 
        x: 0.0143656795844
        y: 0.00925473123789
        z: -0.818867325783
        w: 0.573728501797
---
transforms: 
  - 
    header: 
      seq: 0
      stamp: 
        secs: 1574453579
        nsecs: 417877000
      frame_id: "map"
    child_frame_id: "velodyne"
    transform: 
      translation: 
        x: -3.82412552834
        y: -293.673950195
        z: -6.23931980133
      rotation: 
        x: 0.0148141384125
        y: 0.00920496787876
        z: -0.822163879871
        w: 0.568983733654
---
transforms: 
  - 
    header: 
      seq: 0
      stamp: 
        secs: 1574453579
        nsecs: 519886000
      frame_id: "map"
    child_frame_id: "velodyne"
    transform: 
      translation: 
        x: -4.03624343872
        y: -294.228485107
        z: -6.24417543411
      rotation: 
        x: 0.0135574555025
        y: 0.00837477203459
        z: -0.82994478941
        w: 0.557617843151
---
transforms: 
  - 
    header: 
      seq: 0
      stamp: 
        secs: 1574453579
        nsecs: 621912000
      frame_id: "map"
    child_frame_id: "velodyne"
    transform: 
      translation: 
        x: -4.22096061707
        y: -294.680969238
        z: -6.25603628159
      rotation: 
        x: 0.012838544324
        y: 0.00725673884153
        z: -0.829311490059
        w: 0.558591902256
---
transforms: 
  - 
    header: 
      seq: 0
      stamp: 
        secs: 1574453579
        nsecs: 723901000
      frame_id: "map"
    child_frame_id: "velodyne"
    transform: 
      translation: 
        x: -4.40805101395
        y: -295.199798584
        z: -6.28598833084
      rotation: 
        x: 0.0127516631037
        y: 0.00847928132862
        z: -0.831184446812
        w: 0.555785834789
---
transforms: 
  - 
    header: 
      seq: 0
      stamp: 
        secs: 1574453579
        nsecs: 825875000
      frame_id: "map"
    child_frame_id: "velodyne"
    transform: 
      translation: 
        x: -4.6151843071
        y: -295.709106445
        z: -6.30809402466
      rotation: 
        x: 0.0128574874252
        y: 0.00888663716614
        z: -0.833234488964
        w: 0.552698850632
---
transforms: 
  - 
    header: 
      seq: 0
      stamp: 
        secs: 1574453579
        nsecs: 927897000
      frame_id: "map"
    child_frame_id: "velodyne"
    transform: 
      translation: 
        x: -4.84984874725
        y: -296.263427734
        z: -6.31990432739
      rotation: 
        x: 0.0124627575278
        y: 0.008883186616
        z: -0.840424478054
        w: 0.541712522507
---
transforms: 
  - 
    header: 
      seq: 0
      stamp: 
        secs: 1574453580
        nsecs:  29902000
      frame_id: "map"
    child_frame_id: "velodyne"
    transform: 
      translation: 
        x: -5.06836032867
        y: -296.77456665
        z: -6.34255313873
      rotation: 
        x: 0.0125165637583
        y: 0.00871417019516
        z: -0.842818796635
        w: 0.537981331348
---
transforms: 
  - 
    header: 
      seq: 0
      stamp: 
        secs: 1574453580
        nsecs: 131895000
      frame_id: "map"
    child_frame_id: "velodyne"
    transform: 
      translation: 
        x: -5.26708078384
        y: -297.248352051
        z: -6.34841108322
      rotation: 
        x: 0.0126410769299
        y: 0.0078946147114
        z: -0.840850949287
        w: 0.541061580181
---
transforms: 
  - 
    header: 
      seq: 0
      stamp: 
        secs: 1574453580
        nsecs: 233902000
      frame_id: "map"
    child_frame_id: "velodyne"
    transform: 
      translation: 
        x: -5.49073839188
        y: -297.754241943
        z: -6.36098432541
      rotation: 
        x: 0.0125325927511
        y: 0.00736323930323
        z: -0.841234087944
        w: 0.540475726128
---
transforms: 
  - 
    header: 
      seq: 0
      stamp: 
        secs: 1574453580
        nsecs: 335870000
      frame_id: "map"
    child_frame_id: "velodyne"
    transform: 
      translation: 
        x: -5.71258640289
        y: -298.26550293
        z: -6.37517309189
      rotation: 
        x: 0.0121299754828
        y: 0.00678269425407
        z: -0.841995298862
        w: 0.53930580616
---
transforms: 
  - 
    header: 
      seq: 0
      stamp: 
        secs: 1574453580
        nsecs: 437866000
      frame_id: "map"
    child_frame_id: "velodyne"
    transform: 
      translation: 
        x: -5.92540550232
        y: -298.802642822
        z: -6.38562059402
      rotation: 
        x: 0.0124009577557
        y: 0.00669104699045
        z: -0.842308759689
        w: 0.538811087608
---
transforms: 
  - 
    header: 
      seq: 0
      stamp: 
        secs: 1574453580
        nsecs: 539895000
      frame_id: "map"
    child_frame_id: "velodyne"
    transform: 
      translation: 
        x: -6.14617490768
        y: -299.337585449
        z: -6.41360712051
      rotation: 
        x: 0.0126928100362
        y: 0.0066635152325
        z: -0.841855585575
        w: 0.539512455463
---
transforms: 
  - 
    header: 
      seq: 0
      stamp: 
        secs: 1574453580
        nsecs: 641865000
      frame_id: "map"
    child_frame_id: "velodyne"
    transform: 
      translation: 
        x: -6.3781247139
        y: -299.884613037
        z: -6.42570304871
      rotation: 
        x: 0.0126310652122
        y: 0.00677812239155
        z: -0.841261565685
        w: 0.540438175201
---
transforms: 
  - 
    header: 
      seq: 0
      stamp: 
        secs: 1574453580
        nsecs: 743877000
      frame_id: "map"
    child_frame_id: "velodyne"
    transform: 
      translation: 
        x: -6.60962915421
        y: -300.432495117
        z: -6.44990110397
      rotation: 
        x: 0.0124477837235
        y: 0.00761735253036
        z: -0.84083044529
        w: 0.541101872921
---
transforms: 
  - 
    header: 
      seq: 0
      stamp: 
        secs: 1574453580
        nsecs: 845870000
      frame_id: "map"
    child_frame_id: "velodyne"
    transform: 
      translation: 
        x: -6.8527712822
        y: -301.016845703
        z: -6.4657831192
      rotation: 
        x: 0.0123241469264
        y: 0.00765955448151
        z: -0.845948517323
        w: 0.533067166805
---
transforms: 
  - 
    header: 
      seq: 0
      stamp: 
        secs: 1574453580
        nsecs: 947863000
      frame_id: "map"
    child_frame_id: "velodyne"
    transform: 
      translation: 
        x: -7.06809234619
        y: -301.523986816
        z: -6.49084186554
      rotation: 
        x: 0.0135855386034
        y: 0.00774363707751
        z: -0.841545581818
        w: 0.539959669113
---
transforms: 
  - 
    header: 
      seq: 0
      stamp: 
        secs: 1574453581
        nsecs:  49894000
      frame_id: "map"
    child_frame_id: "velodyne"
    transform: 
      translation: 
        x: -7.30501794815
        y: -302.055450439
        z: -6.49825382233
      rotation: 
        x: 0.0143688721582
        y: 0.00762081099674
        z: -0.840222477913
        w: 0.541997969151
---
transforms: 
  - 
    header: 
      seq: 0
      stamp: 
        secs: 1574453581
        nsecs: 151888000
      frame_id: "map"
    child_frame_id: "velodyne"
    transform: 
      translation: 
        x: -7.53505516052
        y: -302.595458984
        z: -6.51214265823
      rotation: 
        x: 0.0144824516028
        y: 0.00815742369741
        z: -0.839709162712
        w: 0.542781949043
---
transforms: 
  - 
    header: 
      seq: 0
      stamp: 
        secs: 1574453581
        nsecs: 253891000
      frame_id: "map"
    child_frame_id: "velodyne"
    transform: 
      translation: 
        x: -7.76479482651
        y: -303.143310547
        z: -6.53363704681
      rotation: 
        x: 0.0139802927151
        y: 0.00853016134351
        z: -0.83933788538
        w: 0.543363332748
---
transforms: 
  - 
    header: 
      seq: 0
      stamp: 
        secs: 1574453581
        nsecs: 355875000
      frame_id: "map"
    child_frame_id: "velodyne"
    transform: 
      translation: 
        x: -8.00206279755
        y: -303.690887451
        z: -6.5383310318
      rotation: 
        x: 0.0136628039181
        y: 0.00888666324317
        z: -0.839271485806
        w: 0.543468356133
---
transforms: 
  - 
    header: 
      seq: 0
      stamp: 
        secs: 1574453581
        nsecs: 457872000
      frame_id: "map"
    child_frame_id: "velodyne"
    transform: 
      translation: 
        x: -8.23455810547
        y: -304.247344971
        z: -6.56950378418
      rotation: 
        x: 0.0135146798566
        y: 0.00900138728321
        z: -0.839577615261
        w: 0.542997062206
---
transforms: 
  - 
    header: 
      seq: 0
      stamp: 
        secs: 1574453581
        nsecs: 559886000
      frame_id: "map"
    child_frame_id: "velodyne"
    transform: 
      translation: 
        x: -8.4709854126
        y: -304.796844482
        z: -6.57502985001
      rotation: 
        x: 0.0132263209671
        y: 0.00882890075445
        z: -0.839921414852
        w: 0.542474985123
---
transforms: 
  - 
    header: 
      seq: 0
      stamp: 
        secs: 1574453581
        nsecs: 661858000
      frame_id: "map"
    child_frame_id: "velodyne"
    transform: 
      translation: 
        x: -8.71942424774
        y: -305.340270996
        z: -6.59710931778
      rotation: 
        x: 0.0135754626244
        y: 0.0080359056592
        z: -0.840151846409
        w: 0.542121767998
---
transforms: 
  - 
    header: 
      seq: 0
      stamp: 
        secs: 1574453581
        nsecs: 763886000
      frame_id: "map"
    child_frame_id: "velodyne"
    transform: 
      translation: 
        x: -8.96654033661
        y: -305.882568359
        z: -6.60858821869
      rotation: 
        x: 0.0137518141419
        y: 0.00780381402001
        z: -0.840517699718
        w: 0.541553378105
---
transforms: 
  - 
    header: 
      seq: 0
      stamp: 
        secs: 1574453581
        nsecs: 865880000
      frame_id: "map"
    child_frame_id: "velodyne"
    transform: 
      translation: 
        x: -9.21751403809
        y: -306.425018311
        z: -6.63279104233
      rotation: 
        x: 0.013023708947
        y: 0.00817446224391
        z: -0.840879201889
        w: 0.541004359722
---
transforms: 
  - 
    header: 
      seq: 0
      stamp: 
        secs: 1574453581
        nsecs: 967853000
      frame_id: "map"
    child_frame_id: "velodyne"
    transform: 
      translation: 
        x: -9.45516872406
        y: -306.962219238
        z: -6.65605926514
      rotation: 
        x: 0.012031997554
        y: 0.00819644797593
        z: -0.841143012047
        w: 0.540616869926
---
transforms: 
  - 
    header: 
      seq: 0
      stamp: 
        secs: 1574453582
        nsecs:  69858000
      frame_id: "map"
    child_frame_id: "velodyne"
    transform: 
      translation: 
        x: -9.70250225067
        y: -307.507415771
        z: -6.66559410095
      rotation: 
        x: 0.0100851990283
        y: 0.00803606305271
        z: -0.841380655766
        w: 0.54028904438
---
transforms: 
  - 
    header: 
      seq: 0
      stamp: 
        secs: 1574453582
        nsecs: 171851000
      frame_id: "map"
    child_frame_id: "velodyne"
    transform: 
      translation: 
        x: -9.96216487885
        y: -308.072814941
        z: -6.66633558273
      rotation: 
        x: 0.00946858897805
        y: 0.00762698752806
        z: -0.84718555212
        w: 0.531158030033
---
transforms: 
  - 
    header: 
      seq: 0
      stamp: 
        secs: 1574453582
        nsecs: 273883000
      frame_id: "map"
    child_frame_id: "velodyne"
    transform: 
      translation: 
        x: -10.1944770813
        y: -308.576568604
        z: -6.66205787659
      rotation: 
        x: 0.0100139006972
        y: 0.00582535983995
        z: -0.843507826328
        w: 0.536991894245
---
transforms: 
  - 
    header: 
      seq: 0
      stamp: 
        secs: 1574453582
        nsecs: 375851000
      frame_id: "map"
    child_frame_id: "velodyne"
    transform: 
      translation: 
        x: -10.4390954971
        y: -309.123413086
        z: -6.68075466156
      rotation: 
        x: 0.0113523937762
        y: 0.0079385638237
        z: -0.842989981174
        w: 0.537750959396
---
transforms: 
  - 
    header: 
      seq: 0
      stamp: 
        secs: 1574453582
        nsecs: 477864000
      frame_id: "map"
    child_frame_id: "velodyne"
    transform: 
      translation: 
        x: -10.7253160477
        y: -309.681854248
        z: -6.67752552032
      rotation: 
        x: 0.0124109955505
        y: 0.00920959468931
        z: -0.843083381653
        w: 0.53756082058
---
transforms: 
  - 
    header: 
      seq: 0
      stamp: 
        secs: 1574453582
        nsecs: 579879000
      frame_id: "map"
    child_frame_id: "velodyne"
    transform: 
      translation: 
        x: -11.0126285553
        y: -310.258300781
        z: -6.72780036926
      rotation: 
        x: 0.0129630202428
        y: 0.0108593385667
        z: -0.84333127737
        w: 0.537127912045
---
transforms: 
  - 
    header: 
      seq: 0
      stamp: 
        secs: 1574453582
        nsecs: 681847000
      frame_id: "map"
    child_frame_id: "velodyne"
    transform: 
      translation: 
        x: -11.3238735199
        y: -310.866210938
        z: -6.74911260605
      rotation: 
        x: 0.0144817093387
        y: 0.0108629222959
        z: -0.843642830849
        w: 0.536599576473
---
transforms: 
  - 
    header: 
      seq: 0
      stamp: 
        secs: 1574453582
        nsecs: 783875000
      frame_id: "map"
    child_frame_id: "velodyne"
    transform: 
      translation: 
        x: -11.6082429886
        y: -311.465209961
        z: -6.78035497665
      rotation: 
        x: 0.0129727134481
        y: 0.0104192774743
        z: -0.844165861607
        w: 0.535823822021
---
transforms: 
  - 
    header: 
      seq: 0
      stamp: 
        secs: 1574453582
        nsecs: 885878000
      frame_id: "map"
    child_frame_id: "velodyne"
    transform: 
      translation: 
        x: -11.891749382
        y: -312.029174805
        z: -6.80870771408
      rotation: 
        x: 0.012718334794
        y: 0.0101836370304
        z: -0.843957185745
        w: 0.536163032055
---
transforms: 
  - 
    header: 
      seq: 0
      stamp: 
        secs: 1574453582
        nsecs: 987847000
      frame_id: "map"
    child_frame_id: "velodyne"
    transform: 
      translation: 
        x: -12.162771225
        y: -312.627532959
        z: -6.81742715836
      rotation: 
        x: 0.0125111825764
        y: 0.0105651393533
        z: -0.843662619591
        w: 0.536624014378
---
transforms: 
  - 
    header: 
      seq: 0
      stamp: 
        secs: 1574453583
        nsecs:  89860000
      frame_id: "map"
    child_frame_id: "velodyne"
    transform: 
      translation: 
        x: -12.4205312729
        y: -313.22467041
        z: -6.83913898468
      rotation: 
        x: 0.0132453739643
        y: 0.010567324236
        z: -0.843439519405
        w: 0.536957025528
---
transforms: 
  - 
    header: 
      seq: 0
      stamp: 
        secs: 1574453583
        nsecs: 191848000
      frame_id: "map"
    child_frame_id: "velodyne"
    transform: 
      translation: 
        x: -8.57801818848
        y: -310.330322266
        z: -6.6174955368
      rotation: 
        x: 0.0173756405711
        y: 0.00528306746855
        z: -0.8191447258
        w: 0.57329928875
---
transforms: 
  - 
    header: 
      seq: 0
      stamp: 
        secs: 1574453583
        nsecs: 293876000
      frame_id: "map"
    child_frame_id: "velodyne"
    transform: 
      translation: 
        x: -11.3370161057
        y: -312.041503906
        z: -6.82319927216
      rotation: 
        x: 0.0135929528624
        y: 0.013116019778
        z: -0.827759027481
        w: 0.560765743256
---
transforms: 
  - 
    header: 
      seq: 0
      stamp: 
        secs: 1574453583
        nsecs: 395877000
      frame_id: "map"
    child_frame_id: "velodyne"
    transform: 
      translation: 
        x: -13.0744361877
        y: -314.728668213
        z: -6.88878774643
      rotation: 
        x: 0.0141693754122
        y: 0.00980164669454
        z: -0.843998134136
        w: 0.536069333553
---
transforms: 
  - 
    header: 
      seq: 0
      stamp: 
        secs: 1574453583
        nsecs: 497859000
      frame_id: "map"
    child_frame_id: "velodyne"
    transform: 
      translation: 
        x: -13.4492406845
        y: -315.488555908
        z: -6.92095184326
      rotation: 
        x: 0.0143080642447
        y: 0.0110502773896
        z: -0.840931713581
        w: 0.540839254856
---
transforms: 
  - 
    header: 
      seq: 0
      stamp: 
        secs: 1574453583
        nsecs: 599871000
      frame_id: "map"
    child_frame_id: "velodyne"
    transform: 
      translation: 
        x: -13.705748558
        y: -316.095092773
        z: -6.93172311783
      rotation: 
        x: 0.0150816868991
        y: 0.0100688869134
        z: -0.839829325676
        w: 0.54254758358
---
transforms: 
  - 
    header: 
      seq: 0
      stamp: 
        secs: 1574453583
        nsecs: 701862000
      frame_id: "map"
    child_frame_id: "velodyne"
    transform: 
      translation: 
        x: -13.9470386505
        y: -316.673950195
        z: -6.94951534271
      rotation: 
        x: 0.0157678667456
        y: 0.0103325573727
        z: -0.838380038738
        w: 0.544760167599
---
transforms: 
  - 
    header: 
      seq: 0
      stamp: 
        secs: 1574453583
        nsecs: 803842000
      frame_id: "map"
    child_frame_id: "velodyne"
    transform: 
      translation: 
        x: -14.1917886734
        y: -317.277832031
        z: -6.96386480331
      rotation: 
        x: 0.0156533904374
        y: 0.0100983763114
        z: -0.836808919907
        w: 0.547177970409
---
transforms: 
  - 
    header: 
      seq: 0
      stamp: 
        secs: 1574453583
        nsecs: 905846000
      frame_id: "map"
    child_frame_id: "velodyne"
    transform: 
      translation: 
        x: -14.4246902466
        y: -317.913421631
        z: -6.98755979538
      rotation: 
        x: 0.0161456800997
        y: 0.0105850528926
        z: -0.835278868675
        w: 0.549487471581
---
transforms: 
  - 
    header: 
      seq: 0
      stamp: 
        secs: 1574453584
        nsecs:   7845000
      frame_id: "map"
    child_frame_id: "velodyne"
    transform: 
      translation: 
        x: -14.663848877
        y: -318.615661621
        z: -7.00382041931
      rotation: 
        x: 0.0163469351828
        y: 0.0104693360627
        z: -0.839511215687
        w: 0.542995512486
---
transforms: 
  - 
    header: 
      seq: 0
      stamp: 
        secs: 1574453584
        nsecs: 109844000
      frame_id: "map"
    child_frame_id: "velodyne"
    transform: 
      translation: 
        x: -14.8846683502
        y: -319.29019165
        z: -7.04234313965
      rotation: 
        x: 0.0168717093766
        y: 0.0104934610426
        z: -0.837946236134
        w: 0.545391023159
---
transforms: 
  - 
    header: 
      seq: 0
      stamp: 
        secs: 1574453584
        nsecs: 211919000
      frame_id: "map"
    child_frame_id: "velodyne"
    transform: 
      translation: 
        x: -15.0879707336
        y: -319.862030029
        z: -7.06718111038
      rotation: 
        x: 0.017833866179
        y: 0.010729951784
        z: -0.832694172859
        w: 0.55334186554
---
transforms: 
  - 
    header: 
      seq: 0
      stamp: 
        secs: 1574453584
        nsecs: 313843000
      frame_id: "map"
    child_frame_id: "velodyne"
    transform: 
      translation: 
        x: -15.3061599731
        y: -320.448364258
        z: -7.08834266663
      rotation: 
        x: 0.0173773691058
        y: 0.0107079381123
        z: -0.830226540565
        w: 0.557052314281
---
transforms: 
  - 
    header: 
      seq: 0
      stamp: 
        secs: 1574453584
        nsecs: 415851000
      frame_id: "map"
    child_frame_id: "velodyne"
    transform: 
      translation: 
        x: -15.5149259567
        y: -320.990234375
        z: -7.10515022278
      rotation: 
        x: 0.0173854026943
        y: 0.0101187936962
        z: -0.82857042551
        w: 0.559523463249
---
transforms: 
  - 
    header: 
      seq: 0
      stamp: 
        secs: 1574453584
        nsecs: 517841000
      frame_id: "map"
    child_frame_id: "velodyne"
    transform: 
      translation: 
        x: -15.7153348923
        y: -321.535064697
        z: -7.12537908554
      rotation: 
        x: 0.0170570313931
        y: 0.0100901862606
        z: -0.827104091644
        w: 0.561699271202
---
transforms: 
  - 
    header: 
      seq: 0
      stamp: 
        secs: 1574453584
        nsecs: 619841000
      frame_id: "map"
    child_frame_id: "velodyne"
    transform: 
      translation: 
        x: -15.9108753204
        y: -322.072143555
        z: -7.13714504242
      rotation: 
        x: 0.0169015396386
        y: 0.0096488809213
        z: -0.825780332088
        w: 0.563655972481
---
transforms: 
  - 
    header: 
      seq: 0
      stamp: 
        secs: 1574453584
        nsecs: 721837000
      frame_id: "map"
    child_frame_id: "velodyne"
    transform: 
      translation: 
        x: -16.0966892242
        y: -322.589569092
        z: -7.15134716034
      rotation: 
        x: 0.0161647051573
        y: 0.0102411024272
        z: -0.824419081211
        w: 0.565656304359
---
transforms: 
  - 
    header: 
      seq: 0
      stamp: 
        secs: 1574453584
        nsecs: 823860000
      frame_id: "map"
    child_frame_id: "velodyne"
    transform: 
      translation: 
        x: -16.2806243896
        y: -323.12020874
        z: -7.15900850296
      rotation: 
        x: 0.0158117990941
        y: 0.0103231268004
        z: -0.822965621948
        w: 0.567777216434
---
transforms: 
  - 
    header: 
      seq: 0
      stamp: 
        secs: 1574453584
        nsecs: 925839000
      frame_id: "map"
    child_frame_id: "velodyne"
    transform: 
      translation: 
        x: -16.4674263
        y: -323.641357422
        z: -7.17254114151
      rotation: 
        x: 0.0150905800983
        y: 0.00966412574053
        z: -0.821562170982
        w: 0.569837152958
---
transforms: 
  - 
    header: 
      seq: 0
      stamp: 
        secs: 1574453585
        nsecs:  27848000
      frame_id: "map"
    child_frame_id: "velodyne"
    transform: 
      translation: 
        x: -16.6444091797
        y: -324.159942627
        z: -7.19639253616
      rotation: 
        x: 0.0148857338354
        y: 0.00903103593737
        z: -0.820249676704
        w: 0.571740627289
---
transforms: 
  - 
    header: 
      seq: 0
      stamp: 
        secs: 1574453585
        nsecs: 129855000
      frame_id: "map"
    child_frame_id: "velodyne"
    transform: 
      translation: 
        x: -16.8247127533
        y: -324.684204102
        z: -7.21095991135
      rotation: 
        x: 0.0147572522983
        y: 0.0089103281498
        z: -0.818886756897
        w: 0.573696255684
---
transforms: 
  - 
    header: 
      seq: 0
      stamp: 
        secs: 1574453585
        nsecs: 231860000
      frame_id: "map"
    child_frame_id: "velodyne"
    transform: 
      translation: 
        x: -17.0088272095
        y: -325.207275391
        z: -7.23647212982
      rotation: 
        x: 0.0147818075493
        y: 0.00843879953027
        z: -0.817489743233
        w: 0.575691640377
---
transforms: 
  - 
    header: 
      seq: 0
      stamp: 
        secs: 1574453585
        nsecs: 333851000
      frame_id: "map"
    child_frame_id: "velodyne"
    transform: 
      translation: 
        x: -17.1836585999
        y: -325.716217041
        z: -7.25018596649
      rotation: 
        x: 0.0150303915143
        y: 0.00919558573514
        z: -0.816138029099
        w: 0.577588319778
---
transforms: 
  - 
    header: 
      seq: 0
      stamp: 
        secs: 1574453585
        nsecs: 435860000
      frame_id: "map"
    child_frame_id: "velodyne"
    transform: 
      translation: 
        x: -17.3496742249
        y: -326.229278564
        z: -7.27222537994
      rotation: 
        x: 0.0153290769085
        y: 0.00941626541317
        z: -0.814778029919
        w: 0.579493939877
---
transforms: 
  - 
    header: 
      seq: 0
      stamp: 
        secs: 1574453585
        nsecs: 537835000
      frame_id: "map"
    child_frame_id: "velodyne"
    transform: 
      translation: 
        x: -17.5155181885
        y: -326.738037109
        z: -7.29287481308
      rotation: 
        x: 0.0152498669922
        y: 0.00920236390084
        z: -0.81328368187
        w: 0.581594705582
---
transforms: 
  - 
    header: 
      seq: 0
      stamp: 
        secs: 1574453585
        nsecs: 639831000
      frame_id: "map"
    child_frame_id: "velodyne"
    transform: 
      translation: 
        x: -17.6794929504
        y: -327.245758057
        z: -7.31108474731
      rotation: 
        x: 0.0155153246596
        y: 0.00838480331004
        z: -0.811896562576
        w: 0.583534896374
---
transforms: 
  - 
    header: 
      seq: 0
      stamp: 
        secs: 1574453585
        nsecs: 741827000
      frame_id: "map"
    child_frame_id: "velodyne"
    transform: 
      translation: 
        x: -17.8377342224
        y: -327.751342773
        z: -7.32757377625
      rotation: 
        x: 0.0157472416759
        y: 0.00746879540384
        z: -0.810709297657
        w: 0.585189461708
---
transforms: 
  - 
    header: 
      seq: 0
      stamp: 
        secs: 1574453585
        nsecs: 843860000
      frame_id: "map"
    child_frame_id: "velodyne"
    transform: 
      translation: 
        x: -17.9902095795
        y: -328.252471924
        z: -7.33976745605
      rotation: 
        x: 0.0156399458647
        y: 0.00698244478554
        z: -0.809380590916
        w: 0.587034761906
---
transforms: 
  - 
    header: 
      seq: 0
      stamp: 
        secs: 1574453585
        nsecs: 945840000
      frame_id: "map"
    child_frame_id: "velodyne"
    transform: 
      translation: 
        x: -13.1047000885
        y: -326.886962891
        z: -4.67721509933
      rotation: 
        x: 0.0137193156406
        y: -0.0159192513674
        z: -0.784533381462
        w: 0.61973041296
---
transforms: 
  - 
    header: 
      seq: 0
      stamp: 
        secs: 1574453586
        nsecs:  47827000
      frame_id: "map"
    child_frame_id: "velodyne"
    transform: 
      translation: 
        x: -14.302028656
        y: -326.737548828
        z: -7.15526247025
      rotation: 
        x: 0.0243644248694
        y: 0.0100832758471
        z: -0.783932387829
        w: 0.620285987854
---
transforms: 
  - 
    header: 
      seq: 0
      stamp: 
        secs: 1574453586
        nsecs: 149845000
      frame_id: "map"
    child_frame_id: "velodyne"
    transform: 
      translation: 
        x: -17.1012783051
        y: -328.507629395
        z: -7.37916040421
      rotation: 
        x: 0.0172859653831
        y: 0.00337744015269
        z: -0.79541093111
        w: 0.605814516544
---
transforms: 
  - 
    header: 
      seq: 0
      stamp: 
        secs: 1574453586
        nsecs: 251826000
      frame_id: "map"
    child_frame_id: "velodyne"
    transform: 
      translation: 
        x: -18.4819736481
        y: -330.178466797
        z: -7.41648054123
      rotation: 
        x: 0.0138093521819
        y: 0.00860905926675
        z: -0.80587887764
        w: 0.591856777668
---
transforms: 
  - 
    header: 
      seq: 0
      stamp: 
        secs: 1574453586
        nsecs: 353827000
      frame_id: "map"
    child_frame_id: "velodyne"
    transform: 
      translation: 
        x: -18.7475528717
        y: -330.787780762
        z: -7.4308218956
      rotation: 
        x: 0.0149596454576
        y: 0.0056004668586
        z: -0.803275704384
        w: 0.595393121243
---
transforms: 
  - 
    header: 
      seq: 0
      stamp: 
        secs: 1574453586
        nsecs: 455826000
      frame_id: "map"
    child_frame_id: "velodyne"
    transform: 
      translation: 
        x: -18.9107284546
        y: -331.307220459
        z: -7.43433237076
      rotation: 
        x: 0.014783163555
        y: 0.00733602466062
        z: -0.803211450577
        w: 0.595465421677
---
transforms: 
  - 
    header: 
      seq: 0
      stamp: 
        secs: 1574453586
        nsecs: 557825000
      frame_id: "map"
    child_frame_id: "velodyne"
    transform: 
      translation: 
        x: -19.0649337769
        y: -331.813140869
        z: -7.42730808258
      rotation: 
        x: 0.0152874076739
        y: 0.00767803564668
        z: -0.803115904331
        w: 0.595577120781
---
transforms: 
  - 
    header: 
      seq: 0
      stamp: 
        secs: 1574453586
        nsecs: 659854000
      frame_id: "map"
    child_frame_id: "velodyne"
    transform: 
      translation: 
        x: -19.2109870911
        y: -332.310913086
        z: -7.4339928627
      rotation: 
        x: 0.0159940570593
        y: 0.00906087271869
        z: -0.80371761322
        w: 0.594726920128
---
transforms: 
  - 
    header: 
      seq: 0
      stamp: 
        secs: 1574453586
        nsecs: 761834000
      frame_id: "map"
    child_frame_id: "velodyne"
    transform: 
      translation: 
        x: -19.3570594788
        y: -332.807800293
        z: -7.45143222809
      rotation: 
        x: 0.0165683850646
        y: 0.00999404862523
        z: -0.805239379406
        w: 0.592634141445
---
transforms: 
  - 
    header: 
      seq: 0
      stamp: 
        secs: 1574453586
        nsecs: 863847000
      frame_id: "map"
    child_frame_id: "velodyne"
    transform: 
      translation: 
        x: -19.5122566223
        y: -333.289581299
        z: -7.44586181641
      rotation: 
        x: 0.0179298873991
        y: 0.0102331154048
        z: -0.807403087616
        w: 0.589638948441
---
transforms: 
  - 
    header: 
      seq: 0
      stamp: 
        secs: 1574453586
        nsecs: 965818000
      frame_id: "map"
    child_frame_id: "velodyne"
    transform: 
      translation: 
        x: -19.6586837769
        y: -333.75958252
        z: -7.45828914642
      rotation: 
        x: 0.019668309018
        y: 0.0089928470552
        z: -0.810019850731
        w: 0.586003541946
---
transforms: 
  - 
    header: 
      seq: 0
      stamp: 
        secs: 1574453587
        nsecs:  67836000
      frame_id: "map"
    child_frame_id: "velodyne"
    transform: 
      translation: 
        x: -19.8091602325
        y: -334.21295166
        z: -7.44647121429
      rotation: 
        x: 0.0191909242421
        y: 0.0100009189919
        z: -0.813509762287
        w: 0.581148505211
---
transforms: 
  - 
    header: 
      seq: 0
      stamp: 
        secs: 1574453587
        nsecs: 169829000
      frame_id: "map"
    child_frame_id: "velodyne"
    transform: 
      translation: 
        x: -19.9543952942
        y: -334.656768799
        z: -7.46059370041
      rotation: 
        x: 0.0185333788395
        y: 0.0105636864901
        z: -0.817415177822
        w: 0.575653910637
---
transforms: 
  - 
    header: 
      seq: 0
      stamp: 
        secs: 1574453587
        nsecs: 271847000
      frame_id: "map"
    child_frame_id: "velodyne"
    transform: 
      translation: 
        x: -20.1042022705
        y: -335.091369629
        z: -7.47771072388
      rotation: 
        x: 0.0178120210767
        y: 0.0130002386868
        z: -0.821626603603
        w: 0.56959939003
---
transforms: 
  - 
    header: 
      seq: 0
      stamp: 
        secs: 1574453587
        nsecs: 373826000
      frame_id: "map"
    child_frame_id: "velodyne"
    transform: 
      translation: 
        x: -20.2571411133
        y: -335.501647949
        z: -7.49443769455
      rotation: 
        x: 0.0197511184961
        y: 0.0119135212153
        z: -0.826109051704
        w: 0.563038051128
---
transforms: 
  - 
    header: 
      seq: 0
      stamp: 
        secs: 1574453587
        nsecs: 475838000
      frame_id: "map"
    child_frame_id: "velodyne"
    transform: 
      translation: 
        x: -20.443145752
        y: -335.883300781
        z: -7.5064573288
      rotation: 
        x: 0.0219207853079
        y: 0.0072423745878
        z: -0.830605983734
        w: 0.556381821632
---
transforms: 
  - 
    header: 
      seq: 0
      stamp: 
        secs: 1574453587
        nsecs: 577811000
      frame_id: "map"
    child_frame_id: "velodyne"
    transform: 
      translation: 
        x: -20.6341915131
        y: -336.26159668
        z: -7.50297117233
      rotation: 
        x: 0.0226133298129
        y: 0.00626913225278
        z: -0.835394203663
        w: 0.5491502285
---
transforms: 
  - 
    header: 
      seq: 0
      stamp: 
        secs: 1574453587
        nsecs: 679808000
      frame_id: "map"
    child_frame_id: "velodyne"
    transform: 
      translation: 
        x: -20.8413887024
        y: -336.647644043
        z: -7.51472520828
      rotation: 
        x: 0.0210978966206
        y: 0.00556116690859
        z: -0.840433239937
        w: 0.541475653648
---
transforms: 
  - 
    header: 
      seq: 0
      stamp: 
        secs: 1574453587
        nsecs: 781839000
      frame_id: "map"
    child_frame_id: "velodyne"
    transform: 
      translation: 
        x: -21.0554256439
        y: -337.034454346
        z: -7.53076171875
      rotation: 
        x: 0.021171528846
        y: 0.00821079313755
        z: -0.845742106438
        w: 0.533108532429
---
transforms: 
  - 
    header: 
      seq: 0
      stamp: 
        secs: 1574453587
        nsecs: 883837000
      frame_id: "map"
    child_frame_id: "velodyne"
    transform: 
      translation: 
        x: -21.243637085
        y: -337.417724609
        z: -7.54646015167
      rotation: 
        x: 0.0207671970129
        y: 0.0109646525234
        z: -0.851515829563
        w: 0.523802757263
---
transforms: 
  - 
    header: 
      seq: 0
      stamp: 
        secs: 1574453587
        nsecs: 985831000
      frame_id: "map"
    child_frame_id: "velodyne"
    transform: 
      translation: 
        x: -21.4374332428
        y: -337.783691406
        z: -7.57243299484
      rotation: 
        x: 0.022684706375
        y: 0.0120730362833
        z: -0.857773125172
        w: 0.513385772705
---
transforms: 
  - 
    header: 
      seq: 0
      stamp: 
        secs: 1574453588
        nsecs:  87810000
      frame_id: "map"
    child_frame_id: "velodyne"
    transform: 
      translation: 
        x: -21.6414108276
        y: -338.113250732
        z: -7.5878405571
      rotation: 
        x: 0.0229266714305
        y: 0.0121835265309
        z: -0.863505482674
        w: 0.503670692444
---
transforms: 
  - 
    header: 
      seq: 0
      stamp: 
        secs: 1574453588
        nsecs: 189824000
      frame_id: "map"
    child_frame_id: "velodyne"
    transform: 
      translation: 
        x: -15.1931209564
        y: -335.043426514
        z: -3.78133225441
      rotation: 
        x: 0.023050410673
        y: -0.0196027699858
        z: -0.835892140865
        w: 0.548059105873
---
transforms: 
  - 
    header: 
      seq: 0
      stamp: 
        secs: 1574453588
        nsecs: 291823000
      frame_id: "map"
    child_frame_id: "velodyne"
    transform: 
      translation: 
        x: -15.6227340698
        y: -334.758758545
        z: -7.09233188629
      rotation: 
        x: 0.0293362531811
        y: 0.0210609752685
        z: -0.835637390614
        w: 0.548093020916
---
transforms: 
  - 
    header: 
      seq: 0
      stamp: 
        secs: 1574453588
        nsecs: 393806000
      frame_id: "map"
    child_frame_id: "velodyne"
    transform: 
      translation: 
        x: -18.6894874573
        y: -335.574768066
        z: -7.58947467804
      rotation: 
        x: 0.0241100024432
        y: 0.0112822987139
        z: -0.842140197754
        w: 0.538601338863
---
transforms: 
  - 
    header: 
      seq: 0
      stamp: 
        secs: 1574453588
        nsecs: 495834000
      frame_id: "map"
    child_frame_id: "velodyne"
    transform: 
      translation: 
        x: -21.3205547333
        y: -336.857849121
        z: -7.65418958664
      rotation: 
        x: 0.026962717995
        y: 0.0152569515631
        z: -0.864622175694
        w: 0.501466631889
---
transforms: 
  - 
    header: 
      seq: 0
      stamp: 
        secs: 1574453588
        nsecs: 597803000
      frame_id: "map"
    child_frame_id: "velodyne"
    transform: 
      translation: 
        x: -22.6586780548
        y: -339.410980225
        z: -7.6832408905
      rotation: 
        x: -0.0250186882913
        y: -0.00931286532432
        z: 0.899246513844
        w: -0.436626970768
---
transforms: 
  - 
    header: 
      seq: 0
      stamp: 
        secs: 1574453588
        nsecs: 801827000
      frame_id: "map"
    child_frame_id: "velodyne"
    transform: 
      translation: 
        x: -23.2325706482
        y: -340.129547119
        z: -7.72559833527
      rotation: 
        x: -0.0223483089358
        y: -0.0180877689272
        z: 0.912965357304
        w: -0.407022953033
---
transforms: 
  - 
    header: 
      seq: 0
      stamp: 
        secs: 1574453588
        nsecs: 903830000
      frame_id: "map"
    child_frame_id: "velodyne"
    transform: 
      translation: 
        x: -23.4789199829
        y: -340.407653809
        z: -7.75107383728
      rotation: 
        x: -0.0228954590857
        y: -0.0172983091325
        z: 0.913725018501
        w: -0.405318707228
---
transforms: 
  - 
    header: 
      seq: 0
      stamp: 
        secs: 1574453589
        nsecs:   5825000
      frame_id: "map"
    child_frame_id: "velodyne"
    transform: 
      translation: 
        x: -23.7508296967
        y: -340.647460938
        z: -7.74253797531
      rotation: 
        x: -0.0212603919208
        y: -0.0197756253183
        z: 0.921345353127
        w: -0.387659192085
---
transforms: 
  - 
    header: 
      seq: 0
      stamp: 
        secs: 1574453589
        nsecs: 107799000
      frame_id: "map"
    child_frame_id: "velodyne"
    transform: 
      translation: 
        x: -24.0433235168
        y: -340.85760498
        z: -7.75357246399
      rotation: 
        x: -0.0209927801043
        y: -0.0146886743605
        z: 0.92727547884
        w: -0.373502075672
---
transforms: 
  - 
    header: 
      seq: 0
      stamp: 
        secs: 1574453589
        nsecs: 209826000
      frame_id: "map"
    child_frame_id: "velodyne"
    transform: 
      translation: 
        x: -24.3596782684
        y: -341.077514648
        z: -7.74676704407
      rotation: 
        x: -0.0193017013371
        y: -0.0129310991615
        z: 0.933385193348
        w: -0.358123421669
---
transforms: 
  - 
    header: 
      seq: 0
      stamp: 
        secs: 1574453589
        nsecs: 311884000
      frame_id: "map"
    child_frame_id: "velodyne"
    transform: 
      translation: 
        x: -24.6685733795
        y: -341.296478271
        z: -7.75420665741
      rotation: 
        x: -0.019158096984
        y: -0.0109198829159
        z: 0.938861191273
        w: -0.343589246273
---
transforms: 
  - 
    header: 
      seq: 0
      stamp: 
        secs: 1574453589
        nsecs: 413797000
      frame_id: "map"
    child_frame_id: "velodyne"
    transform: 
      translation: 
        x: -24.9822330475
        y: -341.502197266
        z: -7.77638101578
      rotation: 
        x: -0.0177163295448
        y: -0.011565040797
        z: 0.943956911564
        w: -0.329389929771
---
transforms: 
  - 
    header: 
      seq: 0
      stamp: 
        secs: 1574453589
        nsecs: 515826000
      frame_id: "map"
    child_frame_id: "velodyne"
    transform: 
      translation: 
        x: -25.2991542816
        y: -341.70199585
        z: -7.80181884766
      rotation: 
        x: -0.0176174435765
        y: -0.0108622293919
        z: 0.948940217495
        w: -0.314776271582
---
transforms: 
  - 
    header: 
      seq: 0
      stamp: 
        secs: 1574453589
        nsecs: 617818000
      frame_id: "map"
    child_frame_id: "velodyne"
    transform: 
      translation: 
        x: -25.6129837036
        y: -341.890655518
        z: -7.81806993484
      rotation: 
        x: -0.0178215354681
        y: -0.0114708859473
        z: 0.953647136688
        w: -0.300179958344
---
transforms: 
  - 
    header: 
      seq: 0
      stamp: 
        secs: 1574453589
        nsecs: 719823000
      frame_id: "map"
    child_frame_id: "velodyne"
    transform: 
      translation: 
        x: -25.9441890717
        y: -342.08013916
        z: -7.84646129608
      rotation: 
        x: -0.0206682514399
        y: -0.00864711031318
        z: 0.957712113857
        w: -0.286854565144
---
transforms: 
  - 
    header: 
      seq: 0
      stamp: 
        secs: 1574453589
        nsecs: 821822000
      frame_id: "map"
    child_frame_id: "velodyne"
    transform: 
      translation: 
        x: -26.2867832184
        y: -342.26461792
        z: -7.84272527695
      rotation: 
        x: -0.0217209924012
        y: -0.0101435324177
        z: 0.961358904839
        w: -0.274252533913
---
transforms: 
  - 
    header: 
      seq: 0
      stamp: 
        secs: 1574453589
        nsecs: 923793000
      frame_id: "map"
    child_frame_id: "velodyne"
    transform: 
      translation: 
        x: -26.636800766
        y: -342.452270508
        z: -7.8454208374
      rotation: 
        x: -0.0222379900515
        y: -0.0107366982847
        z: 0.965104401112
        w: -0.260698527098
---
transforms: 
  - 
    header: 
      seq: 0
      stamp: 
        secs: 1574453590
        nsecs:  25817000
      frame_id: "map"
    child_frame_id: "velodyne"
    transform: 
      translation: 
        x: -26.986661911
        y: -342.637145996
        z: -7.85535383224
      rotation: 
        x: -0.0217155218124
        y: -0.0104469330981
        z: 0.96858227253
        w: -0.247523233294
---
transforms: 
  - 
    header: 
      seq: 0
      stamp: 
        secs: 1574453590
        nsecs: 127821000
      frame_id: "map"
    child_frame_id: "velodyne"
    transform: 
      translation: 
        x: -27.3395729065
        y: -342.805023193
        z: -7.85697221756
      rotation: 
        x: -0.0207410678267
        y: -0.0102595323697
        z: 0.971772313118
        w: -0.234783247113
---
transforms: 
  - 
    header: 
      seq: 0
      stamp: 
        secs: 1574453590
        nsecs: 229803000
      frame_id: "map"
    child_frame_id: "velodyne"
    transform: 
      translation: 
        x: -27.7042713165
        y: -342.952667236
        z: -7.88246965408
      rotation: 
        x: -0.0202333405614
        y: -0.00859595369548
        z: 0.974831104279
        w: -0.221858233213
---
transforms: 
  - 
    header: 
      seq: 0
      stamp: 
        secs: 1574453590
        nsecs: 331789000
      frame_id: "map"
    child_frame_id: "velodyne"
    transform: 
      translation: 
        x: -28.0867462158
        y: -343.096618652
        z: -7.90428066254
      rotation: 
        x: -0.0193531289697
        y: -0.00674369744956
        z: 0.980559289455
        w: -0.195149883628
---
transforms: 
  - 
    header: 
      seq: 0
      stamp: 
        secs: 1574453590
        nsecs: 433830000
      frame_id: "map"
    child_frame_id: "velodyne"
    transform: 
      translation: 
        x: -28.4348506927
        y: -343.223083496
        z: -7.91146421432
      rotation: 
        x: -0.0222086142749
        y: -0.00504847615957
        z: 0.97992092371
        w: -0.198081403971
---
transforms: 
  - 
    header: 
      seq: 0
      stamp: 
        secs: 1574453590
        nsecs: 535789000
      frame_id: "map"
    child_frame_id: "velodyne"
    transform: 
      translation: 
        x: -28.819475174
        y: -343.362243652
        z: -7.91574954987
      rotation: 
        x: -0.0199739672244
        y: -0.00693684304133
        z: 0.983047127724
        w: -0.182129949331
---
transforms: 
  - 
    header: 
      seq: 0
      stamp: 
        secs: 1574453590
        nsecs: 637805000
      frame_id: "map"
    child_frame_id: "velodyne"
    transform: 
      translation: 
        x: -29.2034759521
        y: -343.494842529
        z: -7.92182302475
      rotation: 
        x: -0.016879292205
        y: -0.00746136903763
        z: 0.985223770142
        w: -0.170275062323
---
transforms: 
  - 
    header: 
      seq: 0
      stamp: 
        secs: 1574453590
        nsecs: 739787000
      frame_id: "map"
    child_frame_id: "velodyne"
    transform: 
      translation: 
        x: -29.5910987854
        y: -343.627929688
        z: -7.95506715775
      rotation: 
        x: -0.0151020940393
        y: -0.00766661437228
        z: 0.987332582474
        w: -0.157758042216
---
transforms: 
  - 
    header: 
      seq: 0
      stamp: 
        secs: 1574453590
        nsecs: 841826000
      frame_id: "map"
    child_frame_id: "velodyne"
    transform: 
      translation: 
        x: -29.9906005859
        y: -343.736297607
        z: -7.95826005936
      rotation: 
        x: -0.0146050918847
        y: -0.00631209369749
        z: 0.989252567291
        w: -0.145348727703
---
transforms: 
  - 
    header: 
      seq: 0
      stamp: 
        secs: 1574453590
        nsecs: 943788000
      frame_id: "map"
    child_frame_id: "velodyne"
    transform: 
      translation: 
        x: -30.3900547028
        y: -343.847930908
        z: -7.96636629105
      rotation: 
        x: -0.0138227213174
        y: -0.0059385644272
