transforms: 
  - 
    header: 
      seq: 0
      stamp: 
        secs: 1574453573
        nsecs: 909948000
      frame_id: "map"
    child_frame_id: "velodyne"
    transform: 
      translation: 
        x: -0.345853626728
        y: 0.606485843658
        z: -2.37598323822
      rotation: 
        x: 0.0328305736184
        y: 0.00866276491433
        z: -0.000908938061912
        w: 0.999422967434
---
transforms: 
  - 
    header: 
      seq: 0
      stamp: 
        secs: 1574453574
        nsecs:  12010000
      frame_id: "map"
    child_frame_id: "velodyne"
    transform: 
      translation: 
        x: 0.128685235977
        y: -280.196380615
        z: -5.87375545502
      rotation: 
        x: 0.0167535897344
        y: 0.00830348487943
        z: -0.504272222519
        w: 0.863342285156
---
transforms: 
  - 
    header: 
      seq: 0
      stamp: 
        secs: 1574453576
        nsecs: 459923000
      frame_id: "map"
    child_frame_id: "velodyne"
    transform: 
      translation: 
        x: -0.722573041916
        y: -279.87878418
        z: -5.82326698303
      rotation: 
        x: 0.0236092545092
        y: -0.0436145700514
        z: -0.586327731609
        w: 0.808554410934
---
transforms: 
  - 
    header: 
      seq: 0
      stamp: 
        secs: 1574453576
        nsecs: 561930000
      frame_id: "map"
    child_frame_id: "velodyne"
    transform: 
      translation: 
        x: -0.378318339586
        y: -282.237304688
        z: -5.92463111877
      rotation: 
        x: 0.0161828249693
        y: 0.0145676303655
        z: -0.571050405502
        w: 0.820626199245
---
transforms: 
  - 
    header: 
      seq: 0
      stamp: 
        secs: 1574453576
        nsecs: 663915000
      frame_id: "map"
    child_frame_id: "velodyne"
    transform: 
      translation: 
        x: 0.206240743399
        y: -282.91217041
        z: -5.95658302307
      rotation: 
        x: 0.0196604765952
        y: -0.0167453922331
        z: -0.57612067461
        w: 0.816956579685
---
transforms: 
  - 
    header: 
      seq: 0
      stamp: 
        secs: 1574453576
        nsecs: 765928000
      frame_id: "map"
    child_frame_id: "velodyne"
    transform: 
      translation: 
        x: -1.72837090492
        y: -282.543640137
        z: -5.8681936264
      rotation: 
        x: 0.0135661549866
        y: 0.00364175974391
        z: -0.659678041935
        w: 0.75141710043
---
transforms: 
  - 
    header: 
      seq: 0
      stamp: 
        secs: 1574453576
        nsecs: 969927000
      frame_id: "map"
    child_frame_id: "velodyne"
    transform: 
      translation: 
        x: -1.50867569447
        y: -283.413024902
        z: -5.89510583878
      rotation: 
        x: 0.0140301026404
        y: -0.00552442623302
        z: -0.734685957432
        w: 0.678239822388
---
transforms: 
  - 
    header: 
      seq: 0
      stamp: 
        secs: 1574453577
        nsecs:  71936000
      frame_id: "map"
    child_frame_id: "velodyne"
    transform: 
      translation: 
        x: -1.47344589233
        y: -283.74307251
        z: -5.91690778732
      rotation: 
        x: 0.0125951403752
        y: 0.00226378114894
        z: -0.714691579342
        w: 0.699322760105
---
transforms: 
  - 
    header: 
      seq: 0
      stamp: 
        secs: 1574453577
        nsecs: 173910000
      frame_id: "map"
    child_frame_id: "velodyne"
    transform: 
      translation: 
        x: -1.42483341694
        y: -284.049163818
        z: -5.90768909454
      rotation: 
        x: 0.0130159212276
        y: 0.00116369256284
        z: -0.723673641682
        w: 0.69001865387
---
transforms: 
  - 
    header: 
      seq: 0
      stamp: 
        secs: 1574453577
        nsecs: 275911000
      frame_id: "map"
    child_frame_id: "velodyne"
    transform: 
      translation: 
        x: -1.41038405895
        y: -284.391418457
        z: -5.91876220703
      rotation: 
        x: 0.0118944169953
        y: 0.00246909307316
        z: -0.729706227779
        w: 0.683652877808
---
transforms: 
  - 
    header: 
      seq: 0
      stamp: 
        secs: 1574453577
        nsecs: 377900000
      frame_id: "map"
    child_frame_id: "velodyne"
    transform: 
      translation: 
        x: -1.42609250546
        y: -284.730529785
        z: -5.93126869202
      rotation: 
        x: 0.0134572889656
        y: 0.0023025914561
        z: -0.736141324043
        w: 0.676690220833
---
transforms: 
  - 
    header: 
      seq: 0
      stamp: 
        secs: 1574453577
        nsecs: 479891000
      frame_id: "map"
    child_frame_id: "velodyne"
    transform: 
      translation: 
        x: -1.46781218052
        y: -285.072509766
        z: -5.92735481262
      rotation: 
        x: 0.013251057826
        y: 0.00231906794943
        z: -0.742043673992
        w: 0.670216560364
---
transforms: 
  - 
    header: 
      seq: 0
      stamp: 
        secs: 1574453577
        nsecs: 581919000
      frame_id: "map"
    child_frame_id: "velodyne"
    transform: 
      translation: 
        x: -1.51796257496
        y: -285.447631836
        z: -5.94630241394
      rotation: 
        x: 0.0140695935115
        y: 0.00211911974475
        z: -0.748100697994
        w: 0.663432657719
---
transforms: 
  - 
    header: 
      seq: 0
      stamp: 
        secs: 1574453577
        nsecs: 683920000
      frame_id: "map"
    child_frame_id: "velodyne"
    transform: 
      translation: 
        x: -1.58950996399
        y: -285.839294434
        z: -5.95703840256
      rotation: 
        x: 0.0150177916512
        y: 0.00294643524103
        z: -0.753839731216
        w: 0.656880199909
---
transforms: 
  - 
    header: 
      seq: 0
      stamp: 
        secs: 1574453577
        nsecs: 785889000
      frame_id: "map"
    child_frame_id: "velodyne"
    transform: 
      translation: 
        x: -1.67343199253
        y: -286.23147583
        z: -5.97374868393
      rotation: 
        x: 0.0147543102503
        y: 0.00299392873421
        z: -0.759317994118
        w: 0.650545537472
---
transforms: 
  - 
    header: 
      seq: 0
      stamp: 
        secs: 1574453577
        nsecs: 887889000
      frame_id: "map"
    child_frame_id: "velodyne"
    transform: 
      translation: 
        x: -1.7645740509
        y: -286.626403809
        z: -6.00167512894
      rotation: 
        x: 0.0155553529039
        y: 0.00401676865295
        z: -0.764416277409
        w: 0.64452278614
---
transforms: 
  - 
    header: 
      seq: 0
      stamp: 
        secs: 1574453577
        nsecs: 989922000
      frame_id: "map"
    child_frame_id: "velodyne"
    transform: 
      translation: 
        x: -1.8640319109
        y: -287.036712646
        z: -6.0107383728
      rotation: 
        x: 0.0148839112371
        y: 0.00404138909653
        z: -0.769132137299
        w: 0.638903677464
---
transforms: 
  - 
    header: 
      seq: 0
      stamp: 
        secs: 1574453578
        nsecs:  91911000
      frame_id: "map"
    child_frame_id: "velodyne"
    transform: 
      translation: 
        x: -1.97167384624
        y: -287.453186035
        z: -6.03107881546
      rotation: 
        x: 0.0153953451663
        y: 0.00454645650461
        z: -0.773394525051
        w: 0.633721768856
---
transforms: 
  - 
    header: 
      seq: 0
      stamp: 
        secs: 1574453578
        nsecs: 193897000
      frame_id: "map"
    child_frame_id: "velodyne"
    transform: 
      translation: 
        x: -2.07958340645
        y: -287.887664795
        z: -6.04445314407
      rotation: 
        x: 0.0153244556859
        y: 0.00506489910185
        z: -0.777219712734
        w: 0.629022300243
---
transforms: 
  - 
    header: 
      seq: 0
      stamp: 
        secs: 1574453578
        nsecs: 295907000
      frame_id: "map"
    child_frame_id: "velodyne"
    transform: 
      translation: 
        x: -2.19170236588
        y: -288.342712402
        z: -6.07161188126
      rotation: 
        x: 0.0151823265478
        y: 0.00558872101828
        z: -0.780793190002
        w: 0.624580025673
---
transforms: 
  - 
    header: 
      seq: 0
      stamp: 
        secs: 1574453578
        nsecs: 397910000
      frame_id: "map"
    child_frame_id: "velodyne"
    transform: 
      translation: 
        x: -2.31289291382
        y: -288.805786133
        z: -6.09287023544
      rotation: 
        x: 0.015408506617
        y: 0.0063842269592
        z: -0.784320414066
        w: 0.620131731033
---
transforms: 
  - 
    header: 
      seq: 0
      stamp: 
        secs: 1574453578
        nsecs: 499884000
      frame_id: "map"
    child_frame_id: "velodyne"
    transform: 
      translation: 
        x: -2.4398393631
        y: -289.26965332
        z: -6.10542821884
      rotation: 
        x: 0.01423662249
        y: 0.00675909454003
        z: -0.787599444389
        w: 0.615985989571
---
transforms: 
  - 
    header: 
      seq: 0
      stamp: 
        secs: 1574453578
        nsecs: 601901000
      frame_id: "map"
    child_frame_id: "velodyne"
    transform: 
      translation: 
        x: -2.55394506454
        y: -289.756744385
        z: -6.12988615036
      rotation: 
        x: 0.0143079459667
        y: 0.00682990066707
        z: -0.79070931673
        w: 0.611986398697
---
transforms: 
  - 
    header: 
      seq: 0
      stamp: 
        secs: 1574453578
        nsecs: 703909000
      frame_id: "map"
    child_frame_id: "velodyne"
    transform: 
      translation: 
        x: -2.67687177658
        y: -290.230163574
        z: -6.15605068207
      rotation: 
        x: 0.0127890948206
        y: 0.00801102817059
        z: -0.794139504433
        w: 0.607548058033
---
transforms: 
  - 
    header: 
      seq: 0
      stamp: 
        secs: 1574453578
        nsecs: 805882000
      frame_id: "map"
    child_frame_id: "velodyne"
    transform: 
      translation: 
        x: -2.80709600449
        y: -290.734527588
        z: -6.17455148697
      rotation: 
        x: 0.0104449959472
        y: 0.00713920406997
        z: -0.798041045666
        w: 0.602470338345
---
transforms: 
  - 
    header: 
      seq: 0
      stamp: 
        secs: 1574453578
        nsecs: 907905000
      frame_id: "map"
    child_frame_id: "velodyne"
    transform: 
      translation: 
        x: -2.96311736107
        y: -291.242614746
        z: -6.16433572769
      rotation: 
        x: 0.0112423170358
        y: 0.00599971832708
        z: -0.802380144596
        w: 0.596677184105
---
transforms: 
  - 
    header: 
      seq: 0
      stamp: 
        secs: 1574453579
        nsecs:   9878000
      frame_id: "map"
    child_frame_id: "velodyne"
    transform: 
      translation: 
        x: -3.13382935524
        y: -291.717987061
        z: -6.19157838821
      rotation: 
        x: 0.0122175840661
        y: 0.00745046976954
        z: -0.806803882122
        w: 0.590646028519
---
transforms: 
  - 
    header: 
      seq: 0
      stamp: 
        secs: 1574453579
        nsecs: 111982000
      frame_id: "map"
    child_frame_id: "velodyne"
    transform: 
      translation: 
        x: -3.30844426155
        y: -292.206665039
        z: -6.20613145828
      rotation: 
        x: 0.0135458167642
        y: 0.0071326540783
        z: -0.811064243317
        w: 0.584756731987
---
transforms: 
  - 
    header: 
      seq: 0
      stamp: 
        secs: 1574453579
        nsecs: 213882000
      frame_id: "map"
    child_frame_id: "velodyne"
    transform: 
      translation: 
        x: -3.47883558273
        y: -292.708465576
        z: -6.2225151062
      rotation: 
        x: 0.0131912482902
        y: 0.00864553730935
        z: -0.814983844757
        w: 0.579268932343
---
transforms: 
  - 
    header: 
      seq: 0
      stamp: 
        secs: 1574453579
        nsecs: 315880000
      frame_id: "map"
    child_frame_id: "velodyne"
    transform: 
      translation: 
        x: -3.65130448341
        y: -293.197357178
        z: -6.24794578552
      rotation: 
        x: 0.0143541060388
        y: 0.00926225446165
        z: -0.818804979324
        w: 0.573817551136
---
transforms: 
  - 
    header: 
      seq: 0
      stamp: 
        secs: 1574453579
        nsecs: 417877000
      frame_id: "map"
    child_frame_id: "velodyne"
    transform: 
      translation: 
        x: -3.83296060562
        y: -293.709716797
        z: -6.24039793015
      rotation: 
        x: 0.0148217771202
        y: 0.00920275691897
        z: -0.822155058384
        w: 0.56899613142
---
transforms: 
  - 
    header: 
      seq: 0
      stamp: 
        secs: 1574453579
        nsecs: 519886000
      frame_id: "map"
    child_frame_id: "velodyne"
    transform: 
      translation: 
        x: -4.03129005432
        y: -294.226654053
        z: -6.24491882324
      rotation: 
        x: 0.0133990542963
        y: 0.00826712604612
        z: -0.825097739697
        w: 0.564770698547
---
transforms: 
  - 
    header: 
      seq: 0
      stamp: 
        secs: 1574453579
        nsecs: 621912000
      frame_id: "map"
    child_frame_id: "velodyne"
    transform: 
      translation: 
        x: -4.23326826096
        y: -294.722961426
        z: -6.25738573074
      rotation: 
        x: 0.0129704931751
        y: 0.00732992682606
        z: -0.828160226345
        w: 0.56029343605
---
transforms: 
  - 
    header: 
      seq: 0
      stamp: 
        secs: 1574453579
        nsecs: 723901000
      frame_id: "map"
    child_frame_id: "velodyne"
    transform: 
      translation: 
        x: -4.42129850388
        y: -295.246643066
        z: -6.28809642792
      rotation: 
        x: 0.012691764161
        y: 0.00845955032855
        z: -0.830585479736
        w: 0.556682288647
---
transforms: 
  - 
    header: 
      seq: 0
      stamp: 
        secs: 1574453579
        nsecs: 825875000
      frame_id: "map"
    child_frame_id: "velodyne"
    transform: 
      translation: 
        x: -4.62939596176
        y: -295.755157471
        z: -6.30898427963
      rotation: 
        x: 0.0128632420674
        y: 0.00892134569585
        z: -0.832948863506
        w: 0.553128600121
---
transforms: 
  - 
    header: 
      seq: 0
      stamp: 
        secs: 1574453579
        nsecs: 927897000
      frame_id: "map"
    child_frame_id: "velodyne"
    transform: 
      translation: 
        x: -4.84516429901
        y: -296.263916016
        z: -6.32042169571
      rotation: 
        x: 0.012632961385
        y: 0.00907895620912
        z: -0.835386514664
        w: 0.549442768097
---
transforms: 
  - 
    header: 
      seq: 0
      stamp: 
        secs: 1574453580
        nsecs:  29902000
      frame_id: "map"
    child_frame_id: "velodyne"
    transform: 
      translation: 
        x: -5.06407546997
        y: -296.773681641
        z: -6.34207630157
      rotation: 
        x: 0.0128057505935
        y: 0.00879793893546
        z: -0.837734162807
        w: 0.545857310295
---
transforms: 
  - 
    header: 
      seq: 0
      stamp: 
        secs: 1574453580
        nsecs: 131895000
      frame_id: "map"
    child_frame_id: "velodyne"
    transform: 
      translation: 
        x: -5.28197431564
        y: -297.29284668
        z: -6.34967041016
      rotation: 
        x: 0.0125826187432
        y: 0.00789113622159
        z: -0.839629113674
        w: 0.542957127094
---
transforms: 
  - 
    header: 
      seq: 0
      stamp: 
        secs: 1574453580
        nsecs: 233902000
      frame_id: "map"
    child_frame_id: "velodyne"
    transform: 
      translation: 
        x: -5.50700998306
        y: -297.800323486
        z: -6.36227369308
      rotation: 
        x: 0.0125543922186
        y: 0.00737506290898
        z: -0.840702950954
        w: 0.54130089283
---
transforms: 
  - 
    header: 
      seq: 0
      stamp: 
        secs: 1574453580
        nsecs: 335870000
      frame_id: "map"
    child_frame_id: "velodyne"
    transform: 
      translation: 
        x: -5.72912454605
        y: -298.312927246
        z: -6.37627077103
      rotation: 
        x: 0.0121093811467
        y: 0.00681187678128
        z: -0.841715157032
        w: 0.539743006229
---
transforms: 
  - 
    header: 
      seq: 0
      stamp: 
        secs: 1574453580
        nsecs: 437866000
      frame_id: "map"
    child_frame_id: "velodyne"
    transform: 
      translation: 
        x: -5.94094419479
        y: -298.851104736
        z: -6.38695812225
      rotation: 
        x: 0.0123996520415
        y: 0.00671639852226
        z: -0.842117488384
        w: 0.539109766483
---
transforms: 
  - 
    header: 
      seq: 0
      stamp: 
        secs: 1574453580
        nsecs: 539895000
      frame_id: "map"
    child_frame_id: "velodyne"
    transform: 
      translation: 
        x: -6.16174030304
        y: -299.380218506
        z: -6.41482925415
      rotation: 
        x: 0.0126904286444
        y: 0.00666159437969
        z: -0.841756761074
        w: 0.539666831493
---
transforms: 
  - 
    header: 
      seq: 0
      stamp: 
        secs: 1574453580
        nsecs: 641865000
      frame_id: "map"
    child_frame_id: "velodyne"
    transform: 
      translation: 
        x: -6.39307451248
        y: -299.924560547
        z: -6.42686986923
      rotation: 
        x: 0.0126356445253
        y: 0.00677593518049
        z: -0.841234266758
        w: 0.540480673313
---
transforms: 
  - 
    header: 
      seq: 0
      stamp: 
        secs: 1574453580
        nsecs: 743877000
      frame_id: "map"
    child_frame_id: "velodyne"
    transform: 
      translation: 
        x: -6.62284946442
        y: -300.46673584
        z: -6.45161437988
      rotation: 
        x: 0.0124802580103
        y: 0.00756846135482
        z: -0.840878784657
        w: 0.541026651859
---
transforms: 
  - 
    header: 
      seq: 0
      stamp: 
        secs: 1574453580
        nsecs: 845870000
      frame_id: "map"
    child_frame_id: "velodyne"
    transform: 
      translation: 
        x: -6.8512301445
        y: -301.015930176
        z: -6.46587896347
      rotation: 
        x: 0.0125754391775
        y: 0.00786837656051
        z: -0.840519845486
        w: 0.5415776968
---
transforms: 
  - 
    header: 
      seq: 0
      stamp: 
        secs: 1574453580
        nsecs: 947863000
      frame_id: "map"
    child_frame_id: "velodyne"
    transform: 
      translation: 
        x: -7.08598470688
        y: -301.56842041
        z: -6.49224758148
      rotation: 
        x: 0.0135672548786
        y: 0.00769061781466
        z: -0.840014755726
        w: 0.54233944416
---
transforms: 
  - 
    header: 
      seq: 0
      stamp: 
        secs: 1574453581
        nsecs:  49894000
      frame_id: "map"
    child_frame_id: "velodyne"
    transform: 
      translation: 
        x: -7.32343482971
        y: -302.103881836
        z: -6.49966621399
      rotation: 
        x: 0.0143696069717
        y: 0.00765669625252
        z: -0.839676260948
        w: 0.542843103409
---
transforms: 
  - 
    header: 
      seq: 0
      stamp: 
        secs: 1574453581
        nsecs: 151888000
      frame_id: "map"
    child_frame_id: "velodyne"
    transform: 
      translation: 
        x: -7.55390071869
        y: -302.642120361
        z: -6.51342964172
      rotation: 
        x: 0.0144733637571
        y: 0.00815118011087
        z: -0.839408576488
        w: 0.543247163296
---
transforms: 
  - 
    header: 
      seq: 0
      stamp: 
        secs: 1574453581
        nsecs: 253891000
      frame_id: "map"
    child_frame_id: "velodyne"
    transform: 
      translation: 
        x: -7.7830529213
        y: -303.188140869
        z: -6.53500509262
      rotation: 
        x: 0.0139954183251
        y: 0.00853576231748
        z: -0.83915656805
        w: 0.543642938137
---
transforms: 
  - 
    header: 
      seq: 0
      stamp: 
        secs: 1574453581
        nsecs: 355875000
      frame_id: "map"
    child_frame_id: "velodyne"
    transform: 
      translation: 
        x: -8.01906490326
        y: -303.734741211
        z: -6.53959989548
      rotation: 
        x: 0.013658487238
        y: 0.00888798385859
        z: -0.839188039303
        w: 0.543597221375
---
transforms: 
  - 
    header: 
      seq: 0
      stamp: 
        secs: 1574453581
        nsecs: 457872000
      frame_id: "map"
    child_frame_id: "velodyne"
    transform: 
      translation: 
        x: -8.25108337402
        y: -304.288269043
        z: -6.57074117661
      rotation: 
        x: 0.0135180754587
        y: 0.00900363270193
        z: -0.839572012424
        w: 0.543005645275
---
transforms: 
  - 
    header: 
      seq: 0
      stamp: 
        secs: 1574453581
        nsecs: 559886000
      frame_id: "map"
    child_frame_id: "velodyne"
    transform: 
      translation: 
        x: -8.48628330231
        y: -304.83215332
        z: -6.57613754272
      rotation: 
        x: 0.0132356798276
        y: 0.00882411468774
        z: -0.839996278286
        w: 0.542358994484
---
transforms: 
  - 
    header: 
      seq: 0
      stamp: 
        secs: 1574453581
        nsecs: 661858000
      frame_id: "map"
    child_frame_id: "velodyne"
    transform: 
      translation: 
        x: -8.73356342316
        y: -305.375488281
        z: -6.59819030762
      rotation: 
        x: 0.0135566946119
        y: 0.00805287715048
        z: -0.840297877789
        w: 0.54189568758
---
transforms: 
  - 
    header: 
      seq: 0
      stamp: 
        secs: 1574453581
        nsecs: 763886000
      frame_id: "map"
    child_frame_id: "velodyne"
    transform: 
      translation: 
        x: -8.97845745087
        y: -305.914245605
        z: -6.60937023163
      rotation: 
        x: 0.0137444632128
        y: 0.00781095353886
        z: -0.840707540512
        w: 0.541258692741
---
transforms: 
  - 
    header: 
      seq: 0
      stamp: 
        secs: 1574453581
        nsecs: 865880000
      frame_id: "map"
    child_frame_id: "velodyne"
    transform: 
      translation: 
        x: -9.22820472717
        y: -306.452087402
        z: -6.63367652893
      rotation: 
        x: 0.013040679507
        y: 0.00814832467586
        z: -0.841099441051
        w: 0.540661931038
---
transforms: 
  - 
    header: 
      seq: 0
      stamp: 
        secs: 1574453581
        nsecs: 967853000
      frame_id: "map"
    child_frame_id: "velodyne"
    transform: 
      translation: 
        x: -9.46449661255
        y: -306.985961914
        z: -6.6568608284
      rotation: 
        x: 0.0120302829891
        y: 0.00820579566061
        z: -0.841380834579
        w: 0.540246486664
---
transforms: 
  - 
    header: 
      seq: 0
      stamp: 
        secs: 1574453582
        nsecs:  69858000
      frame_id: "map"
    child_frame_id: "velodyne"
    transform: 
      translation: 
        x: -9.71087932587
        y: -307.528839111
        z: -6.66623687744
      rotation: 
        x: 0.0100978482515
        y: 0.00803545955569
        z: -0.841624259949
        w: 0.539909362793
---
transforms: 
  - 
    header: 
      seq: 0
      stamp: 
        secs: 1574453582
        nsecs: 171851000
      frame_id: "map"
    child_frame_id: "velodyne"
    transform: 
      translation: 
        x: -9.96083545685
        y: -308.07244873
        z: -6.66762065887
      rotation: 
        x: 0.00951290689409
        y: 0.00767362350598
        z: -0.841840803623
        w: 0.53958761692
---
transforms: 
  - 
    header: 
      seq: 0
      stamp: 
        secs: 1574453582
        nsecs: 273883000
      frame_id: "map"
    child_frame_id: "velodyne"
    transform: 
      translation: 
        x: -10.2148609161
        y: -308.623321533
        z: -6.66359806061
      rotation: 
        x: 0.0100589618087
        y: 0.00580334523693
        z: -0.84212577343
        w: 0.539156198502
---
transforms: 
  - 
    header: 
      seq: 0
      stamp: 
        secs: 1574453582
        nsecs: 375851000
      frame_id: "map"
    child_frame_id: "velodyne"
    transform: 
      translation: 
        x: -10.4599628448
        y: -309.171142578
        z: -6.68179893494
      rotation: 
        x: 0.0113380476832
        y: 0.00797587167472
        z: -0.842473387718
        w: 0.538559556007
---
transforms: 
  - 
    header: 
      seq: 0
      stamp: 
        secs: 1574453582
        nsecs: 477864000
      frame_id: "map"
    child_frame_id: "velodyne"
    transform: 
      translation: 
        x: -10.7468013763
        y: -309.730773926
        z: -6.6784825325
      rotation: 
        x: 0.0124136768281
        y: 0.00919806864113
        z: -0.842789888382
        w: 0.538021087646
---
transforms: 
  - 
    header: 
      seq: 0
      stamp: 
        secs: 1574453582
        nsecs: 579879000
      frame_id: "map"
    child_frame_id: "velodyne"
    transform: 
      translation: 
        x: -11.034072876
        y: -310.306365967
        z: -6.72905683517
      rotation: 
        x: 0.0129579650238
        y: 0.0108508346602
        z: -0.843154907227
        w: 0.537405014038
---
transforms: 
  - 
    header: 
      seq: 0
      stamp: 
        secs: 1574453582
        nsecs: 681847000
      frame_id: "map"
    child_frame_id: "velodyne"
    transform: 
      translation: 
        x: -11.3452253342
        y: -310.915222168
        z: -6.75056743622
      rotation: 
        x: 0.0144815556705
        y: 0.0108731565997
        z: -0.843541026115
        w: 0.536759376526
---
transforms: 
  - 
    header: 
      seq: 0
      stamp: 
        secs: 1574453582
        nsecs: 783875000
      frame_id: "map"
    child_frame_id: "velodyne"
    transform: 
      translation: 
        x: -11.627737999
        y: -311.507751465
        z: -6.78174352646
      rotation: 
        x: 0.0130112599581
        y: 0.0104093533009
        z: -0.84418618679
        w: 0.535791039467
---
transforms: 
  - 
    header: 
      seq: 0
      stamp: 
        secs: 1574453582
        nsecs: 885878000
      frame_id: "map"
    child_frame_id: "velodyne"
    transform: 
      translation: 
        x: -11.9096126556
        y: -312.066589355
        z: -6.80977392197
      rotation: 
        x: 0.0127051426098
        y: 0.0101768793538
        z: -0.844070911407
        w: 0.535984456539
---
transforms: 
  - 
    header: 
      seq: 0
      stamp: 
        secs: 1574453582
        nsecs: 987847000
      frame_id: "map"
    child_frame_id: "velodyne"
    transform: 
      translation: 
        x: -12.179473877
        y: -312.661254883
        z: -6.81843185425
      rotation: 
        x: 0.012523829937
        y: 0.0105556333438
        z: -0.843827426434
        w: 0.536364614964
---
transforms: 
  - 
    header: 
      seq: 0
      stamp: 
        secs: 1574453583
        nsecs:  89860000
      frame_id: "map"
    child_frame_id: "velodyne"
    transform: 
      translation: 
        x: -12.4355783463
        y: -313.251464844
        z: -6.84005594254
      rotation: 
        x: 0.0132351499051
        y: 0.0105441762134
        z: -0.843653082848
        w: 0.536621928215
---
transforms: 
  - 
    header: 
      seq: 0
      stamp: 
        secs: 1574453583
        nsecs: 191848000
      frame_id: "map"
    child_frame_id: "velodyne"
    transform: 
      translation: 
        x: -12.7077350616
        y: -313.830230713
        z: -6.85598373413
      rotation: 
        x: 0.0136576453224
        y: 0.0110855652019
        z: -0.843110561371
        w: 0.537452578545
---
transforms: 
  - 
    header: 
      seq: 0
      stamp: 
        secs: 1574453583
        nsecs: 293876000
      frame_id: "map"
    child_frame_id: "velodyne"
    transform: 
      translation: 
        x: -12.9704761505
        y: -314.408996582
        z: -6.88167142868
      rotation: 
        x: 0.0142918173224
        y: 0.0102899484336
        z: -0.842658400536
        w: 0.538160562515
---
transforms: 
  - 
    header: 
      seq: 0
      stamp: 
        secs: 1574453583
        nsecs: 395877000
      frame_id: "map"
    child_frame_id: "velodyne"
    transform: 
      translation: 
        x: -13.2258682251
        y: -314.984924316
        z: -6.8958029747
      rotation: 
        x: 0.013620890677
        y: 0.0109645631164
        z: -0.842108488083
        w: 0.539024651051
---
transforms: 
  - 
    header: 
      seq: 0
      stamp: 
        secs: 1574453583
        nsecs: 497859000
      frame_id: "map"
    child_frame_id: "velodyne"
    transform: 
      translation: 
        x: -13.4800386429
        y: -315.552062988
        z: -6.92317485809
      rotation: 
        x: 0.0145645970479
        y: 0.0105187809095
        z: -0.841074287891
        w: 0.540621101856
---
transforms: 
  - 
    header: 
      seq: 0
      stamp: 
        secs: 1574453583
        nsecs: 599871000
      frame_id: "map"
    child_frame_id: "velodyne"
    transform: 
      translation: 
        x: -13.7260007858
        y: -316.141296387
        z: -6.93326711655
      rotation: 
        x: 0.01496405527
        y: 0.0103028779849
        z: -0.8398244977
        w: 0.542553901672
---
transforms: 
  - 
    header: 
      seq: 0
      stamp: 
        secs: 1574453583
        nsecs: 701862000
      frame_id: "map"
    child_frame_id: "velodyne"
    transform: 
      translation: 
        x: -13.9664096832
        y: -316.715148926
        z: -6.95124387741
      rotation: 
        x: 0.0157263670117
        y: 0.0102236466482
        z: -0.838477373123
        w: 0.544613420963
---
transforms: 
  - 
    header: 
      seq: 0
      stamp: 
        secs: 1574453583
        nsecs: 803842000
      frame_id: "map"
    child_frame_id: "velodyne"
    transform: 
      translation: 
        x: -14.2087841034
        y: -317.321258545
        z: -6.96539831161
      rotation: 
        x: 0.0156640503556
        y: 0.0101560745388
        z: -0.836971879005
        w: 0.546927511692
---
transforms: 
  - 
    header: 
      seq: 0
      stamp: 
        secs: 1574453583
        nsecs: 905846000
      frame_id: "map"
    child_frame_id: "velodyne"
    transform: 
      translation: 
        x: -14.4401512146
        y: -317.953399658
        z: -6.98881530762
      rotation: 
        x: 0.0161320418119
        y: 0.0105506833643
        z: -0.835501670837
        w: 0.549149692059
---
transforms: 
  - 
    header: 
      seq: 0
      stamp: 
        secs: 1574453584
        nsecs:   7845000
      frame_id: "map"
    child_frame_id: "velodyne"
    transform: 
      translation: 
        x: -14.6670026779
        y: -318.613189697
        z: -7.00421571732
      rotation: 
        x: 0.0168022960424
        y: 0.0106734316796
        z: -0.834044039249
        w: 0.551338672638
---
transforms: 
  - 
    header: 
      seq: 0
      stamp: 
        secs: 1574453584
        nsecs: 109844000
      frame_id: "map"
    child_frame_id: "velodyne"
    transform: 
      translation: 
        x: -14.8882484436
        y: -319.285644531
        z: -7.04058504105
      rotation: 
        x: 0.0172824207693
        y: 0.0106743993238
        z: -0.832480490208
        w: 0.553681850433
---
transforms: 
  - 
    header: 
      seq: 0
      stamp: 
        secs: 1574453584
        nsecs: 211919000
      frame_id: "map"
    child_frame_id: "velodyne"
    transform: 
      translation: 
        x: -15.1090574265
        y: -319.913116455
        z: -7.06869602203
      rotation: 
        x: 0.0177482925355
        y: 0.0107112741098
        z: -0.830990850925
        w: 0.555899679661
---
transforms: 
  - 
    header: 
      seq: 0
      stamp: 
        secs: 1574453584
        nsecs: 313843000
      frame_id: "map"
    child_frame_id: "velodyne"
    transform: 
      translation: 
        x: -15.3255777359
        y: -320.500366211
        z: -7.08952379227
      rotation: 
        x: 0.0173677299172
        y: 0.0107302535325
        z: -0.829653024673
        w: 0.557905972004
---
transforms: 
  - 
    header: 
      seq: 0
      stamp: 
        secs: 1574453584
        nsecs: 415851000
      frame_id: "map"
    child_frame_id: "velodyne"
    transform: 
      translation: 
        x: -15.532866478
        y: -321.041595459
        z: -7.10682725906
      rotation: 
        x: 0.017378019169
        y: 0.0101316031069
        z: -0.828370153904
        w: 0.559819877148
---
transforms: 
  - 
    header: 
      seq: 0
      stamp: 
        secs: 1574453584
        nsecs: 517841000
      frame_id: "map"
    child_frame_id: "velodyne"
    transform: 
      translation: 
        x: -15.7329092026
        y: -321.582855225
        z: -7.12627601624
      rotation: 
        x: 0.0170852504671
        y: 0.0100963264704
        z: -0.827029049397
        w: 0.561808824539
---
transforms: 
  - 
    header: 
      seq: 0
      stamp: 
        secs: 1574453584
        nsecs: 619841000
      frame_id: "map"
    child_frame_id: "velodyne"
    transform: 
      translation: 
        x: -10.2461500168
        y: -315.180175781
        z: -5.83310699463
      rotation: 
        x: 0.0204641465098
        y: -0.0131827183068
        z: -0.805102109909
        w: 0.592636466026
---
transforms: 
  - 
    header: 
      seq: 0
      stamp: 
        secs: 1574453585
        nsecs:  27848000
      frame_id: "map"
    child_frame_id: "velodyne"
    transform: 
      translation: 
        x: -11.1426649094
        y: -314.34262085
        z: -6.94208335876
      rotation: 
        x: 0.0202372651547
        y: 0.030111072585
        z: -0.806086599827
        w: 0.590684473515
---
transforms: 
  - 
    header: 
      seq: 0
      stamp: 
        secs: 1574453585
        nsecs: 129855000
      frame_id: "map"
    child_frame_id: "velodyne"
    transform: 
      translation: 
        x: -11.2462873459
        y: -314.705322266
        z: -6.98936271667
      rotation: 
        x: 0.0215459633619
        y: -0.00688137300313
        z: -0.802811563015
        w: 0.595803678036
---
transforms: 
  - 
    header: 
      seq: 0
      stamp: 
        secs: 1574453585
        nsecs: 231860000
      frame_id: "map"
    child_frame_id: "velodyne"
    transform: 
      translation: 
        x: -10.8605642319
        y: -311.823455811
        z: -7.00192022324
      rotation: 
        x: 0.0301761515439
        y: -0.00222128559835
        z: -0.818735063076
        w: 0.573373675346
---
transforms: 
  - 
    header: 
      seq: 0
      stamp: 
        secs: 1574453585
        nsecs: 435860000
      frame_id: "map"
    child_frame_id: "velodyne"
    transform: 
      translation: 
        x: -12.8664312363
        y: -326.466949463
        z: -4.7414317131
      rotation: 
        x: 0.0271962285042
        y: -0.00373576534912
        z: -0.785187840462
        w: 0.618648946285
---
transforms: 
  - 
    header: 
      seq: 0
      stamp: 
        secs: 1574453587
        nsecs: 271847000
      frame_id: "map"
    child_frame_id: "velodyne"
    transform: 
      translation: 
        x: -13.6267929077
        y: -326.556518555
        z: -7.26578044891
      rotation: 
        x: 0.00450063496828
        y: 0.0683019459248
        z: -0.798320829868
        w: 0.598329782486
---
transforms: 
  - 
    header: 
      seq: 0
      stamp: 
        secs: 1574453587
        nsecs: 373826000
      frame_id: "map"
    child_frame_id: "velodyne"
    transform: 
      translation: 
        x: -13.8237056732
        y: -326.944854736
        z: -7.29988098145
      rotation: 
        x: 0.0328785777092
        y: -0.013230250217
        z: -0.800251364708
        w: 0.598616480827
---
transforms: 
  - 
    header: 
      seq: 0
      stamp: 
        secs: 1574453587
        nsecs: 475838000
      frame_id: "map"
    child_frame_id: "velodyne"
    transform: 
      translation: 
        x: -13.9452104568
        y: -327.358306885
        z: -7.31318426132
      rotation: 
        x: 0.0214833151549
        y: 0.0251500289887
        z: -0.801524698734
        w: 0.597046196461
---
transforms: 
  - 
    header: 
      seq: 0
      stamp: 
        secs: 1574453587
        nsecs: 577811000
      frame_id: "map"
    child_frame_id: "velodyne"
    transform: 
      translation: 
        x: -14.1096477509
        y: -325.255065918
        z: -7.35136699677
      rotation: 
        x: 0.0423511862755
        y: -0.010405426845
        z: -0.838543236256
        w: 0.543086886406
---
transforms: 
  - 
    header: 
      seq: 0
      stamp: 
        secs: 1574453587
        nsecs: 781839000
      frame_id: "map"
    child_frame_id: "velodyne"
    transform: 
      translation: 
        x: -14.9088029861
        y: -323.43359375
        z: -7.28615474701
      rotation: 
        x: 0.0250341929495
        y: 0.0201350823045
        z: -0.833994150162
        w: 0.550837218761
---
transforms: 
  - 
    header: 
      seq: 0
      stamp: 
        secs: 1574453587
        nsecs: 883837000
      frame_id: "map"
    child_frame_id: "velodyne"
    transform: 
      translation: 
        x: -15.6076040268
        y: -335.195770264
        z: -3.75772643089
      rotation: 
        x: 0.0192929692566
        y: -0.00789101328701
        z: -0.834312319756
        w: 0.55089789629
---
transforms: 
  - 
    header: 
      seq: 0
      stamp: 
        secs: 1574453590
        nsecs:  25817000
      frame_id: "map"
    child_frame_id: "velodyne"
    transform: 
      translation: 
        x: -16.2151031494
        y: -334.601989746
        z: -7.19182109833
      rotation: 
        x: 0.0318736992776
        y: 0.0717226862907
        z: -0.845518171787
        w: 0.528146624565
---
transforms: 
  - 
    header: 
      seq: 0
      stamp: 
        secs: 1574453590
        nsecs: 127821000
      frame_id: "map"
    child_frame_id: "velodyne"
    transform: 
      translation: 
        x: -18.7635574341
        y: -333.752410889
        z: -7.65450000763
      rotation: 
        x: 0.0196076519787
        y: -0.0141933662817
        z: -0.834823966026
        w: 0.549984633923
---
transforms: 
  - 
    header: 
      seq: 0
      stamp: 
        secs: 1574453590
        nsecs: 331789000
      frame_id: "map"
    child_frame_id: "velodyne"
    transform: 
      translation: 
        x: -20.0372047424
        y: -334.225769043
        z: -7.72061109543
      rotation: 
        x: 0.0286576971412
        y: 0.0436182245612
        z: -0.837072074413
        w: 0.544597625732
---
transforms: 
  - 
    header: 
      seq: 0
      stamp: 
        secs: 1574453590
        nsecs: 433830000
      frame_id: "map"
    child_frame_id: "velodyne"
    transform: 
      translation: 
        x: -20.1087284088
        y: -334.436096191
        z: -7.73488092422
      rotation: 
        x: 0.0239336248487
        y: 0.00169633538462
        z: -0.836956620216
        w: 0.546743094921
---
transforms: 
  - 
    header: 
      seq: 0
      stamp: 
        secs: 1574453590
        nsecs: 535789000
      frame_id: "map"
    child_frame_id: "velodyne"
    transform: 
      translation: 
        x: -26.7132835388
        y: -343.492553711
        z: -4.11469125748
      rotation: 
        x: -0.0135338651016
        y: -0.0176678337157
        z: 0.988418519497
        w: -0.150111973286
---
transforms: 
  - 
    header: 
      seq: 0
      stamp: 
        secs: 1574453592
        nsecs: 473786000
      frame_id: "map"
    child_frame_id: "velodyne"
    transform: 
      translation: 
        x: -26.9276313782
        y: -343.484588623
        z: -7.73567724228
      rotation: 
        x: -0.0434530898929
        y: 0.0803350806236
        z: 0.982179582119
        w: -0.164260208607
---
transforms: 
  - 
    header: 
      seq: 0
      stamp: 
        secs: 1574453592
        nsecs: 575781000
      frame_id: "map"
    child_frame_id: "velodyne"
    transform: 
      translation: 
        x: -29.0672931671
        y: -344.265563965
        z: -8.06476402283
      rotation: 
        x: -0.00228138267994
        y: -0.0453236177564
        z: 0.981042504311
        w: -0.188404425979
---
transforms: 
  - 
    header: 
      seq: 0
      stamp: 
        secs: 1574453592
        nsecs: 677776000
      frame_id: "map"
    child_frame_id: "velodyne"
    transform: 
      translation: 
        x: -30.5073356628
        y: -344.932678223
        z: -8.14351654053
      rotation: 
        x: -0.0390129424632
        y: 0.0927009209991
        z: 0.978730976582
        w: -0.178802087903
---
transforms: 
  - 
    header: 
      seq: 0
      stamp: 
        secs: 1574453592
        nsecs: 881787000
      frame_id: "map"
    child_frame_id: "velodyne"
    transform: 
      translation: 
        x: -33.6711463928
        y: -346.429595947
        z: -8.22868347168
      rotation: 
        x: 0.0124387061223
        y: -0.0803686827421
        z: 0.984527587891
        w: -0.155214965343
---
transforms: 
  - 
    header: 
      seq: 0
      stamp: 
        secs: 1574453593
        nsecs:  85795000
      frame_id: "map"
    child_frame_id: "velodyne"
    transform: 
      translation: 
        x: -36.5422210693
        y: -347.079803467
        z: -8.26309871674
      rotation: 
        x: -0.083040304482
        y: 0.29783603549
        z: 0.946556091309
        w: -0.0918130651116
---
transforms: 
  - 
    header: 
      seq: 0
      stamp: 
        secs: 1574453593
        nsecs: 187771000
      frame_id: "map"
    child_frame_id: "velodyne"
    transform: 
      translation: 
        x: -38.9187927246
        y: -346.444458008
        z: -6.88106107712
      rotation: 
        x: -0.0414557568729
        y: 0.135517835617
        z: 0.985422372818
        w: -0.0941227898002
---
transforms: 
  - 
    header: 
      seq: 0
      stamp: 
        secs: 1574453593
        nsecs: 289803000
      frame_id: "map"
    child_frame_id: "velodyne"
    transform: 
      translation: 
        x: -40.8737449646
        y: -345.368499756
        z: -7.9726729393
      rotation: 
        x: -0.00134501128923
        y: -0.0309559125453
        z: 0.998244225979
        w: -0.0504816733301
---
transforms: 
  - 
    header: 
      seq: 0
      stamp: 
        secs: 1574453593
        nsecs: 493801000
      frame_id: "map"
    child_frame_id: "velodyne"
    transform: 
      translation: 
        x: -41.9060440063
        y: -345.409118652
        z: -8.06763935089
      rotation: 
        x: -0.0141823282465
        y: 0.0340869799256
        z: 0.997174739838
        w: -0.0654180645943
---
transforms: 
  - 
    header: 
      seq: 0
      stamp: 
        secs: 1574453593
        nsecs: 595798000
      frame_id: "map"
    child_frame_id: "velodyne"
    transform: 
      translation: 
        x: -42.4015350342
        y: -345.483215332
        z: -8.07195663452
      rotation: 
        x: -0.00696629006416
        y: -0.00394951691851
        z: 0.998027741909
        w: -0.06226246804
---
transforms: 
  - 
    header: 
      seq: 0
      stamp: 
        secs: 1574453593
        nsecs: 697765000
      frame_id: "map"
    child_frame_id: "velodyne"
    transform: 
      translation: 
        x: -42.8824310303
        y: -345.566253662
        z: -8.09247207642
      rotation: 
        x: -0.0091559169814
        y: 0.00720016146079
        z: 0.997388005257
        w: -0.0712848454714
---
transforms: 
  - 
    header: 
      seq: 0
      stamp: 
        secs: 1574453593
        nsecs: 799795000
      frame_id: "map"
    child_frame_id: "velodyne"
    transform: 
      translation: 
        x: -43.3709602356
        y: -345.646850586
        z: -8.08539581299
      rotation: 
        x: -0.00863175466657
        y: 0.00447777286172
        z: 0.997333943844
        w: -0.0723218694329
---
transforms: 
  - 
    header: 
      seq: 0
      stamp: 
        secs: 1574453593
        nsecs: 901799000
      frame_id: "map"
    child_frame_id: "velodyne"
    transform: 
      translation: 
        x: -43.8607368469
        y: -345.728515625
        z: -8.09865665436
      rotation: 
        x: -0.00785164535046
        y: 0.00572308339179
        z: 0.997161448002
        w: -0.0746642872691
---
transforms: 
  - 
    header: 
      seq: 0
      stamp: 
        secs: 1574453594
        nsecs:   3781000
      frame_id: "map"
    child_frame_id: "velodyne"
    transform: 
      translation: 
        x: -44.3411102295
        y: -345.816955566
        z: -8.09572124481
      rotation: 
        x: -0.0086672976613
        y: 0.00730688683689
        z: 0.997002124786
        w: -0.0765394344926
---
transforms: 
  - 
    header: 
      seq: 0
      stamp: 
        secs: 1574453594
        nsecs: 105804000
      frame_id: "map"
    child_frame_id: "velodyne"
    transform: 
      translation: 
        x: -44.8276405334
        y: -345.901672363
        z: -8.09283542633
      rotation: 
        x: -0.00766656827182
        y: 0.00683683995157
        z: 0.99685138464
        w: -0.0786248296499
---
transforms: 
  - 
    header: 
      seq: 0
      stamp: 
        secs: 1574453594
        nsecs: 207773000
      frame_id: "map"
    child_frame_id: "velodyne"
    transform: 
      translation: 
        x: -45.3017196655
        y: -345.992523193
        z: -8.11219882965
      rotation: 
        x: -0.00732227554545
        y: 0.0059314048849
        z: 0.996707737446
        w: -0.0805287361145
---
transforms: 
  - 
    header: 
      seq: 0
      stamp: 
        secs: 1574453594
        nsecs: 309798000
      frame_id: "map"
    child_frame_id: "velodyne"
    transform: 
      translation: 
        x: -45.7859992981
        y: -346.093994141
        z: -8.11793994904
      rotation: 
        x: -0.00680317310616
        y: 0.00451339548454
        z: 0.996595621109
        w: -0.0820407420397
---
transforms: 
  - 
    header: 
      seq: 0
      stamp: 
        secs: 1574453594
        nsecs: 411879000
      frame_id: "map"
    child_frame_id: "velodyne"
    transform: 
      translation: 
        x: -46.2793655396
        y: -346.197021484
        z: -8.1202583313
      rotation: 
        x: -0.00658758915961
        y: 0.00396387232468
        z: 0.997390389442
        w: -0.0717866197228
---
transforms: 
  - 
    header: 
      seq: 0
      stamp: 
        secs: 1574453594
        nsecs: 513761000
      frame_id: "map"
    child_frame_id: "velodyne"
    transform: 
      translation: 
        x: -46.7253875732
        y: -346.278320312
        z: -8.11562347412
      rotation: 
        x: -0.00938695855439
        y: 0.00274043623358
        z: 0.996503412724
        w: -0.0829778388143
---
transforms: 
  - 
    header: 
      seq: 0
      stamp: 
        secs: 1574453594
        nsecs: 615790000
      frame_id: "map"
    child_frame_id: "velodyne"
    transform: 
      translation: 
        x: -47.2121734619
        y: -346.355224609
        z: -8.1214427948
      rotation: 
        x: -0.00966439116746
        y: 0.00159308651928
        z: 0.997077643871
        w: -0.0757642835379
---
transforms: 
  - 
    header: 
      seq: 0
      stamp: 
        secs: 1574453594
        nsecs: 717759000
      frame_id: "map"
    child_frame_id: "velodyne"
    transform: 
      translation: 
        x: -47.7315483093
        y: -346.42767334
        z: -8.12540817261
      rotation: 
        x: -0.00933881476521
        y: 0.00202568434179
        z: 0.997842252254
        w: -0.064957998693
---
transforms: 
  - 
    header: 
      seq: 0
      stamp: 
        secs: 1574453594
        nsecs: 819772000
      frame_id: "map"
    child_frame_id: "velodyne"
    transform: 
      translation: 
        x: -48.1725234985
        y: -346.492156982
        z: -8.11509799957
      rotation: 
        x: -0.0123115954921
        y: 0.00203025247902
        z: 0.997121930122
        w: -0.0747810676694
---
transforms: 
  - 
    header: 
      seq: 0
      stamp: 
        secs: 1574453594
        nsecs: 921783000
      frame_id: "map"
    child_frame_id: "velodyne"
    transform: 
      translation: 
        x: -48.6490936279
        y: -346.571166992
        z: -8.12537574768
      rotation: 
        x: -0.00963527709246
        y: 0.00291926204227
        z: 0.99762147665
        w: -0.0681917816401
---
transforms: 
  - 
    header: 
      seq: 0
      stamp: 
        secs: 1574453595
        nsecs:  23768000
      frame_id: "map"
    child_frame_id: "velodyne"
    transform: 
      translation: 
        x: -49.1410675049
        y: -346.642364502
        z: -8.11607456207
      rotation: 
        x: -0.00916702393442
        y: 0.00209367624484
        z: 0.997694253922
        w: -0.0672146230936
---
transforms: 
  - 
    header: 
      seq: 0
      stamp: 
        secs: 1574453595
        nsecs: 125803000
      frame_id: "map"
    child_frame_id: "velodyne"
    transform: 
      translation: 
        x: -49.6295204163
        y: -346.709503174
        z: -8.14047145844
      rotation: 
        x: -0.00703236320987
        y: 0.00217939214781
        z: 0.997942328453
        w: -0.0636941045523
---
transforms: 
  - 
    header: 
      seq: 0
      stamp: 
        secs: 1574453595
        nsecs: 227785000
      frame_id: "map"
    child_frame_id: "velodyne"
    transform: 
      translation: 
        x: -50.1302986145
        y: -346.788299561
        z: -8.16093730927
      rotation: 
        x: -0.00684859976172
        y: 0.00223401444964
        z: 0.998099088669
        w: -0.061208255589
---
transforms: 
  - 
    header: 
      seq: 0
      stamp: 
        secs: 1574453595
        nsecs: 329782000
      frame_id: "map"
    child_frame_id: "velodyne"
    transform: 
      translation: 
        x: -50.6218833923
        y: -346.86026001
        z: -8.16126537323
      rotation: 
        x: -0.00775870354846
        y: 0.00148253829684
        z: 0.998229980469
        w: -0.0589455254376
---
transforms: 
  - 
    header: 
      seq: 0
      stamp: 
        secs: 1574453595
        nsecs: 431771000
      frame_id: "map"
    child_frame_id: "velodyne"
    transform: 
      translation: 
        x: -51.1311454773
        y: -346.923950195
        z: -8.16945171356
      rotation: 
        x: -0.00815600249916
        y: 0.00246824417263
        z: 0.998372256756
        w: -0.0563940219581
---
transforms: 
  - 
    header: 
      seq: 0
      stamp: 
        secs: 1574453595
        nsecs: 533790000
      frame_id: "map"
    child_frame_id: "velodyne"
    transform: 
      translation: 
        x: -51.6358795166
        y: -346.985076904
        z: -8.17119598389
      rotation: 
        x: -0.00889840908349
        y: 0.00262719392776
        z: 0.998493671417
        w: -0.0540777184069
---
transforms: 
  - 
    header: 
      seq: 0
      stamp: 
        secs: 1574453595
        nsecs: 635767000
      frame_id: "map"
    child_frame_id: "velodyne"
    transform: 
      translation: 
        x: -52.1571998596
        y: -347.044952393
        z: -8.1567440033
      rotation: 
        x: -0.00988976564258
        y: 0.00391518184915
        z: 0.998561859131
        w: -0.0525467544794
---
transforms: 
  - 
    header: 
      seq: 0
      stamp: 
        secs: 1574453595
        nsecs: 737753000
      frame_id: "map"
    child_frame_id: "velodyne"
    transform: 
      translation: 
        x: -52.6766815186
        y: -347.106079102
        z: -8.14629936218
      rotation: 
        x: -0.00996942538768
        y: 0.00374272372574
        z: 0.998619496822
        w: -0.0514373779297
---
transforms: 
  - 
    header: 
      seq: 0
      stamp: 
        secs: 1574453595
        nsecs: 839755000
      frame_id: "map"
    child_frame_id: "velodyne"
    transform: 
      translation: 
        x: -53.1802253723
        y: -347.163269043
        z: -8.13586616516
      rotation: 
        x: -0.0103909382597
        y: 0.00447703618556
        z: 0.998653829098
        w: -0.0506221838295
---
transforms: 
  - 
    header: 
      seq: 0
      stamp: 
        secs: 1574453595
        nsecs: 941759000
      frame_id: "map"
    child_frame_id: "velodyne"
    transform: 
      translation: 
        x: -53.6723594666
        y: -347.222991943
        z: -8.12565803528
      rotation: 
        x: -0.0109837390482
        y: 0.00474505545571
        z: 0.998678863049
        w: -0.0499745570123
---
transforms: 
  - 
    header: 
      seq: 0
      stamp: 
        secs: 1574453596
        nsecs:  43760000
      frame_id: "map"
    child_frame_id: "velodyne"
    transform: 
      translation: 
        x: -54.1440734863
        y: -347.273498535
        z: -8.13688755035
      rotation: 
        x: -0.0112459752709
        y: 0.00625824742019
        z: 0.998655021191
        w: -0.0502255633473
---
transforms: 
  - 
    header: 
      seq: 0
      stamp: 
        secs: 1574453596
        nsecs: 145797000
      frame_id: "map"
    child_frame_id: "velodyne"
    transform: 
      translation: 
        x: -54.608089447
        y: -347.325439453
        z: -8.12254619598
      rotation: 
        x: -0.0114600518718
        y: 0.00783019699156
        z: 0.998594522476
        w: -0.0511521212757
---
transforms: 
  - 
    header: 
      seq: 0
      stamp: 
        secs: 1574453596
        nsecs: 247780000
      frame_id: "map"
    child_frame_id: "velodyne"
    transform: 
      translation: 
        x: -55.052822113
        y: -347.377471924
        z: -8.12999248505
      rotation: 
        x: -0.0113441320136
        y: 0.00828128587455
        z: 0.998517274857
        w: -0.0525923930109
---
transforms: 
  - 
    header: 
      seq: 0
      stamp: 
        secs: 1574453596
        nsecs: 349750000
      frame_id: "map"
    child_frame_id: "velodyne"
    transform: 
      translation: 
        x: -55.4955673218
        y: -347.432830811
        z: -8.13935375214
      rotation: 
        x: -0.0107736848295
        y: 0.0102662453428
        z: 0.998407304287
        w: -0.0544198863208
---
transforms: 
  - 
    header: 
      seq: 0
      stamp: 
        secs: 1574453596
        nsecs: 451762000
      frame_id: "map"
    child_frame_id: "velodyne"
    transform: 
      translation: 
        x: -55.9254112244
        y: -347.486694336
        z: -8.130235672
      rotation: 
        x: -0.0107035478577
        y: 0.00849251076579
        z: 0.998737871647
        w: -0.0483317710459
---
transforms: 
  - 
    header: 
      seq: 0
      stamp: 
        secs: 1574453596
        nsecs: 553748000
      frame_id: "map"
    child_frame_id: "velodyne"
    transform: 
      translation: 
        x: -56.3157997131
        y: -347.536529541
        z: -8.14433288574
      rotation: 
        x: -0.0134466355667
        y: 0.0100455898792
        z: 0.998037040234
        w: -0.0603361204267
---
transforms: 
  - 
    header: 
      seq: 0
      stamp: 
        secs: 1574453596
        nsecs: 655776000
      frame_id: "map"
    child_frame_id: "velodyne"
    transform: 
      translation: 
        x: -56.7432327271
        y: -347.595855713
        z: -8.13303661346
      rotation: 
        x: -0.0114032011479
        y: 0.0106875617057
        z: 0.998135268688
        w: -0.0590057298541
---
transforms: 
  - 
    header: 
      seq: 0
      stamp: 
        secs: 1574453596
        nsecs: 757755000
      frame_id: "map"
    child_frame_id: "velodyne"
    transform: 
      translation: 
        x: -57.1793022156
        y: -347.657684326
        z: -8.12797355652
      rotation: 
        x: -0.00917703658342
        y: 0.0113306101412
        z: 0.997990608215
        w: -0.0616612359881
---
transforms: 
  - 
    header: 
      seq: 0
      stamp: 
        secs: 1574453596
        nsecs: 859748000
      frame_id: "map"
    child_frame_id: "velodyne"
    transform: 
      translation: 
        x: -57.6034736633
        y: -347.719085693
        z: -8.13508796692
      rotation: 
        x: -0.00859556440264
        y: 0.010710047558
        z: 0.997922182083
        w: -0.0629503875971
---
transforms: 
  - 
    header: 
      seq: 0
      stamp: 
        secs: 1574453596
        nsecs: 961742000
      frame_id: "map"
    child_frame_id: "velodyne"
    transform: 
      translation: 
        x: -58.025302887
        y: -347.78918457
        z: -8.12999725342
      rotation: 
        x: -0.00736592896283
        y: 0.00948977842927
        z: 0.997821033001
        w: -0.064875587821
---
transforms: 
  - 
    header: 
      seq: 0
      stamp: 
        secs: 1574453597
        nsecs:  63758000
      frame_id: "map"
    child_frame_id: "velodyne"
    transform: 
      translation: 
        x: -58.4346199036
        y: -347.862304688
        z: -8.14223670959
      rotation: 
        x: -0.0060476497747
        y: 0.00805923994631
        z: 0.997707188129
        w: -0.0669246837497
---
transforms: 
  - 
    header: 
      seq: 0
      stamp: 
        secs: 1574453597
        nsecs: 165739000
      frame_id: "map"
    child_frame_id: "velodyne"
    transform: 
      translation: 
        x: -58.8501243591
        y: -347.928192139
        z: -8.14270114899
      rotation: 
        x: -0.00660113338381
        y: 0.00633347406983
        z: 0.997614681721
        w: -0.0684202387929
---
transforms: 
  - 
    header: 
      seq: 0
      stamp: 
        secs: 1574453597
        nsecs: 267736000
      frame_id: "map"
    child_frame_id: "velodyne"
    transform: 
      translation: 
        x: -59.2736968994
        y: -347.994171143
        z: -8.14688014984
      rotation: 
        x: -0.00879890657961
        y: 0.00592453265563
        z: 0.997497618198
        w: -0.0698998048902
---
transforms: 
  - 
    header: 
      seq: 0
      stamp: 
        secs: 1574453597
        nsecs: 369739000
      frame_id: "map"
    child_frame_id: "velodyne"
    transform: 
      translation: 
        x: -59.6913490295
        y: -348.05682373
        z: -8.13235473633
      rotation: 
        x: -0.0116891339421
        y: 0.00629854900762
        z: 0.997359335423
        w: -0.0714009702206
---
transforms: 
  - 
    header: 
      seq: 0
      stamp: 
        secs: 1574453597
        nsecs: 471756000
      frame_id: "map"
    child_frame_id: "velodyne"
    transform: 
      translation: 
        x: -60.1183433533
        y: -348.1199646
        z: -8.12144470215
      rotation: 
        x: -0.011532748118
        y: 0.00711926072836
        z: 0.997292816639
        w: -0.0722731873393
---
transforms: 
  - 
    header: 
      seq: 0
      stamp: 
        secs: 1574453597
        nsecs: 573748000
      frame_id: "map"
    child_frame_id: "velodyne"
    transform: 
      translation: 
        x: -60.556438446
        y: -348.176696777
        z: -8.14720821381
      rotation: 
        x: -0.0118109788746
        y: 0.00904618762434
        z: 0.997198283672
        w: -0.0733091756701
---
transforms: 
  - 
    header: 
      seq: 0
      stamp: 
        secs: 1574453597
        nsecs: 675768000
      frame_id: "map"
    child_frame_id: "velodyne"
    transform: 
      translation: 
        x: -60.9934539795
        y: -348.25213623
        z: -8.15157699585
      rotation: 
        x: -0.011050645262
        y: 0.00577470427379
        z: 0.997183084488
        w: -0.0739622116089
---
transforms: 
  - 
    header: 
      seq: 0
      stamp: 
        secs: 1574453597
        nsecs: 777733000
      frame_id: "map"
    child_frame_id: "velodyne"
    transform: 
      translation: 
        x: -61.4544296265
        y: -348.360290527
        z: -8.19314861298
      rotation: 
        x: -0.00765085360035
        y: 0.00199041073211
        z: 0.997878551483
        w: -0.0646217614412
---
transforms: 
  - 
    header: 
      seq: 0
      stamp: 
        secs: 1574453597
        nsecs: 879742000
      frame_id: "map"
    child_frame_id: "velodyne"
    transform: 
      translation: 
        x: -61.9012832642
        y: -348.444122314
        z: -8.14700222015
      rotation: 
        x: -0.00818436313421
        y: 0.000537756131962
        z: 0.997824192047
        w: -0.065418690443
---
transforms: 
  - 
    header: 
      seq: 0
      stamp: 
        secs: 1574453597
        nsecs: 981761000
      frame_id: "map"
    child_frame_id: "velodyne"
    transform: 
      translation: 
