header: 
  seq: 4011
  stamp: 
    secs: 1574453568
    nsecs: 4294943357
  frame_id: "gps"
status: 
  status: 0
  service: 3
latitude: 37.8692666
longitude: -122.2660806
altitude: 22.252
position_covariance: [5.276209000000001, 0.0, 0.0, 0.0, 5.276209000000001, 0.0, 0.0, 0.0, 28.772496]
position_covariance_type: 2
---
header: 
  seq: 4012
  stamp: 
    secs: 1574453569
    nsecs: 4294943535
  frame_id: "gps"
status: 
  status: 0
  service: 3
latitude: 37.8692678
longitude: -122.2660802
altitude: 22.285
position_covariance: [5.3130250000000006, 0.0, 0.0, 0.0, 5.3130250000000006, 0.0, 0.0, 0.0, 29.300569000000003]
position_covariance_type: 2
---
header: 
  seq: 4013
  stamp: 
    secs: 1574453570
    nsecs: 4294943712
  frame_id: "gps"
status: 
  status: 0
  service: 3
latitude: 37.8692661
longitude: -122.2660819
altitude: 22.647
position_covariance: [5.271615999999999, 0.0, 0.0, 0.0, 5.271615999999999, 0.0, 0.0, 0.0, 29.170800999999997]
position_covariance_type: 2
---
header: 
  seq: 4014
  stamp: 
    secs: 1574453571
    nsecs: 4294943889
  frame_id: "gps"
status: 
  status: 0
  service: 3
latitude: 37.8692569
longitude: -122.2660835
altitude: 22.761
position_covariance: [5.193841, 0.0, 0.0, 0.0, 5.193841, 0.0, 0.0, 0.0, 29.224835999999996]
position_covariance_type: 2
---
header: 
  seq: 4015
  stamp: 
    secs: 1574453572
    nsecs: 4294944065
  frame_id: "gps"
status: 
  status: 0
  service: 3
latitude: 37.8692393
longitude: -122.2660836
altitude: 23.246
position_covariance: [5.112121, 0.0, 0.0, 0.0, 5.112121, 0.0, 0.0, 0.0, 29.041321000000003]
position_covariance_type: 2
---
header: 
  seq: 4016
  stamp: 
    secs: 1574453573
    nsecs: 4294944241
  frame_id: "gps"
status: 
  status: 0
  service: 3
latitude: 37.8692113
longitude: -122.2660871
altitude: 24.09
position_covariance: [5.053504000000001, 0.0, 0.0, 0.0, 5.053504000000001, 0.0, 0.0, 0.0, 29.181604]
position_covariance_type: 2
---
header: 
  seq: 4017
  stamp: 
    secs: 1574453574
    nsecs: 4294944417
  frame_id: "gps"
status: 
  status: 0
  service: 3
latitude: 37.8691716
longitude: -122.2660987
altitude: 25.134
position_covariance: [5.294601000000001, 0.0, 0.0, 0.0, 5.294601000000001, 0.0, 0.0, 0.0, 30.239000999999995]
position_covariance_type: 2
---
header: 
  seq: 4018
  stamp: 
    secs: 1574453575
    nsecs: 4294944595
  frame_id: "gps"
status: 
  status: 0
  service: 3
latitude: 37.8691275
longitude: -122.2661188
altitude: 25.129
position_covariance: [5.683456, 0.0, 0.0, 0.0, 5.683456, 0.0, 0.0, 0.0, 28.751044]
position_covariance_type: 2
---
header: 
  seq: 4019
  stamp: 
    secs: 1574453576
    nsecs: 4294944772
  frame_id: "gps"
status: 
  status: 0
  service: 3
latitude: 37.8690834
longitude: -122.2661438
altitude: 25.549
position_covariance: [6.105841000000001, 0.0, 0.0, 0.0, 6.105841000000001, 0.0, 0.0, 0.0, 28.217344000000004]
position_covariance_type: 2
---
header: 
  seq: 4020
  stamp: 
    secs: 1574453577
    nsecs: 4294944948
  frame_id: "gps"
status: 
  status: 0
  service: 3
latitude: 37.8690395
longitude: -122.2661734
altitude: 26.265
position_covariance: [6.497401, 0.0, 0.0, 0.0, 6.497401, 0.0, 0.0, 0.0, 27.709696]
position_covariance_type: 2
---
header: 
  seq: 4021
  stamp: 
    secs: 1574453578
    nsecs: 4294945125
  frame_id: "gps"
status: 
  status: 0
  service: 3
latitude: 37.8689924
longitude: -122.2662008
altitude: 26.793
position_covariance: [7.091568999999999, 0.0, 0.0, 0.0, 7.091568999999999, 0.0, 0.0, 0.0, 27.857283999999996]
position_covariance_type: 2
---
header: 
  seq: 4022
  stamp: 
    secs: 1574453579
    nsecs: 4294945301
  frame_id: "gps"
status: 
  status: 0
  service: 3
latitude: 37.8689431
longitude: -122.2662239
altitude: 27.582
position_covariance: [7.963684000000001, 0.0, 0.0, 0.0, 7.963684000000001, 0.0, 0.0, 0.0, 27.699168999999998]
position_covariance_type: 2
---
header: 
  seq: 4023
  stamp: 
    secs: 1574453580
    nsecs: 4294945476
  frame_id: "gps"
status: 
  status: 0
  service: 3
latitude: 37.8688956
longitude: -122.2662406
altitude: 28.447
position_covariance: [8.415800999999998, 0.0, 0.0, 0.0, 8.415800999999998, 0.0, 0.0, 0.0, 26.193924000000003]
position_covariance_type: 2
---
header: 
  seq: 4024
  stamp: 
    secs: 1574453581
    nsecs: 4294945652
  frame_id: "gps"
status: 
  status: 0
  service: 3
latitude: 37.86885
longitude: -122.2662561
altitude: 28.935
position_covariance: [8.714304, 0.0, 0.0, 0.0, 8.714304, 0.0, 0.0, 0.0, 24.870169]
position_covariance_type: 2
---
header: 
  seq: 4025
  stamp: 
    secs: 1574453582
    nsecs: 4294945831
  frame_id: "gps"
status: 
  status: 0
  service: 3
latitude: 37.8688063
longitude: -122.266275
altitude: 28.587
position_covariance: [9.012004, 0.0, 0.0, 0.0, 9.012004, 0.0, 0.0, 0.0, 24.1081]
position_covariance_type: 2
---
header: 
  seq: 4026
  stamp: 
    secs: 1574453583
    nsecs: 4294946004
  frame_id: "gps"
status: 
  status: 0
  service: 3
latitude: 37.8687715
longitude: -122.2662844
altitude: 29.888
position_covariance: [9.272025, 0.0, 0.0, 0.0, 9.272025, 0.0, 0.0, 0.0, 23.242040999999997]
position_covariance_type: 2
---
header: 
  seq: 4027
  stamp: 
    secs: 1574453584
    nsecs: 4294946183
  frame_id: "gps"
status: 
  status: 0
  service: 3
latitude: 37.8687428
longitude: -122.2663091
altitude: 29.457
position_covariance: [9.290304, 0.0, 0.0, 0.0, 9.290304, 0.0, 0.0, 0.0, 22.052415999999997]
position_covariance_type: 2
---
header: 
  seq: 4028
  stamp: 
    secs: 1574453585
    nsecs: 4294946362
  frame_id: "gps"
status: 
  status: 0
  service: 3
latitude: 37.8687203
longitude: -122.2663461
altitude: 28.795
position_covariance: [8.543929, 0.0, 0.0, 0.0, 8.543929, 0.0, 0.0, 0.0, 20.502783999999995]
position_covariance_type: 2
---
header: 
  seq: 4029
  stamp: 
    secs: 1574453586
    nsecs: 4294946542
  frame_id: "gps"
status: 
  status: 0
  service: 3
latitude: 37.8687049
longitude: -122.2663934
altitude: 28.23
position_covariance: [7.750655999999999, 0.0, 0.0, 0.0, 7.750655999999999, 0.0, 0.0, 0.0, 19.501056000000002]
position_covariance_type: 2
---
header: 
  seq: 4030
  stamp: 
    secs: 1574453587
    nsecs: 4294946723
  frame_id: "gps"
status: 
  status: 0
  service: 3
latitude: 37.8686968
longitude: -122.2664497
altitude: 27.197
position_covariance: [6.775609000000001, 0.0, 0.0, 0.0, 6.775609000000001, 0.0, 0.0, 0.0, 18.190224999999998]
position_covariance_type: 2
---
header: 
  seq: 4031
  stamp: 
    secs: 1574453588
    nsecs: 4294946902
  frame_id: "gps"
status: 
  status: 0
  service: 3
latitude: 37.8686919
longitude: -122.2665023
altitude: 26.776
position_covariance: [6.170256, 0.0, 0.0, 0.0, 6.170256, 0.0, 0.0, 0.0, 17.589636]
position_covariance_type: 2
---
header: 
  seq: 4032
  stamp: 
    secs: 1574453589
    nsecs: 4294947080
  frame_id: "gps"
status: 
  status: 0
  service: 3
latitude: 37.8686853
longitude: -122.2665552
altitude: 26.513
position_covariance: [6.528025, 0.0, 0.0, 0.0, 6.528025, 0.0, 0.0, 0.0, 18.550249000000004]
position_covariance_type: 2
---
header: 
  seq: 4033
  stamp: 
    secs: 1574453590
    nsecs: 4294947257
  frame_id: "gps"
status: 
  status: 0
  service: 3
latitude: 37.8686773
longitude: -122.2666085
altitude: 26.38
position_covariance: [6.671889000000001, 0.0, 0.0, 0.0, 6.671889000000001, 0.0, 0.0, 0.0, 18.412681000000003]
position_covariance_type: 2
---
header: 
  seq: 4034
  stamp: 
    secs: 1574453591
    nsecs: 4294947438
  frame_id: "gps"
status: 
  status: 0
  service: 3
latitude: 37.8686729
longitude: -122.2666639
altitude: 24.933
position_covariance: [6.230016, 0.0, 0.0, 0.0, 6.230016, 0.0, 0.0, 0.0, 18.156121000000002]
position_covariance_type: 2
---
header: 
  seq: 4035
  stamp: 
    secs: 1574453592
    nsecs: 4294947615
  frame_id: "gps"
status: 
  status: 0
  service: 3
latitude: 37.8686665
longitude: -122.2667146
altitude: 25.134
position_covariance: [5.982916000000001, 0.0, 0.0, 0.0, 5.982916000000001, 0.0, 0.0, 0.0, 17.859075999999998]
position_covariance_type: 2
---
header: 
  seq: 4036
  stamp: 
    secs: 1574453593
    nsecs: 4294947792
  frame_id: "gps"
status: 
  status: 0
  service: 3
latitude: 37.8686567
longitude: -122.2667639
altitude: 25.377
position_covariance: [5.837056, 0.0, 0.0, 0.0, 5.837056, 0.0, 0.0, 0.0, 17.901360999999998]
position_covariance_type: 2
---
header: 
  seq: 4037
  stamp: 
    secs: 1574453594
    nsecs: 4294947969
  frame_id: "gps"
status: 
  status: 0
  service: 3
latitude: 37.8686448
longitude: -122.2668199
altitude: 25.625
position_covariance: [5.764800999999999, 0.0, 0.0, 0.0, 5.764800999999999, 0.0, 0.0, 0.0, 18.181696000000002]
position_covariance_type: 2
---
header: 
  seq: 4038
  stamp: 
    secs: 1574453595
    nsecs: 4294948143
  frame_id: "gps"
status: 
  status: 0
  service: 3
latitude: 37.8686224
longitude: -122.266879
altitude: 26.92
position_covariance: [5.736025, 0.0, 0.0, 0.0, 5.736025, 0.0, 0.0, 0.0, 18.292729]
position_covariance_type: 2
---
header: 
  seq: 4039
  stamp: 
    secs: 1574453596
    nsecs: 4294948315
  frame_id: "gps"
status: 
  status: 0
  service: 3
latitude: 37.8685949
longitude: -122.2669379
altitude: 29.037
position_covariance: [5.659641, 0.0, 0.0, 0.0, 5.659641, 0.0, 0.0, 0.0, 18.292729]
position_covariance_type: 2
---
header: 
  seq: 4040
  stamp: 
    secs: 1574453597
    nsecs: 4294948487
  frame_id: "gps"
status: 
  status: 0
  service: 3
latitude: 37.8685748
longitude: -122.2669995
altitude: 30.998
position_covariance: [5.612161000000001, 0.0, 0.0, 0.0, 5.612161000000001, 0.0, 0.0, 0.0, 18.352656]
position_covariance_type: 2
---
header: 
  seq: 4041
  stamp: 
    secs: 1574453598
    nsecs: 4294948665
  frame_id: "gps"
status: 
  status: 0
  service: 3
latitude: 37.8685647
longitude: -122.26706
altitude: 31.001
position_covariance: [5.4662440000000005, 0.0, 0.0, 0.0, 5.4662440000000005, 0.0, 0.0, 0.0, 18.455616000000003]
position_covariance_type: 2
---
header: 
  seq: 4042
  stamp: 
    secs: 1574453599
    nsecs: 4294948843
  frame_id: "gps"
status: 
  status: 0
  service: 3
latitude: 37.8685582
longitude: -122.2671201
altitude: 30.581
position_covariance: [5.3130250000000006, 0.0, 0.0, 0.0, 5.3130250000000006, 0.0, 0.0, 0.0, 18.352656]
position_covariance_type: 2
---
header: 
  seq: 4043
  stamp: 
    secs: 1574453600
    nsecs: 4294949022
  frame_id: "gps"
status: 
  status: 0
  service: 3
latitude: 37.868551
longitude: -122.2671807
altitude: 30.112
position_covariance: [5.550736, 0.0, 0.0, 0.0, 5.550736, 0.0, 0.0, 0.0, 19.386408999999997]
position_covariance_type: 2
---
header: 
  seq: 4044
  stamp: 
    secs: 1574453601
    nsecs: 4294949199
  frame_id: "gps"
status: 
  status: 0
  service: 3
latitude: 37.8685442
longitude: -122.2672434
altitude: 29.809
position_covariance: [5.924356, 0.0, 0.0, 0.0, 5.924356, 0.0, 0.0, 0.0, 19.918369000000002]
position_covariance_type: 2
---
header: 
  seq: 4045
  stamp: 
    secs: 1574453602
    nsecs: 4294949377
  frame_id: "gps"
status: 
  status: 0
  service: 3
latitude: 37.868538
longitude: -122.2673069
altitude: 29.357
position_covariance: [6.076224999999999, 0.0, 0.0, 0.0, 6.076224999999999, 0.0, 0.0, 0.0, 20.629763999999998]
position_covariance_type: 2
---
header: 
  seq: 4046
  stamp: 
    secs: 1574453603
    nsecs: 4294949555
  frame_id: "gps"
status: 
  status: 0
  service: 3
latitude: 37.8685333
longitude: -122.2673661
altitude: 28.969
position_covariance: [6.260003999999999, 0.0, 0.0, 0.0, 6.260003999999999, 0.0, 0.0, 0.0, 21.390625]
position_covariance_type: 2
---
header: 
  seq: 4047
  stamp: 
    secs: 1574453604
    nsecs: 4294949735
  frame_id: "gps"
status: 
  status: 0
  service: 3
latitude: 37.8685294
longitude: -122.267414
altitude: 27.56
position_covariance: [6.310144, 0.0, 0.0, 0.0, 6.310144, 0.0, 0.0, 0.0, 22.014864000000003]
position_covariance_type: 2
---
header: 
  seq: 4048
  stamp: 
    secs: 1574453605
    nsecs: 4294949912
  frame_id: "gps"
status: 
  status: 0
  service: 3
latitude: 37.8685285
longitude: -122.2674466
altitude: 27.485
position_covariance: [6.3352889999999995, 0.0, 0.0, 0.0, 6.3352889999999995, 0.0, 0.0, 0.0, 22.714756]
position_covariance_type: 2
---
header: 
  seq: 4049
  stamp: 
    secs: 1574453606
    nsecs: 4294950090
  frame_id: "gps"
status: 
  status: 0
  service: 3
latitude: 37.8685282
longitude: -122.2674677
altitude: 27.349
position_covariance: [6.507601000000001, 0.0, 0.0, 0.0, 6.507601000000001, 0.0, 0.0, 0.0, 23.357889]
position_covariance_type: 2
---
header: 
  seq: 4050
  stamp: 
    secs: 1574453607
    nsecs: 4294950268
  frame_id: "gps"
status: 
  status: 0
  service: 3
latitude: 37.8685301
longitude: -122.2674777
altitude: 27.095
position_covariance: [6.610041000000001, 0.0, 0.0, 0.0, 6.610041000000001, 0.0, 0.0, 0.0, 23.902321]
position_covariance_type: 2
---
header: 
  seq: 4051
  stamp: 
    secs: 1574453608
    nsecs: 4294950446
  frame_id: "gps"
status: 
  status: 0
  service: 3
latitude: 37.8685315
longitude: -122.2674791
altitude: 26.928
position_covariance: [6.734025000000001, 0.0, 0.0, 0.0, 6.734025000000001, 0.0, 0.0, 0.0, 24.681024]
position_covariance_type: 2
---
header: 
  seq: 4052
  stamp: 
    secs: 1574453609
    nsecs: 4294950625
  frame_id: "gps"
status: 
  status: 0
  service: 3
latitude: 37.8685326
longitude: -122.2674783
altitude: 26.747
position_covariance: [6.906384000000001, 0.0, 0.0, 0.0, 6.906384000000001, 0.0, 0.0, 0.0, 25.603599999999997]
position_covariance_type: 2
---
header: 
  seq: 4053
  stamp: 
    secs: 1574453610
    nsecs: 4294950803
  frame_id: "gps"
status: 
  status: 0
  service: 3
latitude: 37.8685343
longitude: -122.2674776
altitude: 26.677
position_covariance: [7.059649, 0.0, 0.0, 0.0, 7.059649, 0.0, 0.0, 0.0, 26.388768999999996]
position_covariance_type: 2
---
header: 
  seq: 4054
  stamp: 
    secs: 1574453611
    nsecs: 4294950980
  frame_id: "gps"
status: 
  status: 0
  service: 3
latitude: 37.8685362
longitude: -122.2674772
altitude: 26.901
position_covariance: [7.166329, 0.0, 0.0, 0.0, 7.166329, 0.0, 0.0, 0.0, 27.092025]
position_covariance_type: 2
---
header: 
  seq: 4055
  stamp: 
    secs: 1574453612
    nsecs: 4294951157
  frame_id: "gps"
status: 
  status: 0
  service: 3
latitude: 37.8685374
longitude: -122.2674769
altitude: 27.004
position_covariance: [7.284600999999999, 0.0, 0.0, 0.0, 7.284600999999999, 0.0, 0.0, 0.0, 27.910089000000003]
position_covariance_type: 2
---
header: 
  seq: 4056
  stamp: 
    secs: 1574453613
    nsecs: 4294951335
  frame_id: "gps"
status: 
  status: 0
  service: 3
latitude: 37.8685378
longitude: -122.2674765
altitude: 27.046
position_covariance: [7.4147289999999995, 0.0, 0.0, 0.0, 7.4147289999999995, 0.0, 0.0, 0.0, 28.708163999999996]
position_covariance_type: 2
---
header: 
  seq: 4057
  stamp: 
    secs: 1574453614
    nsecs: 4294951513
  frame_id: "gps"
status: 
  status: 0
  service: 3
latitude: 37.8685388
longitude: -122.2674757
altitude: 27.317
position_covariance: [7.485696000000001, 0.0, 0.0, 0.0, 7.485696000000001, 0.0, 0.0, 0.0, 29.408929]
position_covariance_type: 2
---
header: 
  seq: 4058
  stamp: 
    secs: 1574453615
    nsecs: 4294951690
  frame_id: "gps"
status: 
  status: 0
  service: 3
latitude: 37.8685402
longitude: -122.2674751
altitude: 27.645
position_covariance: [7.518564, 0.0, 0.0, 0.0, 7.518564, 0.0, 0.0, 0.0, 30.052324000000002]
position_covariance_type: 2
---
header: 
  seq: 4059
  stamp: 
    secs: 1574453616
    nsecs: 4294951867
  frame_id: "gps"
status: 
  status: 0
  service: 3
latitude: 37.8685414
longitude: -122.2674749
altitude: 28.02
position_covariance: [7.546009, 0.0, 0.0, 0.0, 7.546009, 0.0, 0.0, 0.0, 30.647295999999997]
position_covariance_type: 2
---
header: 
  seq: 4060
  stamp: 
    secs: 1574453617
    nsecs: 4294952044
  frame_id: "gps"
status: 
  status: 0
  service: 3
latitude: 37.8685423
longitude: -122.2674746
altitude: 28.237
position_covariance: [7.579009000000001, 0.0, 0.0, 0.0, 7.579009000000001, 0.0, 0.0, 0.0, 31.181055999999995]
position_covariance_type: 2
---
header: 
  seq: 4061
  stamp: 
    secs: 1574453618
    nsecs: 4294952221
  frame_id: "gps"
status: 
  status: 0
  service: 3
latitude: 37.8685435
longitude: -122.2674745
altitude: 28.535
position_covariance: [7.606564, 0.0, 0.0, 0.0, 7.606564, 0.0, 0.0, 0.0, 31.674384]
position_covariance_type: 2
---
header: 
  seq: 4062
  stamp: 
    secs: 1574453619
    nsecs: 4294952399
  frame_id: "gps"
status: 
  status: 0
  service: 3
latitude: 37.8685441
longitude: -122.2674742
altitude: 28.692
position_covariance: [7.551504000000001, 0.0, 0.0, 0.0, 7.551504000000001, 0.0, 0.0, 0.0, 32.092225]
position_covariance_type: 2
---
header: 
  seq: 4063
  stamp: 
    secs: 1574453620
    nsecs: 4294952576
  frame_id: "gps"
status: 
  status: 0
  service: 3
latitude: 37.868545
longitude: -122.2674738
altitude: 28.881
position_covariance: [7.469289000000001, 0.0, 0.0, 0.0, 7.469289000000001, 0.0, 0.0, 0.0, 32.467204]
position_covariance_type: 2
---
header: 
  seq: 4064
  stamp: 
    secs: 1574453621
    nsecs: 4294952754
  frame_id: "gps"
status: 
  status: 0
  service: 3
latitude: 37.868545
longitude: -122.2674735
altitude: 28.925
position_covariance: [7.436528999999999, 0.0, 0.0, 0.0, 7.436528999999999, 0.0, 0.0, 0.0, 32.798529]
position_covariance_type: 2
---
header: 
  seq: 4065
  stamp: 
    secs: 1574453622
    nsecs: 4294952932
  frame_id: "gps"
status: 
  status: 0
  service: 3
latitude: 37.8685451
longitude: -122.2674731
altitude: 28.926
position_covariance: [7.382089000000001, 0.0, 0.0, 0.0, 7.382089000000001, 0.0, 0.0, 0.0, 33.108515999999995]
position_covariance_type: 2
---
header: 
  seq: 4066
  stamp: 
    secs: 1574453623
    nsecs: 4294953110
  frame_id: "gps"
status: 
  status: 0
  service: 3
latitude: 37.8685456
longitude: -122.2674729
altitude: 28.838
position_covariance: [7.3441, 0.0, 0.0, 0.0, 7.3441, 0.0, 0.0, 0.0, 33.385284]
position_covariance_type: 2
---
header: 
  seq: 4067
  stamp: 
    secs: 1574453624
    nsecs: 4294953288
  frame_id: "gps"
status: 
  status: 0
  service: 3
latitude: 37.8685457
longitude: -122.2674727
altitude: 28.713
position_covariance: [7.252249, 0.0, 0.0, 0.0, 7.252249, 0.0, 0.0, 0.0, 33.477796]
position_covariance_type: 2
---
header: 
  seq: 4068
  stamp: 
    secs: 1574453625
    nsecs: 4294953467
  frame_id: "gps"
status: 
  status: 0
  service: 3
latitude: 37.8685455
longitude: -122.2674727
altitude: 28.693
position_covariance: [7.171684, 0.0, 0.0, 0.0, 7.171684, 0.0, 0.0, 0.0, 33.605208999999995]
position_covariance_type: 2
---
header: 
  seq: 4069
  stamp: 
    secs: 1574453626
    nsecs: 4294953645
  frame_id: "gps"
status: 
  status: 0
  service: 3
latitude: 37.8685448
longitude: -122.2674727
altitude: 28.748
position_covariance: [7.102225, 0.0, 0.0, 0.0, 7.102225, 0.0, 0.0, 0.0, 33.709636]
position_covariance_type: 2
---
header: 
  seq: 4070
  stamp: 
    secs: 1574453627
    nsecs: 4294953823
  frame_id: "gps"
status: 
  status: 0
  service: 3
latitude: 37.8685443
longitude: -122.2674725
altitude: 28.644
position_covariance: [7.027800999999999, 0.0, 0.0, 0.0, 7.027800999999999, 0.0, 0.0, 0.0, 33.732864]
position_covariance_type: 2
---
header: 
  seq: 4071
  stamp: 
    secs: 1574453628
    nsecs: 4294954002
  frame_id: "gps"
status: 
  status: 0
  service: 3
latitude: 37.8685442
longitude: -122.2674726
altitude: 28.583
position_covariance: [6.959044, 0.0, 0.0, 0.0, 6.959044, 0.0, 0.0, 0.0, 33.744481]
position_covariance_type: 2
---
header: 
  seq: 4072
  stamp: 
    secs: 1574453629
    nsecs: 4294954180
  frame_id: "gps"
status: 
  status: 0
  service: 3
latitude: 37.8685442
longitude: -122.2674724
altitude: 28.626
position_covariance: [6.901128999999999, 0.0, 0.0, 0.0, 6.901128999999999, 0.0, 0.0, 0.0, 33.72124900000001]
position_covariance_type: 2
---
header: 
  seq: 4073
  stamp: 
    secs: 1574453630
    nsecs: 4294954359
  frame_id: "gps"
status: 
  status: 0
  service: 3
latitude: 37.8685439
longitude: -122.267472
altitude: 28.336
position_covariance: [6.853923999999999, 0.0, 0.0, 0.0, 6.853923999999999, 0.0, 0.0, 0.0, 33.709636]
position_covariance_type: 2
---
header: 
  seq: 4074
  stamp: 
    secs: 1574453631
    nsecs: 4294954537
  frame_id: "gps"
status: 
  status: 0
  service: 3
latitude: 37.8685446
longitude: -122.267472
altitude: 28.347
position_covariance: [6.822544000000001, 0.0, 0.0, 0.0, 6.822544000000001, 0.0, 0.0, 0.0, 33.686416]
position_covariance_type: 2
---
header: 
  seq: 4075
  stamp: 
    secs: 1574453632
    nsecs: 4294954715
  frame_id: "gps"
status: 
  status: 0
  service: 3
latitude: 37.8685448
longitude: -122.2674718
altitude: 28.287
position_covariance: [6.859161000000001, 0.0, 0.0, 0.0, 6.859161000000001, 0.0, 0.0, 0.0, 33.686416]
position_covariance_type: 2
---
header: 
  seq: 4076
  stamp: 
    secs: 1574453633
    nsecs: 4294954893
  frame_id: "gps"
status: 
  status: 0
  service: 3
latitude: 37.8685447
longitude: -122.2674716
altitude: 28.136
position_covariance: [6.911641, 0.0, 0.0, 0.0, 6.911641, 0.0, 0.0, 0.0, 33.686416]
position_covariance_type: 2
---
header: 
  seq: 4077
  stamp: 
    secs: 1574453634
    nsecs: 4294955072
  frame_id: "gps"
status: 
  status: 0
  service: 3
latitude: 37.8685452
longitude: -122.2674717
altitude: 28.059
position_covariance: [6.959044, 0.0, 0.0, 0.0, 6.959044, 0.0, 0.0, 0.0, 33.732864]
position_covariance_type: 2
---
header: 
  seq: 4078
  stamp: 
    secs: 1574453635
    nsecs: 4294955250
  frame_id: "gps"
status: 
  status: 0
  service: 3
latitude: 37.8685458
longitude: -122.2674717
altitude: 28.056
position_covariance: [7.011904, 0.0, 0.0, 0.0, 7.011904, 0.0, 0.0, 0.0, 33.756099999999996]
position_covariance_type: 2
---
header: 
  seq: 4079
  stamp: 
    secs: 1574453636
    nsecs: 4294955429
  frame_id: "gps"
status: 
  status: 0
  service: 3
latitude: 37.8685459
longitude: -122.2674715
altitude: 27.928
position_covariance: [7.086244, 0.0, 0.0, 0.0, 7.086244, 0.0, 0.0, 0.0, 33.81422500000001]
position_covariance_type: 2
---
header: 
  seq: 4080
  stamp: 
    secs: 1574453637
    nsecs: 4294955607
  frame_id: "gps"
status: 
  status: 0
  service: 3
latitude: 37.8685463
longitude: -122.2674716
altitude: 27.906
position_covariance: [7.1182240000000006, 0.0, 0.0, 0.0, 7.1182240000000006, 0.0, 0.0, 0.0, 33.628401000000004]
position_covariance_type: 2
---
header: 
  seq: 4081
  stamp: 
    secs: 1574453638
    nsecs: 4294955786
  frame_id: "gps"
status: 
  status: 0
  service: 3
latitude: 37.8685464
longitude: -122.2674714
altitude: 27.702
position_covariance: [7.160976000000001, 0.0, 0.0, 0.0, 7.160976000000001, 0.0, 0.0, 0.0, 33.616804]
position_covariance_type: 2
---
header: 
  seq: 4082
  stamp: 
    secs: 1574453639
    nsecs: 4294955965
  frame_id: "gps"
status: 
  status: 0
  service: 3
latitude: 37.868547
longitude: -122.2674713
altitude: 27.466
position_covariance: [7.219968999999999, 0.0, 0.0, 0.0, 7.219968999999999, 0.0, 0.0, 0.0, 33.66320399999999]
position_covariance_type: 2
---
header: 
  seq: 4083
  stamp: 
    secs: 1574453640
    nsecs: 4294956144
  frame_id: "gps"
status: 
  status: 0
  service: 3
latitude: 37.8685476
longitude: -122.2674712
altitude: 27.356
position_covariance: [7.268416000000001, 0.0, 0.0, 0.0, 7.268416000000001, 0.0, 0.0, 0.0, 33.674808999999996]
position_covariance_type: 2
---
header: 
  seq: 4084
  stamp: 
    secs: 1574453641
    nsecs: 4294956322
  frame_id: "gps"
status: 
  status: 0
  service: 3
latitude: 37.868548
longitude: -122.2674711
altitude: 27.106
position_covariance: [7.257636, 0.0, 0.0, 0.0, 7.257636, 0.0, 0.0, 0.0, 33.489368999999996]
position_covariance_type: 2
---
header: 
  seq: 4085
  stamp: 
    secs: 1574453642
    nsecs: 4294956501
  frame_id: "gps"
status: 
  status: 0
  service: 3
latitude: 37.8685483
longitude: -122.2674711
altitude: 26.932
position_covariance: [7.257636, 0.0, 0.0, 0.0, 7.257636, 0.0, 0.0, 0.0, 33.489368999999996]
position_covariance_type: 2
---
header: 
  seq: 4086
  stamp: 
    secs: 1574453643
    nsecs: 4294956680
  frame_id: "gps"
status: 
  status: 0
  service: 3
latitude: 37.8685488
longitude: -122.2674711
altitude: 26.765
position_covariance: [7.246864000000001, 0.0, 0.0, 0.0, 7.246864000000001, 0.0, 0.0, 0.0, 33.350625]
position_covariance_type: 2
---
header: 
  seq: 4087
  stamp: 
    secs: 1574453644
    nsecs: 4294956859
  frame_id: "gps"
status: 
  status: 0
  service: 3
latitude: 37.8685493
longitude: -122.2674713
altitude: 26.557
position_covariance: [7.263024999999999, 0.0, 0.0, 0.0, 7.263024999999999, 0.0, 0.0, 0.0, 33.385284]
position_covariance_type: 2
---
header: 
  seq: 4088
  stamp: 
    secs: 1574453645
    nsecs: 4294957038
  frame_id: "gps"
status: 
  status: 0
  service: 3
latitude: 37.8685497
longitude: -122.2674716
altitude: 26.302
position_covariance: [7.306208999999999, 0.0, 0.0, 0.0, 7.306208999999999, 0.0, 0.0, 0.0, 33.500944000000004]
position_covariance_type: 2
---
header: 
  seq: 4089
  stamp: 
    secs: 1574453646
    nsecs: 4294957217
  frame_id: "gps"
status: 
  status: 0
  service: 3
latitude: 37.8685501
longitude: -122.2674715
altitude: 26.016
position_covariance: [7.327849, 0.0, 0.0, 0.0, 7.327849, 0.0, 0.0, 0.0, 33.454656]
position_covariance_type: 2
---
header: 
  seq: 4090
  stamp: 
    secs: 1574453647
    nsecs: 4294957396
  frame_id: "gps"
status: 
  status: 0
  service: 3
latitude: 37.8685509
longitude: -122.2674715
altitude: 25.766
position_covariance: [7.354944000000001, 0.0, 0.0, 0.0, 7.354944000000001, 0.0, 0.0, 0.0, 33.558849]
position_covariance_type: 2
---
header: 
  seq: 4091
  stamp: 
    secs: 1574453648
    nsecs: 4294957575
  frame_id: "gps"
status: 
  status: 0
  service: 3
latitude: 37.8685516
longitude: -122.2674715
altitude: 25.447
position_covariance: [7.4147289999999995, 0.0, 0.0, 0.0, 7.4147289999999995, 0.0, 0.0, 0.0, 33.802596]
position_covariance_type: 2
---
header: 
  seq: 4092
  stamp: 
    secs: 1574453649
    nsecs: 4294957754
  frame_id: "gps"
status: 
  status: 0
  service: 3
latitude: 37.8685521
longitude: -122.2674716
altitude: 25.217
position_covariance: [7.485696000000001, 0.0, 0.0, 0.0, 7.485696000000001, 0.0, 0.0, 0.0, 34.070569]
position_covariance_type: 2
---
header: 
  seq: 4093
  stamp: 
    secs: 1574453650
    nsecs: 4294957933
  frame_id: "gps"
status: 
  status: 0
  service: 3
latitude: 37.8685527
longitude: -122.2674715
altitude: 25.05
position_covariance: [7.551504000000001, 0.0, 0.0, 0.0, 7.551504000000001, 0.0, 0.0, 0.0, 34.31616399999999]
position_covariance_type: 2
---
header: 
  seq: 4094
  stamp: 
    secs: 1574453651
    nsecs: 4294958112
  frame_id: "gps"
status: 
  status: 0
  service: 3
latitude: 37.8685527
longitude: -122.2674711
altitude: 24.824
position_covariance: [7.579009000000001, 0.0, 0.0, 0.0, 7.579009000000001, 0.0, 0.0, 0.0, 34.621456]
position_covariance_type: 2
---
header: 
  seq: 4095
  stamp: 
    secs: 1574453652
    nsecs: 4294958291
  frame_id: "gps"
status: 
  status: 0
  service: 3
latitude: 37.8685523
longitude: -122.2674711
altitude: 24.473
position_covariance: [7.546009, 0.0, 0.0, 0.0, 7.546009, 0.0, 0.0, 0.0, 34.81]
position_covariance_type: 2
---
header: 
  seq: 4096
  stamp: 
    secs: 1574453653
    nsecs: 4294958471
  frame_id: "gps"
status: 
  status: 0
  service: 3
latitude: 37.8685524
longitude: -122.2674711
altitude: 24.063
position_covariance: [7.529536000000001, 0.0, 0.0, 0.0, 7.529536000000001, 0.0, 0.0, 0.0, 35.141184]
position_covariance_type: 2
---
header: 
  seq: 4097
  stamp: 
    secs: 1574453654
    nsecs: 4294958650
  frame_id: "gps"
status: 
  status: 0
  service: 3
latitude: 37.8685525
longitude: -122.2674733
altitude: 23.762
position_covariance: [7.579009000000001, 0.0, 0.0, 0.0, 7.579009000000001, 0.0, 0.0, 0.0, 35.640899999999995]
position_covariance_type: 2
---
header: 
  seq: 4098
  stamp: 
    secs: 1574453655
    nsecs: 4294958829
  frame_id: "gps"
status: 
  status: 0
  service: 3
latitude: 37.8685515
longitude: -122.2674802
altitude: 23.53
position_covariance: [7.711729000000001, 0.0, 0.0, 0.0, 7.711729000000001, 0.0, 0.0, 0.0, 36.300625000000004]
position_covariance_type: 2
---
header: 
  seq: 4099
  stamp: 
    secs: 1574453656
    nsecs: 4294959008
  frame_id: "gps"
status: 
  status: 0
  service: 3
latitude: 37.8685499
longitude: -122.2674962
altitude: 23.196
position_covariance: [7.392961, 0.0, 0.0, 0.0, 7.392961, 0.0, 0.0, 0.0, 34.351321]
position_covariance_type: 2
---
header: 
  seq: 4100
  stamp: 
    secs: 1574453657
    nsecs: 4294959188
  frame_id: "gps"
status: 
  status: 0
  service: 3
latitude: 37.8685458
longitude: -122.2675262
altitude: 22.77
position_covariance: [7.0490249999999985, 0.0, 0.0, 0.0, 7.0490249999999985, 0.0, 0.0, 0.0, 32.524209000000006]
position_covariance_type: 2
---
header: 
  seq: 4101
  stamp: 
    secs: 1574453658
    nsecs: 4294959366
  frame_id: "gps"
status: 
  status: 0
  service: 3
latitude: 37.8685396
longitude: -122.2675733
altitude: 22.916
position_covariance: [6.687396, 0.0, 0.0, 0.0, 6.687396, 0.0, 0.0, 0.0, 30.869136]
position_covariance_type: 2
---
header: 
  seq: 4102
  stamp: 
    secs: 1574453659
    nsecs: 4294959544
  frame_id: "gps"
status: 
  status: 0
  service: 3
latitude: 37.8685302
longitude: -122.267631
altitude: 23.529
position_covariance: [6.385729, 0.0, 0.0, 0.0, 6.385729, 0.0, 0.0, 0.0, 29.441476]
position_covariance_type: 2
---
header: 
  seq: 4103
  stamp: 
    secs: 1574453660
    nsecs: 4294959722
  frame_id: "gps"
status: 
  status: 0
  service: 3
latitude: 37.86852
longitude: -122.2676975
altitude: 23.968
position_covariance: [5.9976009999999995, 0.0, 0.0, 0.0, 5.9976009999999995, 0.0, 0.0, 0.0, 27.941795999999997]
position_covariance_type: 2
---
header: 
  seq: 4104
  stamp: 
    secs: 1574453661
    nsecs: 4294959901
  frame_id: "gps"
status: 
  status: 0
  service: 3
latitude: 37.8685081
longitude: -122.267772
altitude: 23.9
position_covariance: [5.6358760000000006, 0.0, 0.0, 0.0, 5.6358760000000006, 0.0, 0.0, 0.0, 26.501903999999996]
position_covariance_type: 2
---
header: 
  seq: 4105
  stamp: 
    secs: 1574453662
    nsecs: 4294960080
  frame_id: "gps"
status: 
  status: 0
  service: 3
latitude: 37.8684977
longitude: -122.2678551
altitude: 23.612
position_covariance: [5.193841, 0.0, 0.0, 0.0, 5.193841, 0.0, 0.0, 0.0, 24.561936000000003]
position_covariance_type: 2
---
header: 
  seq: 4106
  stamp: 
    secs: 1574453663
    nsecs: 4294960259
  frame_id: "gps"
status: 
  status: 0
  service: 3
latitude: 37.868484
longitude: -122.2679434
altitude: 23.173
position_covariance: [4.853209, 0.0, 0.0, 0.0, 4.853209, 0.0, 0.0, 0.0, 23.107249000000003]
position_covariance_type: 2
---
header: 
  seq: 4107
  stamp: 
    secs: 1574453664
    nsecs: 4294960439
  frame_id: "gps"
status: 
  status: 0
  service: 3
latitude: 37.8684695
longitude: -122.2680317
altitude: 22.671
position_covariance: [4.6785689999999995, 0.0, 0.0, 0.0, 4.6785689999999995, 0.0, 0.0, 0.0, 22.080600999999998]
position_covariance_type: 2
---
header: 
  seq: 4108
  stamp: 
    secs: 1574453665
    nsecs: 4294960618
  frame_id: "gps"
status: 
  status: 0
  service: 3
latitude: 37.8684549
longitude: -122.2681185
altitude: 22.307
position_covariance: [4.601025, 0.0, 0.0, 0.0, 4.601025, 0.0, 0.0, 0.0, 20.9764]
position_covariance_type: 2
---
header: 
  seq: 4109
  stamp: 
    secs: 1574453666
    nsecs: 4294960796
  frame_id: "gps"
status: 
  status: 0
  service: 3
latitude: 37.8684406
longitude: -122.2682046
altitude: 22.318
position_covariance: [4.528384000000001, 0.0, 0.0, 0.0, 4.528384000000001, 0.0, 0.0, 0.0, 20.322064]
position_covariance_type: 2
---
header: 
  seq: 4110
  stamp: 
    secs: 1574453667
    nsecs: 4294960974
  frame_id: "gps"
status: 
  status: 0
  service: 3
latitude: 37.8684262
longitude: -122.2682931
altitude: 22.125
position_covariance: [4.652649, 0.0, 0.0, 0.0, 4.652649, 0.0, 0.0, 0.0, 20.820968999999998]
position_covariance_type: 2
---
header: 
  seq: 4111
  stamp: 
    secs: 1574453668
    nsecs: 4294961152
  frame_id: "gps"
status: 
  status: 0
  service: 3
latitude: 37.8684137
longitude: -122.2683832
altitude: 22.224
position_covariance: [4.932841000000001, 0.0, 0.0, 0.0, 4.932841000000001, 0.0, 0.0, 0.0, 20.820968999999998]
position_covariance_type: 2
---
header: 
  seq: 4112
  stamp: 
    secs: 1574453669
    nsecs: 4294961328
  frame_id: "gps"
status: 
  status: 0
  service: 3
latitude: 37.8684014
longitude: -122.2684742
altitude: 22.535
position_covariance: [5.189284, 0.0, 0.0, 0.0, 5.189284, 0.0, 0.0, 0.0, 21.013055999999995]
position_covariance_type: 2
---
header: 
  seq: 4113
  stamp: 
    secs: 1574453670
    nsecs: 4294961507
  frame_id: "gps"
status: 
  status: 0
  service: 3
latitude: 37.8683901
longitude: -122.268567
altitude: 22.326
position_covariance: [5.607423999999999, 0.0, 0.0, 0.0, 5.607423999999999, 0.0, 0.0, 0.0, 21.977344]
position_covariance_type: 2
---
header: 
  seq: 4114
  stamp: 
    secs: 1574453671
    nsecs: 4294961686
  frame_id: "gps"
status: 
  status: 0
  service: 3
latitude: 37.8683785
longitude: -122.2686596
altitude: 21.669
position_covariance: [6.471936, 0.0, 0.0, 0.0, 6.471936, 0.0, 0.0, 0.0, 23.493409000000003]
position_covariance_type: 2
---
header: 
  seq: 4115
  stamp: 
    secs: 1574453672
    nsecs: 4294961864
  frame_id: "gps"
status: 
  status: 0
  service: 3
latitude: 37.868369
longitude: -122.2687471
altitude: 21.91
position_covariance: [7.496644, 0.0, 0.0, 0.0, 7.496644, 0.0, 0.0, 0.0, 25.331089000000002]
position_covariance_type: 2
---
header: 
  seq: 4116
  stamp: 
    secs: 1574453673
    nsecs: 4294962045
  frame_id: "gps"
status: 
  status: 0
  service: 3
latitude: 37.8683601
longitude: -122.2688225
altitude: 21.193
position_covariance: [7.958041000000001, 0.0, 0.0, 0.0, 7.958041000000001, 0.0, 0.0, 0.0, 26.275876000000004]
position_covariance_type: 2
---
header: 
  seq: 4117
  stamp: 
    secs: 1574453674
    nsecs: 4294962224
  frame_id: "gps"
status: 
  status: 0
  service: 3
latitude: 37.8683549
longitude: -122.2688837
altitude: 21.191
position_covariance: [7.823209000000001, 0.0, 0.0, 0.0, 7.823209000000001, 0.0, 0.0, 0.0, 26.604964000000002]
position_covariance_type: 2
---
header: 
  seq: 4118
  stamp: 
    secs: 1574453675
    nsecs: 4294962402
  frame_id: "gps"
status: 
  status: 0
  service: 3
latitude: 37.8683538
longitude: -122.2689287
altitude: 21.736
position_covariance: [7.551504000000001, 0.0, 0.0, 0.0, 7.551504000000001, 0.0, 0.0, 0.0, 26.780624999999997]
position_covariance_type: 2
---
header: 
  seq: 4119
  stamp: 
    secs: 1574453676
    nsecs: 4294962579
  frame_id: "gps"
status: 
  status: 0
  service: 3
latitude: 37.868349
longitude: -122.2689565
altitude: 22.06
position_covariance: [6.859161000000001, 0.0, 0.0, 0.0, 6.859161000000001, 0.0, 0.0, 0.0, 25.512601]
position_covariance_type: 2
---
header: 
  seq: 4120
  stamp: 
    secs: 1574453677
    nsecs: 4294962757
  frame_id: "gps"
status: 
  status: 0
  service: 3
latitude: 37.868348
longitude: -122.2689662
altitude: 22.077
position_covariance: [6.280035999999999, 0.0, 0.0, 0.0, 6.280035999999999, 0.0, 0.0, 0.0, 24.265476000000003]
position_covariance_type: 2
---
header: 
  seq: 4121
  stamp: 
    secs: 1574453678
    nsecs: 4294962935
  frame_id: "gps"
status: 
  status: 0
  service: 3
latitude: 37.86835
longitude: -122.2689694
altitude: 22.345
position_covariance: [5.788836000000001, 0.0, 0.0, 0.0, 5.788836000000001, 0.0, 0.0, 0.0, 23.444963999999995]
position_covariance_type: 2
---
header: 
  seq: 4122
  stamp: 
    secs: 1574453679
    nsecs: 4294963112
  frame_id: "gps"
status: 
  status: 0
  service: 3
latitude: 37.8683489
longitude: -122.2689778
altitude: 22.823
position_covariance: [5.377761, 0.0, 0.0, 0.0, 5.377761, 0.0, 0.0, 0.0, 22.638564]
position_covariance_type: 2
---
header: 
  seq: 4123
  stamp: 
    secs: 1574453680
    nsecs: 4294963291
  frame_id: "gps"
status: 
  status: 0
  service: 3
latitude: 37.8683492
longitude: -122.2689955
altitude: 22.62
position_covariance: [5.1529, 0.0, 0.0, 0.0, 5.1529, 0.0, 0.0, 0.0, 22.268961000000004]
position_covariance_type: 2
---
header: 
  seq: 4124
  stamp: 
    secs: 1574453681
    nsecs: 4294963469
  frame_id: "gps"
status: 
  status: 0
  service: 3
latitude: 37.8683527
longitude: -122.2690199
altitude: 22.854
position_covariance: [4.9729, 0.0, 0.0, 0.0, 4.9729, 0.0, 0.0, 0.0, 22.118209000000004]
position_covariance_type: 2
---
header: 
  seq: 4125
  stamp: 
    secs: 1574453682
    nsecs: 4294963647
  frame_id: "gps"
status: 
  status: 0
  service: 3
latitude: 37.8683612
longitude: -122.2690504
altitude: 22.772
position_covariance: [4.968441, 0.0, 0.0, 0.0, 4.968441, 0.0, 0.0, 0.0, 22.610025]
position_covariance_type: 2
---
header: 
  seq: 4126
  stamp: 
    secs: 1574453683
    nsecs: 4294963825
  frame_id: "gps"
status: 
  status: 0
  service: 3
latitude: 37.8683786
longitude: -122.2690845
altitude: 23.034
position_covariance: [5.044516, 0.0, 0.0, 0.0, 5.044516, 0.0, 0.0, 0.0, 22.505536]
position_covariance_type: 2
---
header: 
  seq: 4127
  stamp: 
    secs: 1574453684
    nsecs: 4294964003
  frame_id: "gps"
status: 
  status: 0
  service: 3
latitude: 37.8684059
longitude: -122.2691167
altitude: 23.139
position_covariance: [5.612161000000001, 0.0, 0.0, 0.0, 5.612161000000001, 0.0, 0.0, 0.0, 24.137569000000003]
position_covariance_type: 2
---
header: 
  seq: 4128
  stamp: 
    secs: 1574453685
    nsecs: 4294964181
  frame_id: "gps"
status: 
  status: 0
  service: 3
latitude: 37.8684463
longitude: -122.2691427
altitude: 23.411
position_covariance: [6.5433639999999995, 0.0, 0.0, 0.0, 6.5433639999999995, 0.0, 0.0, 0.0, 25.110121]
position_covariance_type: 2
---
header: 
  seq: 4129
  stamp: 
    secs: 1574453686
    nsecs: 4294964359
  frame_id: "gps"
status: 
  status: 0
  service: 3
latitude: 37.8684971
longitude: -122.2691595
altitude: 23.517
position_covariance: [6.411024, 0.0, 0.0, 0.0, 6.411024, 0.0, 0.0, 0.0, 25.532809]
position_covariance_type: 2
---
header: 
  seq: 4130
  stamp: 
    secs: 1574453687
    nsecs: 4294964537
  frame_id: "gps"
status: 
  status: 0
  service: 3
latitude: 37.868555
longitude: -122.2691736
altitude: 23.512
position_covariance: [6.661561, 0.0, 0.0, 0.0, 6.661561, 0.0, 0.0, 0.0, 26.915343999999997]
position_covariance_type: 2
---
header: 
  seq: 4131
  stamp: 
    secs: 1574453688
    nsecs: 4294964715
  frame_id: "gps"
status: 
  status: 0
  service: 3
latitude: 37.8686191
longitude: -122.2691897
altitude: 23.619
position_covariance: [7.263024999999999, 0.0, 0.0, 0.0, 7.263024999999999, 0.0, 0.0, 0.0, 27.793984000000002]
position_covariance_type: 2
---
header: 
  seq: 4132
  stamp: 
    secs: 1574453689
    nsecs: 4294964893
  frame_id: "gps"
status: 
  status: 0
  service: 3
latitude: 37.8686872
longitude: -122.2692078
altitude: 23.679
position_covariance: [7.896100000000001, 0.0, 0.0, 0.0, 7.896100000000001, 0.0, 0.0, 0.0, 30.239000999999995]
position_covariance_type: 2
---
header: 
  seq: 4133
  stamp: 
    secs: 1574453690
    nsecs: 4294965072
  frame_id: "gps"
status: 
  status: 0
  service: 3
latitude: 37.868756
longitude: -122.2692234
altitude: 23.503
position_covariance: [8.042895999999999, 0.0, 0.0, 0.0, 8.042895999999999, 0.0, 0.0, 0.0, 31.505769000000004]
position_covariance_type: 2
---
header: 
  seq: 4134
  stamp: 
    secs: 1574453691
    nsecs: 4294965251
  frame_id: "gps"
status: 
  status: 0
  service: 3
latitude: 37.8688199
longitude: -122.2692346
altitude: 23.536
position_covariance: [8.1225, 0.0, 0.0, 0.0, 8.1225, 0.0, 0.0, 0.0, 33.593616000000004]
position_covariance_type: 2
---
header: 
  seq: 4135
  stamp: 
    secs: 1574453692
    nsecs: 4294965433
  frame_id: "gps"
status: 
  status: 0
  service: 3
latitude: 37.8688845
longitude: -122.2692431
altitude: 22.204
position_covariance: [9.114361, 0.0, 0.0, 0.0, 9.114361, 0.0, 0.0, 0.0, 37.17340900000001]
position_covariance_type: 2
---
header: 
  seq: 4136
  stamp: 
    secs: 1574453693
    nsecs: 4294965610
  frame_id: "gps"
status: 
  status: 0
  service: 3
latitude: 37.8689432
longitude: -122.2692524
altitude: 22.643
position_covariance: [10.252804, 0.0, 0.0, 0.0, 10.252804, 0.0, 0.0, 0.0, 40.284409000000004]
position_covariance_type: 2
---
header: 
  seq: 4137
  stamp: 
    secs: 1574453694
    nsecs: 4294965787
  frame_id: "gps"
status: 
  status: 0
  service: 3
latitude: 37.8689918
longitude: -122.2692575
altitude: 23.203
position_covariance: [10.439361, 0.0, 0.0, 0.0, 10.439361, 0.0, 0.0, 0.0, 41.912676000000005]
position_covariance_type: 2
---
header: 
  seq: 4138
  stamp: 
    secs: 1574453695
    nsecs: 4294965965
  frame_id: "gps"
status: 
  status: 0
  service: 3
latitude: 37.8690254
longitude: -122.2692641
altitude: 23.443
position_covariance: [10.265616000000001, 0.0, 0.0, 0.0, 10.265616000000001, 0.0, 0.0, 0.0, 43.1649]
position_covariance_type: 2
---
header: 
  seq: 4139
  stamp: 
    secs: 1574453696
    nsecs: 4294966143
  frame_id: "gps"
status: 
  status: 0
  service: 3
latitude: 37.8690487
longitude: -122.2692699
altitude: 23.432
position_covariance: [9.947716, 0.0, 0.0, 0.0, 9.947716, 0.0, 0.0, 0.0, 43.1649]
position_covariance_type: 2
---
header: 
  seq: 4140
  stamp: 
    secs: 1574453697
    nsecs: 4294966322
  frame_id: "gps"
status: 
  status: 0
  service: 3
latitude: 37.8690591
longitude: -122.2692716
altitude: 23.075
position_covariance: [9.278115999999999, 0.0, 0.0, 0.0, 9.278115999999999, 0.0, 0.0, 0.0, 40.870449]
position_covariance_type: 2
---
header: 
  seq: 4141
  stamp: 
    secs: 1574453698
    nsecs: 4294966501
  frame_id: "gps"
status: 
  status: 0
  service: 3
latitude: 37.8690642
longitude: -122.2692711
altitude: 22.708
position_covariance: [8.631844000000001, 0.0, 0.0, 0.0, 8.631844000000001, 0.0, 0.0, 0.0, 39.425841]
position_covariance_type: 2
---
header: 
  seq: 4142
  stamp: 
    secs: 1574453699
    nsecs: 4294966678
  frame_id: "gps"
status: 
  status: 0
  service: 3
latitude: 37.869067
longitude: -122.2692745
altitude: 23.465
position_covariance: [8.202496, 0.0, 0.0, 0.0, 8.202496, 0.0, 0.0, 0.0, 38.1924]
position_covariance_type: 2
---
header: 
  seq: 4143
  stamp: 
    secs: 1574453700
    nsecs: 4294966855
  frame_id: "gps"
status: 
  status: 0
  service: 3
latitude: 37.8690675
longitude: -122.2692757
altitude: 23.781
position_covariance: [7.851204, 0.0, 0.0, 0.0, 7.851204, 0.0, 0.0, 0.0, 37.185604]
position_covariance_type: 2
---
header: 
  seq: 4144
  stamp: 
    secs: 1574453701
    nsecs: 4294967033
  frame_id: "gps"
status: 
  status: 0
  service: 3
latitude: 37.869068
longitude: -122.2692773
altitude: 24.092
position_covariance: [7.518564, 0.0, 0.0, 0.0, 7.518564, 0.0, 0.0, 0.0, 37.442161]
position_covariance_type: 2
---
header: 
  seq: 4145
  stamp: 
    secs: 1574453702
    nsecs: 4294967210
  frame_id: "gps"
status: 
  status: 0
  service: 3
latitude: 37.8690708
longitude: -122.2692771
altitude: 24.568
position_covariance: [7.295401, 0.0, 0.0, 0.0, 7.295401, 0.0, 0.0, 0.0, 37.982569000000005]
position_covariance_type: 2
---
header: 
  seq: 4146
  stamp: 
    secs: 1574453703
    nsecs:        90
  frame_id: "gps"
status: 
  status: 0
  service: 3
latitude: 37.8690733
longitude: -122.2692782
altitude: 24.696
position_covariance: [7.0756000000000006, 0.0, 0.0, 0.0, 7.0756000000000006, 0.0, 0.0, 0.0, 38.601369]
position_covariance_type: 2
---
header: 
  seq: 4147
  stamp: 
    secs: 1574453704
    nsecs:       267
  frame_id: "gps"
status: 
  status: 0
  service: 3
latitude: 37.8690748
longitude: -122.2692784
altitude: 25.136
position_covariance: [6.911641, 0.0, 0.0, 0.0, 6.911641, 0.0, 0.0, 0.0, 39.125025]
position_covariance_type: 2
---
header: 
  seq: 4148
  stamp: 
    secs: 1574453705
    nsecs:       445
  frame_id: "gps"
status: 
  status: 0
  service: 3
latitude: 37.8690745
longitude: -122.2692785
altitude: 25.28
position_covariance: [6.754801000000001, 0.0, 0.0, 0.0, 6.754801000000001, 0.0, 0.0, 0.0, 39.350528999999995]
position_covariance_type: 2
---
header: 
  seq: 4149
  stamp: 
    secs: 1574453706
    nsecs:       623
  frame_id: "gps"
status: 
  status: 0
  service: 3
latitude: 37.8690742
longitude: -122.2692789
altitude: 25.45
position_covariance: [6.589489000000001, 0.0, 0.0, 0.0, 6.589489000000001, 0.0, 0.0, 0.0, 39.37562500000001]
position_covariance_type: 2
---
header: 
  seq: 4150
  stamp: 
    secs: 1574453707
    nsecs:       801
  frame_id: "gps"
status: 
  status: 0
  service: 3
latitude: 37.8690738
longitude: -122.2692794
altitude: 25.493
position_covariance: [6.461763999999999, 0.0, 0.0, 0.0, 6.461763999999999, 0.0, 0.0, 0.0, 39.476089]
position_covariance_type: 2
---
header: 
  seq: 4151
  stamp: 
    secs: 1574453708
    nsecs:       979
  frame_id: "gps"
status: 
  status: 0
  service: 3
latitude: 37.8690769
longitude: -122.2692807
altitude: 25.666
position_covariance: [6.310144, 0.0, 0.0, 0.0, 6.310144, 0.0, 0.0, 0.0, 38.638656000000005]
position_covariance_type: 2
---
header: 
  seq: 4152
  stamp: 
    secs: 1574453709
    nsecs:      1156
  frame_id: "gps"
status: 
  status: 0
  service: 3
latitude: 37.8690874
longitude: -122.2692816
altitude: 25.759
position_covariance: [6.105841000000001, 0.0, 0.0, 0.0, 6.105841000000001, 0.0, 0.0, 0.0, 37.05156899999999]
position_covariance_type: 2
---
header: 
  seq: 4153
  stamp: 
    secs: 1574453710
    nsecs:      1336
  frame_id: "gps"
status: 
  status: 0
  service: 3
latitude: 37.8691045
longitude: -122.269283
altitude: 25.375
position_covariance: [5.890329, 0.0, 0.0, 0.0, 5.890329, 0.0, 0.0, 0.0, 35.56929600000001]
position_covariance_type: 2
---
header: 
  seq: 4154
  stamp: 
    secs: 1574453711
    nsecs:      1511
  frame_id: "gps"
status: 
  status: 0
  service: 3
latitude: 37.8691279
longitude: -122.269291
altitude: 26.302
position_covariance: [5.583769, 0.0, 0.0, 0.0, 5.583769, 0.0, 0.0, 0.0, 33.547264]
position_covariance_type: 2
---
header: 
  seq: 4155
  stamp: 
    secs: 1574453712
    nsecs:      1692
  frame_id: "gps"
status: 
  status: 0
  service: 3
latitude: 37.86915
longitude: -122.2693101
altitude: 25.578
position_covariance: [5.134756, 0.0, 0.0, 0.0, 5.134756, 0.0, 0.0, 0.0, 29.398083999999997]
position_covariance_type: 2
---
header: 
  seq: 4156
  stamp: 
    secs: 1574453713
    nsecs:      1871
  frame_id: "gps"
status: 
  status: 0
  service: 3
latitude: 37.8691676
longitude: -122.2693446
altitude: 25.165
position_covariance: [4.8004809999999996, 0.0, 0.0, 0.0, 4.8004809999999996, 0.0, 0.0, 0.0, 27.040000000000003]
position_covariance_type: 2
---
header: 
  seq: 4157
  stamp: 
    secs: 1574453714
    nsecs:      2050
  frame_id: "gps"
status: 
  status: 0
  service: 3
latitude: 37.8691757
longitude: -122.2693973
altitude: 24.943
position_covariance: [4.566769, 0.0, 0.0, 0.0, 4.566769, 0.0, 0.0, 0.0, 25.130169]
position_covariance_type: 2
---
header: 
  seq: 4158
  stamp: 
    secs: 1574453715
    nsecs:      2229
  frame_id: "gps"
status: 
  status: 0
  service: 3
latitude: 37.8691754
longitude: -122.2694651
altitude: 24.633
position_covariance: [4.473225000000001, 0.0, 0.0, 0.0, 4.473225000000001, 0.0, 0.0, 0.0, 24.423364000000003]
position_covariance_type: 2
---
header: 
  seq: 4159
  stamp: 
    secs: 1574453716
    nsecs:      2406
  frame_id: "gps"
status: 
  status: 0
  service: 3
latitude: 37.8691689
longitude: -122.2695428
altitude: 24.639
position_covariance: [4.511376, 0.0, 0.0, 0.0, 4.511376, 0.0, 0.0, 0.0, 23.872996]
position_covariance_type: 2
---
header: 
  seq: 4160
  stamp: 
    secs: 1574453717
    nsecs:      2585
  frame_id: "gps"
status: 
  status: 0
  service: 3
latitude: 37.8691598
longitude: -122.2696261
altitude: 24.519
position_covariance: [4.721929, 0.0, 0.0, 0.0, 4.721929, 0.0, 0.0, 0.0, 24.019800999999998]
position_covariance_type: 2
---
header: 
  seq: 4161
  stamp: 
    secs: 1574453718
    nsecs:      2763
  frame_id: "gps"
status: 
  status: 0
  service: 3
latitude: 37.86915
longitude: -122.2697132
altitude: 24.358
position_covariance: [4.963984000000001, 0.0, 0.0, 0.0, 4.963984000000001, 0.0, 0.0, 0.0, 23.775376000000005]
position_covariance_type: 2
---
header: 
  seq: 4162
  stamp: 
    secs: 1574453719
    nsecs:      2941
  frame_id: "gps"
status: 
  status: 0
  service: 3
latitude: 37.8691409
longitude: -122.2698043
altitude: 24.209
position_covariance: [5.363855999999999, 0.0, 0.0, 0.0, 5.363855999999999, 0.0, 0.0, 0.0, 24.970008999999997]
position_covariance_type: 2
---
header: 
  seq: 4163
  stamp: 
    secs: 1574453720
    nsecs:      3119
  frame_id: "gps"
status: 
  status: 0
  service: 3
latitude: 37.869132
longitude: -122.2698955
altitude: 24.076
position_covariance: [5.914624, 0.0, 0.0, 0.0, 5.914624, 0.0, 0.0, 0.0, 25.421764]
position_covariance_type: 2
---
header: 
  seq: 4164
  stamp: 
    secs: 1574453721
    nsecs:      3298
  frame_id: "gps"
status: 
  status: 0
  service: 3
latitude: 37.8691216
longitude: -122.269983
altitude: 23.782
position_covariance: [6.105841000000001, 0.0, 0.0, 0.0, 6.105841000000001, 0.0, 0.0, 0.0, 25.704900000000002]
position_covariance_type: 2
---
header: 
  seq: 4165
  stamp: 
    secs: 1574453722
    nsecs:      3476
  frame_id: "gps"
status: 
  status: 0
  service: 3
latitude: 37.8691106
longitude: -122.270065
altitude: 23.43
position_covariance: [6.456681, 0.0, 0.0, 0.0, 6.456681, 0.0, 0.0, 0.0, 26.409321000000002]
position_covariance_type: 2
---
header: 
  seq: 4166
  stamp: 
    secs: 1574453723
    nsecs:      3654
  frame_id: "gps"
status: 
  status: 0
  service: 3
latitude: 37.8691026
longitude: -122.270137
altitude: 23.506
position_covariance: [6.812099999999999, 0.0, 0.0, 0.0, 6.812099999999999, 0.0, 0.0, 0.0, 26.998416]
position_covariance_type: 2
---
header: 
  seq: 4167
  stamp: 
    secs: 1574453724
    nsecs:      3831
  frame_id: "gps"
status: 
  status: 0
  service: 3
latitude: 37.8690957
longitude: -122.2701978
altitude: 23.648
position_covariance: [6.985448999999999, 0.0, 0.0, 0.0, 6.985448999999999, 0.0, 0.0, 0.0, 26.790976]
position_covariance_type: 2
---
header: 
  seq: 4168
  stamp: 
    secs: 1574453725
    nsecs:      4011
  frame_id: "gps"
status: 
  status: 0
  service: 3
latitude: 37.8690899
longitude: -122.2702455
altitude: 23.226
position_covariance: [7.070280999999999, 0.0, 0.0, 0.0, 7.070280999999999, 0.0, 0.0, 0.0, 26.853124000000005]
position_covariance_type: 2
---
header: 
  seq: 4169
  stamp: 
    secs: 1574453726
    nsecs:      4189
  frame_id: "gps"
status: 
  status: 0
  service: 3
latitude: 37.8690862
longitude: -122.2702771
altitude: 23.208
position_covariance: [7.284600999999999, 0.0, 0.0, 0.0, 7.284600999999999, 0.0, 0.0, 0.0, 27.217088999999998]
position_covariance_type: 2
---
header: 
  seq: 4170
  stamp: 
    secs: 1574453727
    nsecs:      4367
  frame_id: "gps"
status: 
  status: 0
  service: 3
latitude: 37.8690845
longitude: -122.2702926
altitude: 23.022
position_covariance: [7.502120999999999, 0.0, 0.0, 0.0, 7.502120999999999, 0.0, 0.0, 0.0, 27.625536000000004]
position_covariance_type: 2
---
header: 
  seq: 4171
  stamp: 
    secs: 1574453728
    nsecs:      4547
  frame_id: "gps"
status: 
  status: 0
  service: 3
latitude: 37.8690846
longitude: -122.2702966
altitude: 22.634
position_covariance: [7.612081, 0.0, 0.0, 0.0, 7.612081, 0.0, 0.0, 0.0, 27.846729]
position_covariance_type: 2
---
header: 
  seq: 4172
  stamp: 
    secs: 1574453729
    nsecs:      4725
  frame_id: "gps"
status: 
  status: 0
  service: 3
latitude: 37.8690855
longitude: -122.2702969
altitude: 22.6
position_covariance: [7.722841, 0.0, 0.0, 0.0, 7.722841, 0.0, 0.0, 0.0, 28.259856]
position_covariance_type: 2
---
header: 
  seq: 4173
  stamp: 
    secs: 1574453730
    nsecs:      4904
  frame_id: "gps"
status: 
  status: 0
  service: 3
latitude: 37.8690859
longitude: -122.2703023
altitude: 22.415
position_covariance: [7.963684000000001, 0.0, 0.0, 0.0, 7.963684000000001, 0.0, 0.0, 0.0, 28.912128999999997]
position_covariance_type: 2
---
header: 
  seq: 4174
  stamp: 
    secs: 1574453731
    nsecs:      5084
  frame_id: "gps"
status: 
  status: 0
  service: 3
latitude: 37.8690866
longitude: -122.2703152
altitude: 22.163
position_covariance: [8.191044, 0.0, 0.0, 0.0, 8.191044, 0.0, 0.0, 0.0, 29.073664000000004]
position_covariance_type: 2
---
header: 
  seq: 4175
  stamp: 
    secs: 1574453732
    nsecs:      5263
  frame_id: "gps"
status: 
  status: 0
  service: 3
latitude: 37.8690906
longitude: -122.2703311
altitude: 21.927
position_covariance: [8.346321, 0.0, 0.0, 0.0, 8.346321, 0.0, 0.0, 0.0, 29.181604]
position_covariance_type: 2
---
header: 
  seq: 4176
  stamp: 
    secs: 1574453733
    nsecs:      5442
  frame_id: "gps"
status: 
  status: 0
  service: 3
latitude: 37.8690948
longitude: -122.2703474
altitude: 21.743
position_covariance: [8.584900000000001, 0.0, 0.0, 0.0, 8.584900000000001, 0.0, 0.0, 0.0, 30.140100000000004]
position_covariance_type: 2
---
header: 
  seq: 4177
  stamp: 
    secs: 1574453734
    nsecs:      5621
  frame_id: "gps"
status: 
  status: 0
  service: 3
latitude: 37.8691002
longitude: -122.2703652
altitude: 21.581
position_covariance: [8.862528999999999, 0.0, 0.0, 0.0, 8.862528999999999, 0.0, 0.0, 0.0, 30.448324]
position_covariance_type: 2
---
header: 
  seq: 4178
  stamp: 
    secs: 1574453735
    nsecs:      5801
  frame_id: "gps"
status: 
  status: 0
  service: 3
latitude: 37.8691115
longitude: -122.2703882
altitude: 21.221
position_covariance: [8.809023999999999, 0.0, 0.0, 0.0, 8.809023999999999, 0.0, 0.0, 0.0, 29.746115999999997]
position_covariance_type: 2
---
header: 
  seq: 4179
  stamp: 
    secs: 1574453736
    nsecs:      5980
  frame_id: "gps"
status: 
  status: 0
  service: 3
latitude: 37.8691307
longitude: -122.2704128
altitude: 21.274
position_covariance: [8.655364, 0.0, 0.0, 0.0, 8.655364, 0.0, 0.0, 0.0, 27.646564]
position_covariance_type: 2
---
header: 
  seq: 4180
  stamp: 
    secs: 1574453737
    nsecs:      6158
  frame_id: "gps"
status: 
  status: 0
  service: 3
latitude: 37.869159
longitude: -122.2704335
altitude: 21.527
position_covariance: [8.386816, 0.0, 0.0, 0.0, 8.386816, 0.0, 0.0, 0.0, 27.688643999999996]
position_covariance_type: 2
---
header: 
  seq: 4181
  stamp: 
    secs: 1574453738
    nsecs:      6337
  frame_id: "gps"
status: 
  status: 0
  service: 3
latitude: 37.8691992
longitude: -122.2704461
altitude: 21.599
position_covariance: [8.208225, 0.0, 0.0, 0.0, 8.208225, 0.0, 0.0, 0.0, 28.376929]
position_covariance_type: 2
---
header: 
  seq: 4182
  stamp: 
    secs: 1574453739
    nsecs:      6517
  frame_id: "gps"
status: 
  status: 0
  service: 3
latitude: 37.8692485
longitude: -122.2704537
altitude: 21.442
position_covariance: [7.896100000000001, 0.0, 0.0, 0.0, 7.896100000000001, 0.0, 0.0, 0.0, 28.697449000000002]
position_covariance_type: 2
---
header: 
  seq: 4183
  stamp: 
    secs: 1574453740
    nsecs:      6697
  frame_id: "gps"
status: 
  status: 0
  service: 3
latitude: 37.8693071
longitude: -122.2704609
altitude: 21.183
position_covariance: [7.862415999999999, 0.0, 0.0, 0.0, 7.862415999999999, 0.0, 0.0, 0.0, 29.953729]
position_covariance_type: 2
---
header: 
  seq: 4184
  stamp: 
    secs: 1574453741
    nsecs:      6875
  frame_id: "gps"
status: 
  status: 0
  service: 3
latitude: 37.8693726
longitude: -122.2704706
altitude: 21.437
position_covariance: [8.156735999999999, 0.0, 0.0, 0.0, 8.156735999999999, 0.0, 0.0, 0.0, 31.674384]
position_covariance_type: 2
---
header: 
  seq: 4185
  stamp: 
    secs: 1574453742
    nsecs:      7053
  frame_id: "gps"
status: 
  status: 0
  service: 3
latitude: 37.8694408
longitude: -122.2704826
altitude: 22.03
position_covariance: [8.532240999999999, 0.0, 0.0, 0.0, 8.532240999999999, 0.0, 0.0, 0.0, 33.593616000000004]
position_covariance_type: 2
---
header: 
  seq: 4186
  stamp: 
    secs: 1574453743
    nsecs:      7231
  frame_id: "gps"
status: 
  status: 0
  service: 3
latitude: 37.8695088
longitude: -122.2704937
altitude: 22.611
position_covariance: [8.809023999999999, 0.0, 0.0, 0.0, 8.809023999999999, 0.0, 0.0, 0.0, 35.5216]
position_covariance_type: 2
---
header: 
  seq: 4187
  stamp: 
    secs: 1574453744
    nsecs:      7410
  frame_id: "gps"
status: 
  status: 0
  service: 3
latitude: 37.8695748
longitude: -122.2705013
altitude: 22.695
position_covariance: [9.205155999999999, 0.0, 0.0, 0.0, 9.205155999999999, 0.0, 0.0, 0.0, 38.229489]
position_covariance_type: 2
---
header: 
  seq: 4188
  stamp: 
    secs: 1574453745
    nsecs:      7590
  frame_id: "gps"
status: 
  status: 0
  service: 3
latitude: 37.8696312
longitude: -122.2705098
altitude: 22.21
position_covariance: [9.703225000000002, 0.0, 0.0, 0.0, 9.703225000000002, 0.0, 0.0, 0.0, 40.870449]
position_covariance_type: 2
---
header: 
  seq: 4189
  stamp: 
    secs: 1574453746
    nsecs:      7772
  frame_id: "gps"
status: 
  status: 0
  service: 3
latitude: 37.8696803
longitude: -122.2705167
altitude: 21.299
position_covariance: [10.055240999999999, 0.0, 0.0, 0.0, 10.055240999999999, 0.0, 0.0, 0.0, 39.501225000000005]
position_covariance_type: 2
---
header: 
  seq: 4190
  stamp: 
    secs: 1574453747
    nsecs:      7950
  frame_id: "gps"
status: 
  status: 0
  service: 3
latitude: 37.8697234
longitude: -122.2705235
altitude: 21.462
position_covariance: [10.150596, 0.0, 0.0, 0.0, 10.150596, 0.0, 0.0, 0.0, 40.666129]
position_covariance_type: 2
---
header: 
  seq: 4191
  stamp: 
    secs: 1574453748
    nsecs:      8129
  frame_id: "gps"
status: 
  status: 0
  service: 3
latitude: 37.8697605
longitude: -122.2705267
altitude: 21.449
position_covariance: [10.1761, 0.0, 0.0, 0.0, 10.1761, 0.0, 0.0, 0.0, 42.653960999999995]
position_covariance_type: 2
---
header: 
  seq: 4192
  stamp: 
    secs: 1574453749
    nsecs:      8307
  frame_id: "gps"
status: 
  status: 0
  service: 3
latitude: 37.8697868
longitude: -122.2705311
altitude: 21.979
position_covariance: [10.118761000000001, 0.0, 0.0, 0.0, 10.118761000000001, 0.0, 0.0, 0.0, 44.249104]
position_covariance_type: 2
---
header: 
  seq: 4193
  stamp: 
    secs: 1574453750
    nsecs:      8488
  frame_id: "gps"
status: 
  status: 0
  service: 3
latitude: 37.8698035
longitude: -122.2705325
altitude: 21.394
position_covariance: [9.966649, 0.0, 0.0, 0.0, 9.966649, 0.0, 0.0, 0.0, 45.887076]
position_covariance_type: 2
---
header: 
  seq: 4194
  stamp: 
    secs: 1574453751
    nsecs:      8666
  frame_id: "gps"
status: 
  status: 0
  service: 3
latitude: 37.8698164
longitude: -122.2705305
altitude: 21.825
position_covariance: [9.223369, 0.0, 0.0, 0.0, 9.223369, 0.0, 0.0, 0.0, 45.481536]
position_covariance_type: 2
---
header: 
  seq: 4195
  stamp: 
    secs: 1574453752
    nsecs:      8844
  frame_id: "gps"
status: 
  status: 0
  service: 3
latitude: 37.8698206
longitude: -122.27053
altitude: 22.138
position_covariance: [8.538084000000001, 0.0, 0.0, 0.0, 8.538084000000001, 0.0, 0.0, 0.0, 44.582328999999994]
position_covariance_type: 2
---
header: 
  seq: 4196
  stamp: 
    secs: 1574453753
    nsecs:      9022
  frame_id: "gps"
status: 
  status: 0
  service: 3
latitude: 37.8698227
longitude: -122.2705304
altitude: 22.363
position_covariance: [7.795263999999999, 0.0, 0.0, 0.0, 7.795263999999999, 0.0, 0.0, 0.0, 43.454463999999994]
position_covariance_type: 2
---
header: 
  seq: 4197
  stamp: 
    secs: 1574453754
    nsecs:      9199
  frame_id: "gps"
status: 
  status: 0
  service: 3
latitude: 37.8698242
longitude: -122.2705314
altitude: 22.842
position_covariance: [7.338681, 0.0, 0.0, 0.0, 7.338681, 0.0, 0.0, 0.0, 42.706225]
position_covariance_type: 2
---
header: 
  seq: 4198
  stamp: 
    secs: 1574453755
    nsecs:      9377
  frame_id: "gps"
status: 
  status: 0
  service: 3
latitude: 37.869825
longitude: -122.2705326
altitude: 23.402
position_covariance: [6.943224999999999, 0.0, 0.0, 0.0, 6.943224999999999, 0.0, 0.0, 0.0, 41.835024]
position_covariance_type: 2
---
header: 
  seq: 4199
  stamp: 
    secs: 1574453756
    nsecs:      9553
  frame_id: "gps"
status: 
  status: 0
  service: 3
latitude: 37.8698246
longitude: -122.2705348
altitude: 24.096
position_covariance: [6.6564000000000005, 0.0, 0.0, 0.0, 6.6564000000000005, 0.0, 0.0, 0.0, 41.139396]
position_covariance_type: 2
---
header: 
  seq: 4200
  stamp: 
    secs: 1574453757
