header: 
  seq: 1
  stamp: 
    secs: 1574451209
    nsecs: 814275979
  frame_id: "odom"
status: 
  status: 2
  service: 1
latitude: 37.8727219785
longitude: -122.270154604
altitude: 60.7926053414
position_covariance: [1.0064483497579306, 0.0, 0.0, 0.0, 1.006330740946875, 0.0, 0.0, 0.0, 1.006917546395988]
position_covariance_type: 2
---
header: 
  seq: 2
  stamp: 
    secs: 1574451209
    nsecs: 867755889
  frame_id: "odom"
status: 
  status: 2
  service: 1
latitude: 37.8727219777
longitude: -122.270154604
altitude: 60.7926086374
position_covariance: [1.0064483497579306, 0.0, 0.0, 0.0, 1.006330740946875, 0.0, 0.0, 0.0, 1.006917546395988]
position_covariance_type: 2
---
header: 
  seq: 3
  stamp: 
    secs: 1574451209
    nsecs: 921318054
  frame_id: "odom"
status: 
  status: 2
  service: 1
latitude: 37.8727219772
longitude: -122.270154605
altitude: 60.7926082769
position_covariance: [1.0064483497579306, 0.0, 0.0, 0.0, 1.006330740946875, 0.0, 0.0, 0.0, 1.006917546395988]
position_covariance_type: 2
---
header: 
  seq: 4
  stamp: 
    secs: 1574451209
    nsecs: 951977968
  frame_id: "odom"
status: 
  status: 2
  service: 1
latitude: 37.8727219767
longitude: -122.270154605
altitude: 60.7926107068
position_covariance: [1.0064483497579306, 0.0, 0.0, 0.0, 1.006330740946875, 0.0, 0.0, 0.0, 1.006917546395988]
position_covariance_type: 2
---
header: 
  seq: 5
  stamp: 
    secs: 1574451209
    nsecs: 992831945
  frame_id: "odom"
status: 
  status: 2
  service: 1
latitude: 37.8727219761
longitude: -122.270154605
altitude: 60.7926204782
position_covariance: [1.0064483497579306, 0.0, 0.0, 0.0, 1.006330740946875, 0.0, 0.0, 0.0, 1.006917546395988]
position_covariance_type: 2
---
header: 
  seq: 6
  stamp: 
    secs: 1574451210
    nsecs:  46175956
  frame_id: "odom"
status: 
  status: 2
  service: 1
latitude: 37.8727219767
longitude: -122.270154605
altitude: 60.7925967323
position_covariance: [1.0064448972245328, 0.0, 0.0, 0.0, 1.0063262689012331, 0.0, 0.0, 0.0, 1.0069133362952356]
position_covariance_type: 2
---
header: 
  seq: 7
  stamp: 
    secs: 1574451210
    nsecs:  99652051
  frame_id: "odom"
status: 
  status: 2
  service: 1
latitude: 37.8727219769
longitude: -122.270154605
altitude: 60.7926216656
position_covariance: [1.0064448972245328, 0.0, 0.0, 0.0, 1.0063262689012331, 0.0, 0.0, 0.0, 1.0069133362952356]
position_covariance_type: 2
---
header: 
  seq: 8
  stamp: 
    secs: 1574451210
    nsecs: 153140068
  frame_id: "odom"
status: 
  status: 2
  service: 1
latitude: 37.8727219773
longitude: -122.270154605
altitude: 60.7926330166
position_covariance: [1.0064448972245328, 0.0, 0.0, 0.0, 1.0063262689012331, 0.0, 0.0, 0.0, 1.0069133362952356]
position_covariance_type: 2
---
header: 
  seq: 9
  stamp: 
    secs: 1574451210
    nsecs: 207361936
  frame_id: "odom"
status: 
  status: 2
  service: 1
latitude: 37.8727219776
longitude: -122.270154606
altitude: 60.7926430758
position_covariance: [1.0064448972245328, 0.0, 0.0, 0.0, 1.0063262689012331, 0.0, 0.0, 0.0, 1.0069133362952356]
position_covariance_type: 2
---
header: 
  seq: 10
  stamp: 
    secs: 1574451210
    nsecs: 260930061
  frame_id: "odom"
status: 
  status: 2
  service: 1
latitude: 37.8727219781
longitude: -122.270154606
altitude: 60.7926560314
position_covariance: [1.0064448972245328, 0.0, 0.0, 0.0, 1.0063262689012331, 0.0, 0.0, 0.0, 1.0069133362952356]
position_covariance_type: 2
---
header: 
  seq: 11
  stamp: 
    secs: 1574451210
    nsecs: 358789920
  frame_id: "odom"
status: 
  status: 2
  service: 1
latitude: 37.8727219797
longitude: -122.270154605
altitude: 60.7927131895
position_covariance: [1.0064448972245328, 0.0, 0.0, 0.0, 1.0063262689012331, 0.0, 0.0, 0.0, 1.0069133362952356]
position_covariance_type: 2
---
header: 
  seq: 12
  stamp: 
    secs: 1574451210
    nsecs: 412147998
  frame_id: "odom"
status: 
  status: 2
  service: 1
latitude: 37.8727219803
longitude: -122.270154605
altitude: 60.792755858
position_covariance: [1.0064448972245328, 0.0, 0.0, 0.0, 1.0063262689012331, 0.0, 0.0, 0.0, 1.0069133362952356]
position_covariance_type: 2
---
header: 
  seq: 13
  stamp: 
    secs: 1574451210
    nsecs: 465717077
  frame_id: "odom"
status: 
  status: 2
  service: 1
latitude: 37.8727219807
longitude: -122.270154605
altitude: 60.7927999413
position_covariance: [1.0064448972245328, 0.0, 0.0, 0.0, 1.0063262689012331, 0.0, 0.0, 0.0, 1.0069133362952356]
position_covariance_type: 2
---
header: 
  seq: 14
  stamp: 
    secs: 1574451210
    nsecs: 519066095
  frame_id: "odom"
status: 
  status: 2
  service: 1
latitude: 37.8727219809
longitude: -122.270154605
altitude: 60.7928372584
position_covariance: [1.0064448972245328, 0.0, 0.0, 0.0, 1.0063262689012331, 0.0, 0.0, 0.0, 1.0069133362952356]
position_covariance_type: 2
---
header: 
  seq: 15
  stamp: 
    secs: 1574451210
    nsecs: 572510957
  frame_id: "odom"
status: 
  status: 2
  service: 1
latitude: 37.8727219813
longitude: -122.270154604
altitude: 60.792864644
position_covariance: [1.0064448972245328, 0.0, 0.0, 0.0, 1.0063262689012331, 0.0, 0.0, 0.0, 1.0069133362952356]
position_covariance_type: 2
---
header: 
  seq: 16
  stamp: 
    secs: 1574451210
    nsecs: 603364944
  frame_id: "odom"
status: 
  status: 2
  service: 1
latitude: 37.872721982
longitude: -122.270154604
altitude: 60.7928880462
position_covariance: [1.0064448972245328, 0.0, 0.0, 0.0, 1.0063262689012331, 0.0, 0.0, 0.0, 1.0069133362952356]
position_covariance_type: 2
---
header: 
  seq: 17
  stamp: 
    secs: 1574451210
    nsecs: 657589912
  frame_id: "odom"
status: 
  status: 2
  service: 1
latitude: 37.8727219827
longitude: -122.270154604
altitude: 60.7929127356
position_covariance: [1.0064448972245328, 0.0, 0.0, 0.0, 1.0063262689012331, 0.0, 0.0, 0.0, 1.0069133362952356]
position_covariance_type: 2
---
header: 
  seq: 18
  stamp: 
    secs: 1574451210
    nsecs: 710880041
  frame_id: "odom"
status: 
  status: 2
  service: 1
latitude: 37.8727219835
longitude: -122.270154604
altitude: 60.7929373877
position_covariance: [1.0064448972245328, 0.0, 0.0, 0.0, 1.0063262689012331, 0.0, 0.0, 0.0, 1.0069133362952356]
position_covariance_type: 2
---
header: 
  seq: 19
  stamp: 
    secs: 1574451210
    nsecs: 808875083
  frame_id: "odom"
status: 
  status: 2
  service: 1
latitude: 37.8727219844
longitude: -122.270154603
altitude: 60.7930002762
position_covariance: [1.0064448972245328, 0.0, 0.0, 0.0, 1.0063262689012331, 0.0, 0.0, 0.0, 1.0069133362952356]
position_covariance_type: 2
---
header: 
  seq: 20
  stamp: 
    secs: 1574451210
    nsecs: 862370014
  frame_id: "odom"
status: 
  status: 2
  service: 1
latitude: 37.8727219844
longitude: -122.270154603
altitude: 60.7930281824
position_covariance: [1.0064448972245328, 0.0, 0.0, 0.0, 1.0063262689012331, 0.0, 0.0, 0.0, 1.0069133362952356]
position_covariance_type: 2
---
header: 
  seq: 21
  stamp: 
    secs: 1574451210
    nsecs: 960228919
  frame_id: "odom"
status: 
  status: 2
  service: 1
latitude: 37.8727219847
longitude: -122.270154602
altitude: 60.7930915728
position_covariance: [1.0064448972245328, 0.0, 0.0, 0.0, 1.0063262689012331, 0.0, 0.0, 0.0, 1.0069133362952356]
position_covariance_type: 2
---
header: 
  seq: 22
  stamp: 
    secs: 1574451211
    nsecs:  13663053
  frame_id: "odom"
status: 
  status: 2
  service: 1
latitude: 37.8727219851
longitude: -122.270154602
altitude: 60.7931320779
position_covariance: [1.0064448972245328, 0.0, 0.0, 0.0, 1.0063262689012331, 0.0, 0.0, 0.0, 1.0069133362952356]
position_covariance_type: 2
---
header: 
  seq: 23
  stamp: 
    secs: 1574451211
    nsecs:  67116022
  frame_id: "odom"
status: 
  status: 2
  service: 1
latitude: 37.8727219858
longitude: -122.270154602
altitude: 60.7931510797
position_covariance: [1.0064418124342929, 0.0, 0.0, 0.0, 1.0063225108131668, 0.0, 0.0, 0.0, 1.0069119303322076]
position_covariance_type: 2
---
header: 
  seq: 24
  stamp: 
    secs: 1574451211
    nsecs: 120631933
  frame_id: "odom"
status: 
  status: 2
  service: 1
latitude: 37.8727219866
longitude: -122.270154602
altitude: 60.7931631692
position_covariance: [1.0064418124342929, 0.0, 0.0, 0.0, 1.0063225108131668, 0.0, 0.0, 0.0, 1.0069119303322076]
position_covariance_type: 2
---
header: 
  seq: 25
  stamp: 
    secs: 1574451211
    nsecs: 174050092
  frame_id: "odom"
status: 
  status: 2
  service: 1
latitude: 37.8727219875
longitude: -122.270154601
altitude: 60.7931771856
position_covariance: [1.0064418124342929, 0.0, 0.0, 0.0, 1.0063225108131668, 0.0, 0.0, 0.0, 1.0069119303322076]
position_covariance_type: 2
---
header: 
  seq: 26
  stamp: 
    secs: 1574451211
    nsecs: 204883098
  frame_id: "odom"
status: 
  status: 2
  service: 1
latitude: 37.8727219882
longitude: -122.270154601
altitude: 60.7931855898
position_covariance: [1.0064418124342929, 0.0, 0.0, 0.0, 1.0063225108131668, 0.0, 0.0, 0.0, 1.0069119303322076]
position_covariance_type: 2
---
header: 
  seq: 27
  stamp: 
    secs: 1574451211
    nsecs: 258394956
  frame_id: "odom"
status: 
  status: 2
  service: 1
latitude: 37.872721989
longitude: -122.270154601
altitude: 60.7931857416
position_covariance: [1.0064418124342929, 0.0, 0.0, 0.0, 1.0063225108131668, 0.0, 0.0, 0.0, 1.0069119303322076]
position_covariance_type: 2
---
header: 
  seq: 28
  stamp: 
    secs: 1574451211
    nsecs: 311796903
  frame_id: "odom"
status: 
  status: 2
  service: 1
latitude: 37.8727219898
longitude: -122.2701546
altitude: 60.7931995224
position_covariance: [1.0064418124342929, 0.0, 0.0, 0.0, 1.0063225108131668, 0.0, 0.0, 0.0, 1.0069119303322076]
position_covariance_type: 2
---
header: 
  seq: 29
  stamp: 
    secs: 1574451211
    nsecs: 365288019
  frame_id: "odom"
status: 
  status: 2
  service: 1
latitude: 37.8727219907
longitude: -122.2701546
altitude: 60.7932195067
position_covariance: [1.0064418124342929, 0.0, 0.0, 0.0, 1.0063225108131668, 0.0, 0.0, 0.0, 1.0069119303322076]
position_covariance_type: 2
---
header: 
  seq: 30
  stamp: 
    secs: 1574451211
    nsecs: 418665885
  frame_id: "odom"
status: 
  status: 2
  service: 1
latitude: 37.8727219919
longitude: -122.270154599
altitude: 60.7932304759
position_covariance: [1.0064418124342929, 0.0, 0.0, 0.0, 1.0063225108131668, 0.0, 0.0, 0.0, 1.0069119303322076]
position_covariance_type: 2
---
header: 
  seq: 31
  stamp: 
    secs: 1574451211
    nsecs: 472081899
  frame_id: "odom"
status: 
  status: 2
  service: 1
latitude: 37.8727219933
longitude: -122.270154598
altitude: 60.7932338659
position_covariance: [1.0064418124342929, 0.0, 0.0, 0.0, 1.0063225108131668, 0.0, 0.0, 0.0, 1.0069119303322076]
position_covariance_type: 2
---
header: 
  seq: 32
  stamp: 
    secs: 1574451211
    nsecs: 517599105
  frame_id: "odom"
status: 
  status: 2
  service: 1
latitude: 37.8727219949
longitude: -122.270154598
altitude: 60.7932530986
position_covariance: [1.0064418124342929, 0.0, 0.0, 0.0, 1.0063225108131668, 0.0, 0.0, 0.0, 1.0069119303322076]
position_covariance_type: 2
---
header: 
  seq: 33
  stamp: 
    secs: 1574451211
    nsecs: 571016073
  frame_id: "odom"
status: 
  status: 2
  service: 1
latitude: 37.8727219965
longitude: -122.270154597
altitude: 60.7932736399
position_covariance: [1.0064418124342929, 0.0, 0.0, 0.0, 1.0063225108131668, 0.0, 0.0, 0.0, 1.0069119303322076]
position_covariance_type: 2
---
header: 
  seq: 34
  stamp: 
    secs: 1574451211
    nsecs: 624552965
  frame_id: "odom"
status: 
  status: 2
  service: 1
latitude: 37.8727219979
longitude: -122.270154595
altitude: 60.7932954505
position_covariance: [1.0064418124342929, 0.0, 0.0, 0.0, 1.0063225108131668, 0.0, 0.0, 0.0, 1.0069119303322076]
position_covariance_type: 2
---
header: 
  seq: 35
  stamp: 
    secs: 1574451211
    nsecs: 655339002
  frame_id: "odom"
status: 
  status: 2
  service: 1
latitude: 37.8727219994
longitude: -122.270154594
altitude: 60.7933117915
position_covariance: [1.0064418124342929, 0.0, 0.0, 0.0, 1.0063225108131668, 0.0, 0.0, 0.0, 1.0069119303322076]
position_covariance_type: 2
---
header: 
  seq: 36
  stamp: 
    secs: 1574451211
    nsecs: 708693027
  frame_id: "odom"
status: 
  status: 2
  service: 1
latitude: 37.8727220011
longitude: -122.270154593
altitude: 60.7933123773
position_covariance: [1.0064418124342929, 0.0, 0.0, 0.0, 1.0063225108131668, 0.0, 0.0, 0.0, 1.0069119303322076]
position_covariance_type: 2
---
header: 
  seq: 37
  stamp: 
    secs: 1574451211
    nsecs: 762216091
  frame_id: "odom"
status: 
  status: 2
  service: 1
latitude: 37.8727220028
longitude: -122.270154592
altitude: 60.7933320357
position_covariance: [1.0064418124342929, 0.0, 0.0, 0.0, 1.0063225108131668, 0.0, 0.0, 0.0, 1.0069119303322076]
position_covariance_type: 2
---
header: 
  seq: 38
  stamp: 
    secs: 1574451211
    nsecs: 815574884
  frame_id: "odom"
status: 
  status: 2
  service: 1
latitude: 37.8727220046
longitude: -122.270154591
altitude: 60.7933488032
position_covariance: [1.0064418124342929, 0.0, 0.0, 0.0, 1.0063225108131668, 0.0, 0.0, 0.0, 1.0069119303322076]
position_covariance_type: 2
---
header: 
  seq: 39
  stamp: 
    secs: 1574451211
    nsecs: 855458974
  frame_id: "odom"
status: 
  status: 2
  service: 1
latitude: 37.8727220064
longitude: -122.27015459
altitude: 60.7933696145
position_covariance: [1.0064418124342929, 0.0, 0.0, 0.0, 1.0063225108131668, 0.0, 0.0, 0.0, 1.0069119303322076]
position_covariance_type: 2
---
header: 
  seq: 40
  stamp: 
    secs: 1574451211
    nsecs: 900839090
  frame_id: "odom"
status: 
  status: 2
  service: 1
latitude: 37.8727220079
longitude: -122.270154589
altitude: 60.793394831
position_covariance: [1.0064418124342929, 0.0, 0.0, 0.0, 1.0063225108131668, 0.0, 0.0, 0.0, 1.0069119303322076]
position_covariance_type: 2
---
header: 
  seq: 41
  stamp: 
    secs: 1574451211
    nsecs: 954345941
  frame_id: "odom"
status: 
  status: 2
  service: 1
latitude: 37.8727220093
longitude: -122.270154588
altitude: 60.7934098803
position_covariance: [1.0064418124342929, 0.0, 0.0, 0.0, 1.0063225108131668, 0.0, 0.0, 0.0, 1.0069119303322076]
position_covariance_type: 2
---
header: 
  seq: 42
  stamp: 
    secs: 1574451212
    nsecs:   7922887
  frame_id: "odom"
status: 
  status: 2
  service: 1
latitude: 37.8727220103
longitude: -122.270154588
altitude: 60.7934177984
position_covariance: [1.0064418124342929, 0.0, 0.0, 0.0, 1.0063225108131668, 0.0, 0.0, 0.0, 1.0069119303322076]
position_covariance_type: 2
---
header: 
  seq: 43
  stamp: 
    secs: 1574451212
    nsecs:  61372995
  frame_id: "odom"
status: 
  status: 2
  service: 1
latitude: 37.8727220106
longitude: -122.270154588
altitude: 60.7934243027
position_covariance: [1.0064385106536993, 0.0, 0.0, 0.0, 1.0063185045833145, 0.0, 0.0, 0.0, 1.0069105510213343]
position_covariance_type: 2
---
header: 
  seq: 44
  stamp: 
    secs: 1574451212
    nsecs: 114763975
  frame_id: "odom"
status: 
  status: 2
  service: 1
latitude: 37.8727220107
longitude: -122.270154588
altitude: 60.7933882503
position_covariance: [1.0064385106536993, 0.0, 0.0, 0.0, 1.0063185045833145, 0.0, 0.0, 0.0, 1.0069105510213343]
position_covariance_type: 2
---
header: 
  seq: 45
  stamp: 
    secs: 1574451212
    nsecs: 168301105
  frame_id: "odom"
status: 
  status: 2
  service: 1
latitude: 37.8727220112
longitude: -122.270154589
altitude: 60.7933478998
position_covariance: [1.0064385106536993, 0.0, 0.0, 0.0, 1.0063185045833145, 0.0, 0.0, 0.0, 1.0069105510213343]
position_covariance_type: 2
---
header: 
  seq: 46
  stamp: 
    secs: 1574451212
    nsecs: 221770048
  frame_id: "odom"
status: 
  status: 2
  service: 1
latitude: 37.8727220114
longitude: -122.270154589
altitude: 60.793323868
position_covariance: [1.0064385106536993, 0.0, 0.0, 0.0, 1.0063185045833145, 0.0, 0.0, 0.0, 1.0069105510213343]
position_covariance_type: 2
---
header: 
  seq: 47
  stamp: 
    secs: 1574451212
    nsecs: 275114059
  frame_id: "odom"
status: 
  status: 2
  service: 1
latitude: 37.8727220115
longitude: -122.270154589
altitude: 60.7932947613
position_covariance: [1.0064385106536993, 0.0, 0.0, 0.0, 1.0063185045833145, 0.0, 0.0, 0.0, 1.0069105510213343]
position_covariance_type: 2
---
header: 
  seq: 48
  stamp: 
    secs: 1574451212
    nsecs: 314764022
  frame_id: "odom"
status: 
  status: 2
  service: 1
latitude: 37.8727220117
longitude: -122.270154589
altitude: 60.7932736464
position_covariance: [1.0064385106536993, 0.0, 0.0, 0.0, 1.0063185045833145, 0.0, 0.0, 0.0, 1.0069105510213343]
position_covariance_type: 2
---
header: 
  seq: 49
  stamp: 
    secs: 1574451212
    nsecs: 360311985
  frame_id: "odom"
status: 
  status: 2
  service: 1
latitude: 37.8727220119
longitude: -122.27015459
altitude: 60.7932343325
position_covariance: [1.0064385106536993, 0.0, 0.0, 0.0, 1.0063185045833145, 0.0, 0.0, 0.0, 1.0069105510213343]
position_covariance_type: 2
---
header: 
  seq: 50
  stamp: 
    secs: 1574451212
    nsecs: 413708925
  frame_id: "odom"
status: 
  status: 2
  service: 1
latitude: 37.8727220119
longitude: -122.27015459
altitude: 60.7931974139
position_covariance: [1.0064385106536993, 0.0, 0.0, 0.0, 1.0063185045833145, 0.0, 0.0, 0.0, 1.0069105510213343]
position_covariance_type: 2
---
header: 
  seq: 51
  stamp: 
    secs: 1574451212
    nsecs: 511493921
  frame_id: "odom"
status: 
  status: 2
  service: 1
latitude: 37.8727220118
longitude: -122.27015459
altitude: 60.7931166105
position_covariance: [1.0064385106536993, 0.0, 0.0, 0.0, 1.0063185045833145, 0.0, 0.0, 0.0, 1.0069105510213343]
position_covariance_type: 2
---
header: 
  seq: 52
  stamp: 
    secs: 1574451212
    nsecs: 565038919
  frame_id: "odom"
status: 
  status: 2
  service: 1
latitude: 37.8727220117
longitude: -122.270154591
altitude: 60.7930507241
position_covariance: [1.0064385106536993, 0.0, 0.0, 0.0, 1.0063185045833145, 0.0, 0.0, 0.0, 1.0069105510213343]
position_covariance_type: 2
---
header: 
  seq: 53
  stamp: 
    secs: 1574451212
    nsecs: 618349075
  frame_id: "odom"
status: 
  status: 2
  service: 1
latitude: 37.8727220116
longitude: -122.270154591
altitude: 60.7930111019
position_covariance: [1.0064385106536993, 0.0, 0.0, 0.0, 1.0063185045833145, 0.0, 0.0, 0.0, 1.0069105510213343]
position_covariance_type: 2
---
header: 
  seq: 54
  stamp: 
    secs: 1574451212
    nsecs: 671895980
  frame_id: "odom"
status: 
  status: 2
  service: 1
latitude: 37.8727220112
longitude: -122.270154592
altitude: 60.792989336
position_covariance: [1.0064385106536993, 0.0, 0.0, 0.0, 1.0063185045833145, 0.0, 0.0, 0.0, 1.0069105510213343]
position_covariance_type: 2
---
header: 
  seq: 55
  stamp: 
    secs: 1574451212
    nsecs: 702636957
  frame_id: "odom"
status: 
  status: 2
  service: 1
latitude: 37.8727220107
longitude: -122.270154592
altitude: 60.7929639425
position_covariance: [1.0064385106536993, 0.0, 0.0, 0.0, 1.0063185045833145, 0.0, 0.0, 0.0, 1.0069105510213343]
position_covariance_type: 2
---
header: 
  seq: 56
  stamp: 
    secs: 1574451212
    nsecs: 743731975
  frame_id: "odom"
status: 
  status: 2
  service: 1
latitude: 37.8727220101
longitude: -122.270154593
altitude: 60.7929058168
position_covariance: [1.0064385106536993, 0.0, 0.0, 0.0, 1.0063185045833145, 0.0, 0.0, 0.0, 1.0069105510213343]
position_covariance_type: 2
---
header: 
  seq: 57
  stamp: 
    secs: 1574451212
    nsecs: 797115087
  frame_id: "odom"
status: 
  status: 2
  service: 1
latitude: 37.8727220095
longitude: -122.270154593
altitude: 60.7928492324
position_covariance: [1.0064385106536993, 0.0, 0.0, 0.0, 1.0063185045833145, 0.0, 0.0, 0.0, 1.0069105510213343]
position_covariance_type: 2
---
header: 
  seq: 58
  stamp: 
    secs: 1574451212
    nsecs: 850641965
  frame_id: "odom"
status: 
  status: 2
  service: 1
latitude: 37.8727220084
longitude: -122.270154594
altitude: 60.7927911365
position_covariance: [1.0064385106536993, 0.0, 0.0, 0.0, 1.0063185045833145, 0.0, 0.0, 0.0, 1.0069105510213343]
position_covariance_type: 2
---
header: 
  seq: 59
  stamp: 
    secs: 1574451212
    nsecs: 904021024
  frame_id: "odom"
status: 
  status: 2
  service: 1
latitude: 37.8727220073
longitude: -122.270154594
altitude: 60.7927358048
position_covariance: [1.0064385106536993, 0.0, 0.0, 0.0, 1.0063185045833145, 0.0, 0.0, 0.0, 1.0069105510213343]
position_covariance_type: 2
---
header: 
  seq: 60
  stamp: 
    secs: 1574451212
    nsecs: 958874940
  frame_id: "odom"
status: 
  status: 2
  service: 1
latitude: 37.8727220061
longitude: -122.270154595
altitude: 60.7926754802
position_covariance: [1.0064385106536993, 0.0, 0.0, 0.0, 1.0063185045833145, 0.0, 0.0, 0.0, 1.0069105510213343]
position_covariance_type: 2
---
header: 
  seq: 61
  stamp: 
    secs: 1574451213
    nsecs:   4286050
  frame_id: "odom"
status: 
  status: 2
  service: 1
latitude: 37.872722005
longitude: -122.270154596
altitude: 60.7926209262
position_covariance: [1.0064385106536993, 0.0, 0.0, 0.0, 1.0063185045833145, 0.0, 0.0, 0.0, 1.0069105510213343]
position_covariance_type: 2
---
header: 
  seq: 62
  stamp: 
    secs: 1574451213
    nsecs:  57784080
  frame_id: "odom"
status: 
  status: 2
  service: 1
latitude: 37.8727220047
longitude: -122.270154597
altitude: 60.7925757216
position_covariance: [1.0064353836526678, 0.0, 0.0, 0.0, 1.0063142586596963, 0.0, 0.0, 0.0, 1.0069070800023319]
position_covariance_type: 2
---
header: 
  seq: 63
  stamp: 
    secs: 1574451213
    nsecs: 103168964
  frame_id: "odom"
status: 
  status: 2
  service: 1
latitude: 37.8727220044
longitude: -122.270154597
altitude: 60.7925924715
position_covariance: [1.0064353836526678, 0.0, 0.0, 0.0, 1.0063142586596963, 0.0, 0.0, 0.0, 1.0069070800023319]
position_covariance_type: 2
---
header: 
  seq: 64
  stamp: 
    secs: 1574451213
    nsecs: 157217979
  frame_id: "odom"
status: 
  status: 2
  service: 1
latitude: 37.872722004
longitude: -122.270154598
altitude: 60.7925947038
position_covariance: [1.0064353836526678, 0.0, 0.0, 0.0, 1.0063142586596963, 0.0, 0.0, 0.0, 1.0069070800023319]
position_covariance_type: 2
---
header: 
  seq: 65
  stamp: 
    secs: 1574451213
    nsecs: 255289077
  frame_id: "odom"
status: 
  status: 2
  service: 1
latitude: 37.8727220026
longitude: -122.270154599
altitude: 60.7925835783
position_covariance: [1.0064353836526678, 0.0, 0.0, 0.0, 1.0063142586596963, 0.0, 0.0, 0.0, 1.0069070800023319]
position_covariance_type: 2
---
header: 
  seq: 66
  stamp: 
    secs: 1574451213
    nsecs: 308597087
  frame_id: "odom"
status: 
  status: 2
  service: 1
latitude: 37.8727220016
longitude: -122.2701546
altitude: 60.7925636088
position_covariance: [1.0064353836526678, 0.0, 0.0, 0.0, 1.0063142586596963, 0.0, 0.0, 0.0, 1.0069070800023319]
position_covariance_type: 2
---
header: 
  seq: 67
  stamp: 
    secs: 1574451213
    nsecs: 362145900
  frame_id: "odom"
status: 
  status: 2
  service: 1
latitude: 37.8727220006
longitude: -122.2701546
altitude: 60.792558467
position_covariance: [1.0064353836526678, 0.0, 0.0, 0.0, 1.0063142586596963, 0.0, 0.0, 0.0, 1.0069070800023319]
position_covariance_type: 2
---
header: 
  seq: 68
  stamp: 
    secs: 1574451213
    nsecs: 415505886
  frame_id: "odom"
status: 
  status: 2
  service: 1
latitude: 37.8727219996
longitude: -122.270154601
altitude: 60.792558711
position_covariance: [1.0064353836526678, 0.0, 0.0, 0.0, 1.0063142586596963, 0.0, 0.0, 0.0, 1.0069070800023319]
position_covariance_type: 2
---
header: 
  seq: 69
  stamp: 
    secs: 1574451213
    nsecs: 468971967
  frame_id: "odom"
status: 
  status: 2
  service: 1
latitude: 37.8727219987
longitude: -122.270154601
altitude: 60.7925598146
position_covariance: [1.0064353836526678, 0.0, 0.0, 0.0, 1.0063142586596963, 0.0, 0.0, 0.0, 1.0069070800023319]
position_covariance_type: 2
---
header: 
  seq: 70
  stamp: 
    secs: 1574451213
    nsecs: 522454977
  frame_id: "odom"
status: 
  status: 2
  service: 1
latitude: 37.8727219981
longitude: -122.270154601
altitude: 60.7925564181
position_covariance: [1.0064353836526678, 0.0, 0.0, 0.0, 1.0063142586596963, 0.0, 0.0, 0.0, 1.0069070800023319]
position_covariance_type: 2
---
header: 
  seq: 71
  stamp: 
    secs: 1574451213
    nsecs: 567889928
  frame_id: "odom"
status: 
  status: 2
  service: 1
latitude: 37.8727219975
longitude: -122.270154602
altitude: 60.7925703079
position_covariance: [1.0064353836526678, 0.0, 0.0, 0.0, 1.0063142586596963, 0.0, 0.0, 0.0, 1.0069070800023319]
position_covariance_type: 2
---
header: 
  seq: 72
  stamp: 
    secs: 1574451213
    nsecs: 621337890
  frame_id: "odom"
status: 
  status: 2
  service: 1
latitude: 37.8727219962
longitude: -122.270154602
altitude: 60.7925993204
position_covariance: [1.0064353836526678, 0.0, 0.0, 0.0, 1.0063142586596963, 0.0, 0.0, 0.0, 1.0069070800023319]
position_covariance_type: 2
---
header: 
  seq: 73
  stamp: 
    secs: 1574451213
    nsecs: 652147054
  frame_id: "odom"
status: 
  status: 2
  service: 1
latitude: 37.8727219947
longitude: -122.270154603
altitude: 60.7926317444
position_covariance: [1.0064353836526678, 0.0, 0.0, 0.0, 1.0063142586596963, 0.0, 0.0, 0.0, 1.0069070800023319]
position_covariance_type: 2
---
header: 
  seq: 74
  stamp: 
    secs: 1574451213
    nsecs: 705523014
  frame_id: "odom"
status: 
  status: 2
  service: 1
latitude: 37.8727219932
longitude: -122.270154603
altitude: 60.7926700916
position_covariance: [1.0064353836526678, 0.0, 0.0, 0.0, 1.0063142586596963, 0.0, 0.0, 0.0, 1.0069070800023319]
position_covariance_type: 2
---
header: 
  seq: 75
  stamp: 
    secs: 1574451213
    nsecs: 803334951
  frame_id: "odom"
status: 
  status: 2
  service: 1
latitude: 37.8727219906
longitude: -122.270154603
altitude: 60.7926847413
position_covariance: [1.0064353836526678, 0.0, 0.0, 0.0, 1.0063142586596963, 0.0, 0.0, 0.0, 1.0069070800023319]
position_covariance_type: 2
---
header: 
  seq: 76
  stamp: 
    secs: 1574451213
    nsecs: 857278108
  frame_id: "odom"
status: 
  status: 2
  service: 1
latitude: 37.8727219897
longitude: -122.270154603
altitude: 60.7926665572
position_covariance: [1.0064353836526678, 0.0, 0.0, 0.0, 1.0063142586596963, 0.0, 0.0, 0.0, 1.0069070800023319]
position_covariance_type: 2
---
header: 
  seq: 77
  stamp: 
    secs: 1574451213
    nsecs: 896850109
  frame_id: "odom"
status: 
  status: 2
  service: 1
latitude: 37.8727219886
longitude: -122.270154604
altitude: 60.7926691072
position_covariance: [1.0064353836526678, 0.0, 0.0, 0.0, 1.0063142586596963, 0.0, 0.0, 0.0, 1.0069070800023319]
position_covariance_type: 2
---
header: 
  seq: 78
  stamp: 
    secs: 1574451213
    nsecs: 950474023
  frame_id: "odom"
status: 
  status: 2
  service: 1
latitude: 37.872721987
longitude: -122.270154604
altitude: 60.7927030642
position_covariance: [1.0064353836526678, 0.0, 0.0, 0.0, 1.0063142586596963, 0.0, 0.0, 0.0, 1.0069070800023319]
position_covariance_type: 2
---
header: 
  seq: 79
  stamp: 
    secs: 1574451214
    nsecs:   3849983
  frame_id: "odom"
status: 
  status: 2
  service: 1
latitude: 37.8727219851
longitude: -122.270154604
altitude: 60.7927390402
position_covariance: [1.0064353836526678, 0.0, 0.0, 0.0, 1.0063142586596963, 0.0, 0.0, 0.0, 1.0069070800023319]
position_covariance_type: 2
---
header: 
  seq: 80
  stamp: 
    secs: 1574451214
    nsecs:  57553052
  frame_id: "odom"
status: 
  status: 2
  service: 1
latitude: 37.8727219854
longitude: -122.270154605
altitude: 60.7927317247
position_covariance: [1.006430995602363, 0.0, 0.0, 0.0, 1.0063088772241082, 0.0, 0.0, 0.0, 1.0069021861458674]
position_covariance_type: 2
---
header: 
  seq: 81
  stamp: 
    secs: 1574451214
    nsecs: 102957010
  frame_id: "odom"
status: 
  status: 2
  service: 1
latitude: 37.8727219859
longitude: -122.270154605
altitude: 60.7927444885
position_covariance: [1.006430995602363, 0.0, 0.0, 0.0, 1.0063088772241082, 0.0, 0.0, 0.0, 1.0069021861458674]
position_covariance_type: 2
---
header: 
  seq: 82
  stamp: 
    secs: 1574451214
    nsecs: 157310962
  frame_id: "odom"
status: 
  status: 2
  service: 1
latitude: 37.8727219865
longitude: -122.270154606
altitude: 60.7927526003
position_covariance: [1.006430995602363, 0.0, 0.0, 0.0, 1.0063088772241082, 0.0, 0.0, 0.0, 1.0069021861458674]
position_covariance_type: 2
---
header: 
  seq: 83
  stamp: 
    secs: 1574451214
    nsecs: 196995973
  frame_id: "odom"
status: 
  status: 2
  service: 1
latitude: 37.8727219873
longitude: -122.270154606
altitude: 60.7927699788
position_covariance: [1.006430995602363, 0.0, 0.0, 0.0, 1.0063088772241082, 0.0, 0.0, 0.0, 1.0069021861458674]
position_covariance_type: 2
---
header: 
  seq: 84
  stamp: 
    secs: 1574451214
    nsecs: 250466108
  frame_id: "odom"
status: 
  status: 2
  service: 1
latitude: 37.8727219881
longitude: -122.270154607
altitude: 60.7928091064
position_covariance: [1.006430995602363, 0.0, 0.0, 0.0, 1.0063088772241082, 0.0, 0.0, 0.0, 1.0069021861458674]
position_covariance_type: 2
---
header: 
  seq: 85
  stamp: 
    secs: 1574451214
    nsecs: 303965091
  frame_id: "odom"
status: 
  status: 2
  service: 1
latitude: 37.8727219888
longitude: -122.270154606
altitude: 60.7928402927
position_covariance: [1.006430995602363, 0.0, 0.0, 0.0, 1.0063088772241082, 0.0, 0.0, 0.0, 1.0069021861458674]
position_covariance_type: 2
---
header: 
  seq: 86
  stamp: 
    secs: 1574451214
    nsecs: 357454061
  frame_id: "odom"
status: 
  status: 2
  service: 1
latitude: 37.8727219895
longitude: -122.270154606
altitude: 60.7928541498
position_covariance: [1.006430995602363, 0.0, 0.0, 0.0, 1.0063088772241082, 0.0, 0.0, 0.0, 1.0069021861458674]
position_covariance_type: 2
---
header: 
  seq: 87
  stamp: 
    secs: 1574451214
    nsecs: 410842895
  frame_id: "odom"
status: 
  status: 2
  service: 1
latitude: 37.8727219899
longitude: -122.270154606
altitude: 60.7928659851
position_covariance: [1.006430995602363, 0.0, 0.0, 0.0, 1.0063088772241082, 0.0, 0.0, 0.0, 1.0069021861458674]
position_covariance_type: 2
---
header: 
  seq: 88
  stamp: 
    secs: 1574451214
    nsecs: 450582027
  frame_id: "odom"
status: 
  status: 2
  service: 1
latitude: 37.8727219904
longitude: -122.270154607
altitude: 60.792885989
position_covariance: [1.006430995602363, 0.0, 0.0, 0.0, 1.0063088772241082, 0.0, 0.0, 0.0, 1.0069021861458674]
position_covariance_type: 2
---
header: 
  seq: 89
  stamp: 
    secs: 1574451214
    nsecs: 503947019
  frame_id: "odom"
status: 
  status: 2
  service: 1
latitude: 37.872721991
longitude: -122.270154607
altitude: 60.7929233583
position_covariance: [1.006430995602363, 0.0, 0.0, 0.0, 1.0063088772241082, 0.0, 0.0, 0.0, 1.0069021861458674]
position_covariance_type: 2
---
header: 
  seq: 90
  stamp: 
    secs: 1574451214
    nsecs: 557429075
  frame_id: "odom"
status: 
  status: 2
  service: 1
latitude: 37.8727219915
longitude: -122.270154607
altitude: 60.7929886896
position_covariance: [1.006430995602363, 0.0, 0.0, 0.0, 1.0063088772241082, 0.0, 0.0, 0.0, 1.0069021861458674]
position_covariance_type: 2
---
header: 
  seq: 91
  stamp: 
    secs: 1574451214
    nsecs: 610892057
  frame_id: "odom"
status: 
  status: 2
  service: 1
latitude: 37.8727219921
longitude: -122.270154607
altitude: 60.7930242959
position_covariance: [1.006430995602363, 0.0, 0.0, 0.0, 1.0063088772241082, 0.0, 0.0, 0.0, 1.0069021861458674]
position_covariance_type: 2
---
header: 
  seq: 92
  stamp: 
    secs: 1574451214
    nsecs: 650620937
  frame_id: "odom"
status: 
  status: 2
  service: 1
latitude: 37.8727219931
longitude: -122.270154608
altitude: 60.7930190861
position_covariance: [1.006430995602363, 0.0, 0.0, 0.0, 1.0063088772241082, 0.0, 0.0, 0.0, 1.0069021861458674]
position_covariance_type: 2
---
header: 
  seq: 93
  stamp: 
    secs: 1574451214
    nsecs: 703974008
  frame_id: "odom"
status: 
  status: 2
  service: 1
latitude: 37.8727219941
longitude: -122.270154608
altitude: 60.7930543218
position_covariance: [1.006430995602363, 0.0, 0.0, 0.0, 1.0063088772241082, 0.0, 0.0, 0.0, 1.0069021861458674]
position_covariance_type: 2
---
header: 
  seq: 94
  stamp: 
    secs: 1574451214
    nsecs: 757680892
  frame_id: "odom"
status: 
  status: 2
  service: 1
latitude: 37.8727219951
longitude: -122.270154608
altitude: 60.793121866
position_covariance: [1.006430995602363, 0.0, 0.0, 0.0, 1.0063088772241082, 0.0, 0.0, 0.0, 1.0069021861458674]
position_covariance_type: 2
---
header: 
  seq: 95
  stamp: 
    secs: 1574451214
    nsecs: 810878038
  frame_id: "odom"
status: 
  status: 2
  service: 1
latitude: 37.8727219955
longitude: -122.270154608
altitude: 60.7931900499
position_covariance: [1.006430995602363, 0.0, 0.0, 0.0, 1.0063088772241082, 0.0, 0.0, 0.0, 1.0069021861458674]
position_covariance_type: 2
---
header: 
  seq: 96
  stamp: 
    secs: 1574451214
    nsecs: 864362955
  frame_id: "odom"
status: 
  status: 2
  service: 1
latitude: 37.8727219953
longitude: -122.270154608
altitude: 60.7932348624
position_covariance: [1.006430995602363, 0.0, 0.0, 0.0, 1.0063088772241082, 0.0, 0.0, 0.0, 1.0069021861458674]
position_covariance_type: 2
---
header: 
  seq: 97
  stamp: 
    secs: 1574451214
    nsecs: 917738914
  frame_id: "odom"
status: 
  status: 2
  service: 1
latitude: 37.8727219952
longitude: -122.270154608
altitude: 60.7932744185
position_covariance: [1.006430995602363, 0.0, 0.0, 0.0, 1.0063088772241082, 0.0, 0.0, 0.0, 1.0069021861458674]
position_covariance_type: 2
---
header: 
  seq: 98
  stamp: 
    secs: 1574451214
    nsecs: 971231937
  frame_id: "odom"
status: 
  status: 2
  service: 1
latitude: 37.8727219956
longitude: -122.270154608
altitude: 60.7933327034
position_covariance: [1.006430995602363, 0.0, 0.0, 0.0, 1.0063088772241082, 0.0, 0.0, 0.0, 1.0069021861458674]
position_covariance_type: 2
---
header: 
  seq: 99
  stamp: 
    secs: 1574451215
    nsecs:   2021074
  frame_id: "odom"
status: 
  status: 2
  service: 1
latitude: 37.8727219965
longitude: -122.270154608
altitude: 60.793393597
position_covariance: [1.006430995602363, 0.0, 0.0, 0.0, 1.0063088772241082, 0.0, 0.0, 0.0, 1.0069021861458674]
position_covariance_type: 2
---
header: 
  seq: 100
  stamp: 
    secs: 1574451215
    nsecs:  55535078
  frame_id: "odom"
status: 
  status: 2
  service: 1
latitude: 37.8727219974
longitude: -122.270154608
altitude: 60.7933963975
position_covariance: [1.006426553646733, 0.0, 0.0, 0.0, 1.0063036094995443, 0.0, 0.0, 0.0, 1.006896811316175]
position_covariance_type: 2
---
header: 
  seq: 101
  stamp: 
    secs: 1574451215
    nsecs: 108900070
  frame_id: "odom"
status: 
  status: 2
  service: 1
latitude: 37.8727219978
longitude: -122.270154609
altitude: 60.7933445899
position_covariance: [1.006426553646733, 0.0, 0.0, 0.0, 1.0063036094995443, 0.0, 0.0, 0.0, 1.006896811316175]
position_covariance_type: 2
---
header: 
  seq: 102
  stamp: 
    secs: 1574451215
    nsecs: 162421941
  frame_id: "odom"
status: 
  status: 2
  service: 1
latitude: 37.8727219977
longitude: -122.270154609
altitude: 60.7932996908
position_covariance: [1.006426553646733, 0.0, 0.0, 0.0, 1.0063036094995443, 0.0, 0.0, 0.0, 1.006896811316175]
position_covariance_type: 2
---
header: 
  seq: 103
  stamp: 
    secs: 1574451215
    nsecs: 215755939
  frame_id: "odom"
status: 
  status: 2
  service: 1
latitude: 37.8727219969
longitude: -122.27015461
altitude: 60.7932917895
position_covariance: [1.006426553646733, 0.0, 0.0, 0.0, 1.0063036094995443, 0.0, 0.0, 0.0, 1.006896811316175]
position_covariance_type: 2
---
header: 
  seq: 104
  stamp: 
    secs: 1574451215
    nsecs: 269270896
  frame_id: "odom"
status: 
  status: 2
  service: 1
latitude: 37.8727219962
longitude: -122.27015461
altitude: 60.7932886519
position_covariance: [1.006426553646733, 0.0, 0.0, 0.0, 1.0063036094995443, 0.0, 0.0, 0.0, 1.006896811316175]
position_covariance_type: 2
---
header: 
  seq: 105
  stamp: 
    secs: 1574451215
    nsecs: 308948040
  frame_id: "odom"
status: 
  status: 2
  service: 1
latitude: 37.8727219956
longitude: -122.27015461
altitude: 60.7932835314
position_covariance: [1.006426553646733, 0.0, 0.0, 0.0, 1.0063036094995443, 0.0, 0.0, 0.0, 1.006896811316175]
position_covariance_type: 2
---
header: 
  seq: 106
  stamp: 
    secs: 1574451215
    nsecs: 354419946
  frame_id: "odom"
status: 
  status: 2
  service: 1
latitude: 37.8727219949
longitude: -122.27015461
altitude: 60.7932473859
position_covariance: [1.006426553646733, 0.0, 0.0, 0.0, 1.0063036094995443, 0.0, 0.0, 0.0, 1.006896811316175]
position_covariance_type: 2
---
header: 
  seq: 107
  stamp: 
    secs: 1574451215
    nsecs: 407792091
  frame_id: "odom"
status: 
  status: 2
  service: 1
latitude: 37.8727219946
longitude: -122.270154611
altitude: 60.7931755958
position_covariance: [1.006426553646733, 0.0, 0.0, 0.0, 1.0063036094995443, 0.0, 0.0, 0.0, 1.006896811316175]
position_covariance_type: 2
---
header: 
  seq: 108
  stamp: 
    secs: 1574451215
    nsecs: 461288928
  frame_id: "odom"
status: 
  status: 2
  service: 1
latitude: 37.8727219941
longitude: -122.270154612
altitude: 60.7931095092
position_covariance: [1.006426553646733, 0.0, 0.0, 0.0, 1.0063036094995443, 0.0, 0.0, 0.0, 1.006896811316175]
position_covariance_type: 2
---
header: 
  seq: 109
  stamp: 
    secs: 1574451215
    nsecs: 506716012
  frame_id: "odom"
status: 
  status: 2
  service: 1
latitude: 37.8727219935
longitude: -122.270154612
altitude: 60.7931227898
position_covariance: [1.006426553646733, 0.0, 0.0, 0.0, 1.0063036094995443, 0.0, 0.0, 0.0, 1.006896811316175]
position_covariance_type: 2
---
header: 
  seq: 110
  stamp: 
    secs: 1574451215
    nsecs: 560203075
  frame_id: "odom"
status: 
  status: 2
  service: 1
latitude: 37.8727219927
longitude: -122.270154611
altitude: 60.7931638351
position_covariance: [1.006426553646733, 0.0, 0.0, 0.0, 1.0063036094995443, 0.0, 0.0, 0.0, 1.006896811316175]
position_covariance_type: 2
---
header: 
  seq: 111
  stamp: 
    secs: 1574451215
    nsecs: 613583087
  frame_id: "odom"
status: 
  status: 2
  service: 1
latitude: 37.8727219915
longitude: -122.27015461
altitude: 60.7931776
position_covariance: [1.006426553646733, 0.0, 0.0, 0.0, 1.0063036094995443, 0.0, 0.0, 0.0, 1.006896811316175]
position_covariance_type: 2
---
header: 
  seq: 112
  stamp: 
    secs: 1574451215
    nsecs: 711395978
  frame_id: "odom"
status: 
  status: 2
  service: 1
latitude: 37.8727219895
longitude: -122.270154612
altitude: 60.793122977
position_covariance: [1.006426553646733, 0.0, 0.0, 0.0, 1.0063036094995443, 0.0, 0.0, 0.0, 1.006896811316175]
position_covariance_type: 2
---
header: 
  seq: 113
  stamp: 
    secs: 1574451215
    nsecs: 764961004
  frame_id: "odom"
status: 
  status: 2
  service: 1
latitude: 37.8727219891
longitude: -122.270154612
altitude: 60.7931285379
position_covariance: [1.006426553646733, 0.0, 0.0, 0.0, 1.0063036094995443, 0.0, 0.0, 0.0, 1.006896811316175]
position_covariance_type: 2
---
header: 
  seq: 114
  stamp: 
    secs: 1574451215
    nsecs: 818680047
  frame_id: "odom"
status: 
  status: 2
  service: 1
latitude: 37.8727219883
longitude: -122.270154612
altitude: 60.793156689
position_covariance: [1.006426553646733, 0.0, 0.0, 0.0, 1.0063036094995443, 0.0, 0.0, 0.0, 1.006896811316175]
position_covariance_type: 2
---
header: 
  seq: 115
  stamp: 
    secs: 1574451215
    nsecs: 871754884
  frame_id: "odom"
status: 
  status: 2
  service: 1
latitude: 37.8727219877
longitude: -122.270154612
altitude: 60.7931401962
position_covariance: [1.006426553646733, 0.0, 0.0, 0.0, 1.0063036094995443, 0.0, 0.0, 0.0, 1.006896811316175]
position_covariance_type: 2
---
header: 
  seq: 116
  stamp: 
    secs: 1574451215
    nsecs: 911458969
  frame_id: "odom"
status: 
  status: 2
  service: 1
latitude: 37.8727219872
longitude: -122.270154612
altitude: 60.7930926774
position_covariance: [1.006426553646733, 0.0, 0.0, 0.0, 1.0063036094995443, 0.0, 0.0, 0.0, 1.006896811316175]
position_covariance_type: 2
---
header: 
  seq: 117
  stamp: 
    secs: 1574451216
    nsecs:   9293079
  frame_id: "odom"
status: 
  status: 2
  service: 1
latitude: 37.8727219851
longitude: -122.270154612
altitude: 60.7930748928
position_covariance: [1.006426553646733, 0.0, 0.0, 0.0, 1.0063036094995443, 0.0, 0.0, 0.0, 1.006896811316175]
position_covariance_type: 2
---
header: 
  seq: 118
  stamp: 
    secs: 1574451216
    nsecs:  62802076
  frame_id: "odom"
status: 
  status: 2
  service: 1
latitude: 37.8727219852
longitude: -122.270154612
altitude: 60.7930539893
position_covariance: [1.006422601576612, 0.0, 0.0, 0.0, 1.0062988127695323, 0.0, 0.0, 0.0, 1.0068919363594062]
position_covariance_type: 2
---
header: 
  seq: 119
  stamp: 
    secs: 1574451216
    nsecs: 116172075
  frame_id: "odom"
status: 
  status: 2
  service: 1
latitude: 37.8727219861
longitude: -122.270154612
altitude: 60.7930706535
position_covariance: [1.006422601576612, 0.0, 0.0, 0.0, 1.0062988127695323, 0.0, 0.0, 0.0, 1.0068919363594062]
position_covariance_type: 2
---
header: 
  seq: 120
  stamp: 
    secs: 1574451216
    nsecs: 169612884
  frame_id: "odom"
status: 
  status: 2
  service: 1
latitude: 37.8727219875
longitude: -122.270154612
altitude: 60.7930849176
position_covariance: [1.006422601576612, 0.0, 0.0, 0.0, 1.0062988127695323, 0.0, 0.0, 0.0, 1.0068919363594062]
position_covariance_type: 2
---
header: 
  seq: 121
  stamp: 
    secs: 1574451216
    nsecs: 200417995
  frame_id: "odom"
status: 
  status: 2
  service: 1
latitude: 37.8727219891
longitude: -122.270154612
altitude: 60.7930956725
position_covariance: [1.006422601576612, 0.0, 0.0, 0.0, 1.0062988127695323, 0.0, 0.0, 0.0, 1.0068919363594062]
position_covariance_type: 2
---
header: 
  seq: 122
  stamp: 
    secs: 1574451216
    nsecs: 253899097
  frame_id: "odom"
status: 
  status: 2
  service: 1
latitude: 37.8727219909
longitude: -122.270154611
altitude: 60.7930861805
position_covariance: [1.006422601576612, 0.0, 0.0, 0.0, 1.0062988127695323, 0.0, 0.0, 0.0, 1.0068919363594062]
position_covariance_type: 2
---
header: 
  seq: 123
  stamp: 
    secs: 1574451216
    nsecs: 307302951
  frame_id: "odom"
status: 
  status: 2
  service: 1
latitude: 37.8727219922
longitude: -122.27015461
altitude: 60.7930682218
position_covariance: [1.006422601576612, 0.0, 0.0, 0.0, 1.0062988127695323, 0.0, 0.0, 0.0, 1.0068919363594062]
position_covariance_type: 2
---
header: 
  seq: 124
  stamp: 
    secs: 1574451216
    nsecs: 360857963
  frame_id: "odom"
status: 
  status: 2
  service: 1
latitude: 37.872721993
longitude: -122.27015461
altitude: 60.7931069518
position_covariance: [1.006422601576612, 0.0, 0.0, 0.0, 1.0062988127695323, 0.0, 0.0, 0.0, 1.0068919363594062]
position_covariance_type: 2
---
header: 
  seq: 125
  stamp: 
    secs: 1574451216
    nsecs: 414222002
  frame_id: "odom"
status: 
  status: 2
  service: 1
latitude: 37.8727219942
longitude: -122.27015461
altitude: 60.7931361897
position_covariance: [1.006422601576612, 0.0, 0.0, 0.0, 1.0062988127695323, 0.0, 0.0, 0.0, 1.0068919363594062]
position_covariance_type: 2
---
header: 
  seq: 126
  stamp: 
    secs: 1574451216
    nsecs: 467725992
  frame_id: "odom"
status: 
  status: 2
  service: 1
latitude: 37.8727219951
longitude: -122.27015461
altitude: 60.7931528101
position_covariance: [1.006422601576612, 0.0, 0.0, 0.0, 1.0062988127695323, 0.0, 0.0, 0.0, 1.0068919363594062]
position_covariance_type: 2
---
header: 
  seq: 127
  stamp: 
    secs: 1574451216
    nsecs: 521199941
  frame_id: "odom"
status: 
  status: 2
  service: 1
latitude: 37.8727219959
longitude: -122.27015461
altitude: 60.7931509325
position_covariance: [1.006422601576612, 0.0, 0.0, 0.0, 1.0062988127695323, 0.0, 0.0, 0.0, 1.0068919363594062]
position_covariance_type: 2
---
header: 
  seq: 128
  stamp: 
    secs: 1574451216
    nsecs: 551979064
  frame_id: "odom"
status: 
  status: 2
  service: 1
latitude: 37.8727219969
longitude: -122.270154609
altitude: 60.7931688558
position_covariance: [1.006422601576612, 0.0, 0.0, 0.0, 1.0062988127695323, 0.0, 0.0, 0.0, 1.0068919363594062]
position_covariance_type: 2
---
header: 
  seq: 129
  stamp: 
    secs: 1574451216
    nsecs: 605345010
  frame_id: "odom"
status: 
  status: 2
  service: 1
latitude: 37.8727219982
longitude: -122.270154608
altitude: 60.7931926446
position_covariance: [1.006422601576612, 0.0, 0.0, 0.0, 1.0062988127695323, 0.0, 0.0, 0.0, 1.0068919363594062]
position_covariance_type: 2
---
header: 
  seq: 130
  stamp: 
    secs: 1574451216
    nsecs: 650758981
  frame_id: "odom"
status: 
  status: 2
  service: 1
latitude: 37.8727219999
longitude: -122.270154607
altitude: 60.7932293955
position_covariance: [1.006422601576612, 0.0, 0.0, 0.0, 1.0062988127695323, 0.0, 0.0, 0.0, 1.0068919363594062]
position_covariance_type: 2
---
header: 
  seq: 131
  stamp: 
    secs: 1574451216
    nsecs: 704185962
  frame_id: "odom"
status: 
  status: 2
  service: 1
latitude: 37.8727220016
longitude: -122.270154607
altitude: 60.7932714438
position_covariance: [1.006422601576612, 0.0, 0.0, 0.0, 1.0062988127695323, 0.0, 0.0, 0.0, 1.0068919363594062]
position_covariance_type: 2
---
header: 
  seq: 132
  stamp: 
    secs: 1574451216
    nsecs: 757689952
  frame_id: "odom"
status: 
  status: 2
  service: 1
latitude: 37.8727220034
longitude: -122.270154607
altitude: 60.7933065593
position_covariance: [1.006422601576612, 0.0, 0.0, 0.0, 1.0062988127695323, 0.0, 0.0, 0.0, 1.0068919363594062]
position_covariance_type: 2
---
header: 
  seq: 133
  stamp: 
    secs: 1574451216
    nsecs: 811165094
  frame_id: "odom"
status: 
  status: 2
  service: 1
latitude: 37.8727220053
longitude: -122.270154605
altitude: 60.7933575446
position_covariance: [1.006422601576612, 0.0, 0.0, 0.0, 1.0062988127695323, 0.0, 0.0, 0.0, 1.0068919363594062]
position_covariance_type: 2
---
header: 
  seq: 134
  stamp: 
    secs: 1574451216
    nsecs: 864595890
  frame_id: "odom"
status: 
  status: 2
  service: 1
latitude: 37.8727220071
longitude: -122.270154604
altitude: 60.793389163
position_covariance: [1.006422601576612, 0.0, 0.0, 0.0, 1.0062988127695323, 0.0, 0.0, 0.0, 1.0068919363594062]
position_covariance_type: 2
---
header: 
  seq: 135
  stamp: 
    secs: 1574451216
    nsecs: 918044090
  frame_id: "odom"
status: 
  status: 2
  service: 1
latitude: 37.8727220084
longitude: -122.270154603
altitude: 60.7934080977
position_covariance: [1.006422601576612, 0.0, 0.0, 0.0, 1.0062988127695323, 0.0, 0.0, 0.0, 1.0068919363594062]
position_covariance_type: 2
---
header: 
  seq: 136
  stamp: 
    secs: 1574451216
    nsecs: 971442937
  frame_id: "odom"
status: 
  status: 2
  service: 1
latitude: 37.8727220097
longitude: -122.270154602
altitude: 60.7934231497
position_covariance: [1.006422601576612, 0.0, 0.0, 0.0, 1.0062988127695323, 0.0, 0.0, 0.0, 1.0068919363594062]
position_covariance_type: 2
---
header: 
  seq: 137
  stamp: 
    secs: 1574451217
    nsecs:  11087894
  frame_id: "odom"
status: 
  status: 2
  service: 1
latitude: 37.8727220112
longitude: -122.270154601
altitude: 60.7934581619
position_covariance: [1.006422601576612, 0.0, 0.0, 0.0, 1.0062988127695323, 0.0, 0.0, 0.0, 1.0068919363594062]
position_covariance_type: 2
---
header: 
  seq: 138
  stamp: 
    secs: 1574451217
    nsecs:  56626081
  frame_id: "odom"
status: 
  status: 2
  service: 1
latitude: 37.8727220123
longitude: -122.270154601
altitude: 60.7934943214
position_covariance: [1.006419249833102, 0.0, 0.0, 0.0, 1.006294400629612, 0.0, 0.0, 0.0, 1.0068883373564672]
position_covariance_type: 2
---
header: 
  seq: 139
  stamp: 
    secs: 1574451217
    nsecs: 110090017
  frame_id: "odom"
status: 
  status: 2
  service: 1
latitude: 37.8727220131
longitude: -122.2701546
altitude: 60.7934772642
position_covariance: [1.006419249833102, 0.0, 0.0, 0.0, 1.006294400629612, 0.0, 0.0, 0.0, 1.0068883373564672]
position_covariance_type: 2
---
header: 
  seq: 140
  stamp: 
    secs: 1574451217
    nsecs: 207916021
  frame_id: "odom"
status: 
  status: 2
  service: 1
latitude: 37.8727220148
longitude: -122.270154599
altitude: 60.7933780095
position_covariance: [1.006419249833102, 0.0, 0.0, 0.0, 1.006294400629612, 0.0, 0.0, 0.0, 1.0068883373564672]
position_covariance_type: 2
---
header: 
  seq: 141
  stamp: 
    secs: 1574451217
    nsecs: 261423110
  frame_id: "odom"
status: 
  status: 2
  service: 1
latitude: 37.8727220153
longitude: -122.270154599
altitude: 60.7933284566
position_covariance: [1.006419249833102, 0.0, 0.0, 0.0, 1.006294400629612, 0.0, 0.0, 0.0, 1.0068883373564672]
position_covariance_type: 2
---
header: 
  seq: 142
  stamp: 
    secs: 1574451217
    nsecs: 314835071
  frame_id: "odom"
status: 
  status: 2
  service: 1
latitude: 37.8727220155
longitude: -122.270154599
altitude: 60.7933150893
position_covariance: [1.006419249833102, 0.0, 0.0, 0.0, 1.006294400629612, 0.0, 0.0, 0.0, 1.0068883373564672]
position_covariance_type: 2
---
header: 
  seq: 143
  stamp: 
    secs: 1574451217
    nsecs: 368269920
  frame_id: "odom"
status: 
  status: 2
  service: 1
latitude: 37.8727220153
longitude: -122.270154599
altitude: 60.7932812702
position_covariance: [1.006419249833102, 0.0, 0.0, 0.0, 1.006294400629612, 0.0, 0.0, 0.0, 1.0068883373564672]
position_covariance_type: 2
---
header: 
  seq: 144
  stamp: 
    secs: 1574451217
    nsecs: 399058103
  frame_id: "odom"
status: 
  status: 2
  service: 1
latitude: 37.8727220154
longitude: -122.270154599
altitude: 60.7932305299
position_covariance: [1.006419249833102, 0.0, 0.0, 0.0, 1.006294400629612, 0.0, 0.0, 0.0, 1.0068883373564672]
position_covariance_type: 2
---
header: 
  seq: 145
  stamp: 
    secs: 1574451217
    nsecs: 438925027
  frame_id: "odom"
status: 
  status: 2
  service: 1
latitude: 37.8727220155
longitude: -122.270154599
altitude: 60.7931612646
position_covariance: [1.006419249833102, 0.0, 0.0, 0.0, 1.006294400629612, 0.0, 0.0, 0.0, 1.0068883373564672]
position_covariance_type: 2
---
header: 
  seq: 146
  stamp: 
    secs: 1574451217
    nsecs: 536653995
  frame_id: "odom"
status: 
  status: 2
  service: 1
latitude: 37.8727220165
longitude: -122.2701546
altitude: 60.7930323193
position_covariance: [1.006419249833102, 0.0, 0.0, 0.0, 1.006294400629612, 0.0, 0.0, 0.0, 1.0068883373564672]
position_covariance_type: 2
---
header: 
  seq: 147
  stamp: 
    secs: 1574451217
    nsecs: 590049982
  frame_id: "odom"
status: 
  status: 2
  service: 1
latitude: 37.8727220166
longitude: -122.2701546
altitude: 60.7930035368
position_covariance: [1.006419249833102, 0.0, 0.0, 0.0, 1.006294400629612, 0.0, 0.0, 0.0, 1.0068883373564672]
position_covariance_type: 2
---
header: 
  seq: 148
  stamp: 
    secs: 1574451217
    nsecs: 643618106
  frame_id: "odom"
status: 
  status: 2
  service: 1
latitude: 37.8727220165
longitude: -122.2701546
altitude: 60.7929670541
position_covariance: [1.006419249833102, 0.0, 0.0, 0.0, 1.006294400629612, 0.0, 0.0, 0.0, 1.0068883373564672]
position_covariance_type: 2
---
header: 
  seq: 149
  stamp: 
    secs: 1574451217
    nsecs: 697025060
  frame_id: "odom"
status: 
  status: 2
  service: 1
latitude: 37.8727220161
longitude: -122.2701546
altitude: 60.7929162597
position_covariance: [1.006419249833102, 0.0, 0.0, 0.0, 1.006294400629612, 0.0, 0.0, 0.0, 1.0068883373564672]
position_covariance_type: 2
---
header: 
  seq: 150
  stamp: 
    secs: 1574451217
    nsecs: 750673055
  frame_id: "odom"
status: 
  status: 2
  service: 1
latitude: 37.8727220155
longitude: -122.270154599
altitude: 60.7928560367
position_covariance: [1.006419249833102, 0.0, 0.0, 0.0, 1.006294400629612, 0.0, 0.0, 0.0, 1.0068883373564672]
position_covariance_type: 2
---
header: 
  seq: 151
  stamp: 
    secs: 1574451217
    nsecs: 804126024
  frame_id: "odom"
status: 
  status: 2
  service: 1
latitude: 37.872722015
longitude: -122.270154598
altitude: 60.7928247461
position_covariance: [1.006419249833102, 0.0, 0.0, 0.0, 1.006294400629612, 0.0, 0.0, 0.0, 1.0068883373564672]
position_covariance_type: 2
---
header: 
  seq: 152
  stamp: 
    secs: 1574451217
    nsecs: 858087062
  frame_id: "odom"
status: 
  status: 2
  service: 1
latitude: 37.8727220151
longitude: -122.270154598
altitude: 60.7927949624
position_covariance: [1.006419249833102, 0.0, 0.0, 0.0, 1.006294400629612, 0.0, 0.0, 0.0, 1.0068883373564672]
position_covariance_type: 2
---
header: 
  seq: 153
  stamp: 
    secs: 1574451217
    nsecs: 910990953
  frame_id: "odom"
status: 
  status: 2
  service: 1
latitude: 37.8727220158
longitude: -122.270154598
altitude: 60.7927605733
position_covariance: [1.006419249833102, 0.0, 0.0, 0.0, 1.006294400629612, 0.0, 0.0, 0.0, 1.0068883373564672]
position_covariance_type: 2
---
header: 
  seq: 154
  stamp: 
    secs: 1574451218
    nsecs:   9011030
  frame_id: "odom"
status: 
  status: 2
  service: 1
latitude: 37.8727220175
longitude: -122.270154597
altitude: 60.7926273141
position_covariance: [1.006419249833102, 0.0, 0.0, 0.0, 1.006294400629612, 0.0, 0.0, 0.0, 1.0068883373564672]
position_covariance_type: 2
---
header: 
  seq: 155
  stamp: 
    secs: 1574451218
    nsecs:  62475919
  frame_id: "odom"
status: 
  status: 2
  service: 1
latitude: 37.8727220173
longitude: -122.270154597
altitude: 60.7926632063
position_covariance: [1.0064156024939594, 0.0, 0.0, 0.0, 1.0062897390611014, 0.0, 0.0, 0.0, 1.0068842430756462]
position_covariance_type: 2
---
header: 
  seq: 156
  stamp: 
    secs: 1574451218
    nsecs: 107856988
  frame_id: "odom"
status: 
  status: 2
  service: 1
latitude: 37.8727220163
longitude: -122.270154597
altitude: 60.79270826
position_covariance: [1.0064156024939594, 0.0, 0.0, 0.0, 1.0062897390611014, 0.0, 0.0, 0.0, 1.0068842430756462]
position_covariance_type: 2
---
header: 
  seq: 157
  stamp: 
    secs: 1574451218
    nsecs: 161339044
  frame_id: "odom"
status: 
  status: 2
  service: 1
latitude: 37.8727220151
longitude: -122.270154597
altitude: 60.792758964
position_covariance: [1.0064156024939594, 0.0, 0.0, 0.0, 1.0062897390611014, 0.0, 0.0, 0.0, 1.0068842430756462]
position_covariance_type: 2
---
header: 
  seq: 158
  stamp: 
    secs: 1574451218
    nsecs: 214718103
  frame_id: "odom"
status: 
  status: 2
  service: 1
latitude: 37.8727220142
longitude: -122.270154598
altitude: 60.7928048037
position_covariance: [1.0064156024939594, 0.0, 0.0, 0.0, 1.0062897390611014, 0.0, 0.0, 0.0, 1.0068842430756462]
position_covariance_type: 2
---
header: 
  seq: 159
  stamp: 
    secs: 1574451218
    nsecs: 268153905
  frame_id: "odom"
status: 
  status: 2
  service: 1
latitude: 37.8727220138
longitude: -122.270154599
altitude: 60.7928184411
position_covariance: [1.0064156024939594, 0.0, 0.0, 0.0, 1.0062897390611014, 0.0, 0.0, 0.0, 1.0068842430756462]
position_covariance_type: 2
---
header: 
  seq: 160
  stamp: 
    secs: 1574451218
    nsecs: 298974037
  frame_id: "odom"
status: 
  status: 2
  service: 1
latitude: 37.872722014
longitude: -122.270154599
altitude: 60.7928287257
position_covariance: [1.0064156024939594, 0.0, 0.0, 0.0, 1.0062897390611014, 0.0, 0.0, 0.0, 1.0068842430756462]
position_covariance_type: 2
---
header: 
  seq: 161
  stamp: 
    secs: 1574451218
    nsecs: 352520942
  frame_id: "odom"
status: 
  status: 2
  service: 1
latitude: 37.8727220141
longitude: -122.270154599
altitude: 60.7928665336
position_covariance: [1.0064156024939594, 0.0, 0.0, 0.0, 1.0062897390611014, 0.0, 0.0, 0.0, 1.0068842430756462]
position_covariance_type: 2
---
header: 
  seq: 162
  stamp: 
    secs: 1574451218
    nsecs: 407275915
  frame_id: "odom"
status: 
  status: 2
  service: 1
latitude: 37.872722014
longitude: -122.270154599
altitude: 60.7929059761
position_covariance: [1.0064156024939594, 0.0, 0.0, 0.0, 1.0062897390611014, 0.0, 0.0, 0.0, 1.0068842430756462]
position_covariance_type: 2
---
header: 
  seq: 163
  stamp: 
    secs: 1574451218
    nsecs: 460851907
  frame_id: "odom"
status: 
  status: 2
  service: 1
latitude: 37.8727220131
longitude: -122.270154599
altitude: 60.7929480644
position_covariance: [1.0064156024939594, 0.0, 0.0, 0.0, 1.0062897390611014, 0.0, 0.0, 0.0, 1.0068842430756462]
position_covariance_type: 2
---
header: 
  seq: 164
  stamp: 
    secs: 1574451218
    nsecs: 514138936
  frame_id: "odom"
status: 
  status: 2
  service: 1
latitude: 37.872722012
longitude: -122.2701546
altitude: 60.7929791622
position_covariance: [1.0064156024939594, 0.0, 0.0, 0.0, 1.0062897390611014, 0.0, 0.0, 0.0, 1.0068842430756462]
position_covariance_type: 2
---
header: 
  seq: 165
  stamp: 
    secs: 1574451218
    nsecs: 567616939
  frame_id: "odom"
status: 
  status: 2
  service: 1
latitude: 37.8727220112
longitude: -122.2701546
altitude: 60.7930245986
position_covariance: [1.0064156024939594, 0.0, 0.0, 0.0, 1.0062897390611014, 0.0, 0.0, 0.0, 1.0068842430756462]
position_covariance_type: 2
---
header: 
  seq: 166
  stamp: 
    secs: 1574451218
    nsecs: 621069908
  frame_id: "odom"
status: 
  status: 2
  service: 1
latitude: 37.8727220107
longitude: -122.2701546
altitude: 60.7931032227
position_covariance: [1.0064156024939594, 0.0, 0.0, 0.0, 1.0062897390611014, 0.0, 0.0, 0.0, 1.0068842430756462]
position_covariance_type: 2
---
header: 
  seq: 167
  stamp: 
    secs: 1574451218
    nsecs: 651937961
  frame_id: "odom"
status: 
  status: 2
  service: 1
latitude: 37.8727220106
longitude: -122.2701546
altitude: 60.7931812834
position_covariance: [1.0064156024939594, 0.0, 0.0, 0.0, 1.0062897390611014, 0.0, 0.0, 0.0, 1.0068842430756462]
position_covariance_type: 2
---
header: 
  seq: 168
  stamp: 
    secs: 1574451218
    nsecs: 705295085
  frame_id: "odom"
status: 
  status: 2
  service: 1
latitude: 37.8727220106
longitude: -122.2701546
altitude: 60.7931847433
position_covariance: [1.0064156024939594, 0.0, 0.0, 0.0, 1.0062897390611014, 0.0, 0.0, 0.0, 1.0068842430756462]
position_covariance_type: 2
---
header: 
  seq: 169
  stamp: 
    secs: 1574451218
    nsecs: 803123950
  frame_id: "odom"
status: 
  status: 2
  service: 1
latitude: 37.87272201
longitude: -122.270154599
altitude: 60.7932882532
position_covariance: [1.0064156024939594, 0.0, 0.0, 0.0, 1.0062897390611014, 0.0, 0.0, 0.0, 1.0068842430756462]
position_covariance_type: 2
---
header: 
  seq: 170
  stamp: 
    secs: 1574451218
    nsecs: 857117891
  frame_id: "odom"
status: 
  status: 2
  service: 1
latitude: 37.8727220098
longitude: -122.270154599
altitude: 60.7933797846
position_covariance: [1.0064156024939594, 0.0, 0.0, 0.0, 1.0062897390611014, 0.0, 0.0, 0.0, 1.0068842430756462]
position_covariance_type: 2
---
header: 
  seq: 171
  stamp: 
    secs: 1574451218
    nsecs: 910607099
  frame_id: "odom"
status: 
  status: 2
  service: 1
latitude: 37.8727220096
longitude: -122.270154599
altitude: 60.7934535537
position_covariance: [1.0064156024939594, 0.0, 0.0, 0.0, 1.0062897390611014, 0.0, 0.0, 0.0, 1.0068842430756462]
position_covariance_type: 2
---
header: 
  seq: 172
  stamp: 
    secs: 1574451218
    nsecs: 964097976
  frame_id: "odom"
status: 
  status: 2
  service: 1
latitude: 37.8727220097
longitude: -122.270154599
altitude: 60.7935221028
position_covariance: [1.0064156024939594, 0.0, 0.0, 0.0, 1.0062897390611014, 0.0, 0.0, 0.0, 1.0068842430756462]
position_covariance_type: 2
---
header: 
  seq: 173
  stamp: 
    secs: 1574451219
    nsecs:  17529010
  frame_id: "odom"
status: 
  status: 2
  service: 1
latitude: 37.8727220105
longitude: -122.2701546
altitude: 60.7935527805
position_covariance: [1.0064156024939594, 0.0, 0.0, 0.0, 1.0062897390611014, 0.0, 0.0, 0.0, 1.0068842430756462]
position_covariance_type: 2
---
header: 
  seq: 174
  stamp: 
    secs: 1574451219
    nsecs:  48255920
  frame_id: "odom"
status: 
  status: 2
  service: 1
latitude: 37.8727220105
longitude: -122.270154601
altitude: 60.7935237996
position_covariance: [1.006412309245231, 0.0, 0.0, 0.0, 1.0062853880234675, 0.0, 0.0, 0.0, 1.0068803685064454]
position_covariance_type: 2
---
header: 
  seq: 175
  stamp: 
    secs: 1574451219
    nsecs:  87982892
  frame_id: "odom"
status: 
  status: 2
  service: 1
latitude: 37.8727220097
longitude: -122.270154602
altitude: 60.7935072705
position_covariance: [1.006412309245231, 0.0, 0.0, 0.0, 1.0062853880234675, 0.0, 0.0, 0.0, 1.0068803685064454]
position_covariance_type: 2
---
header: 
  seq: 176
  stamp: 
    secs: 1574451219
    nsecs: 141454935
  frame_id: "odom"
status: 
  status: 2
  service: 1
latitude: 37.8727220085
longitude: -122.270154602
altitude: 60.793511902
