header: 
  seq: 5777
  stamp: 
    secs: 1574451648
    nsecs: 351274013
  frame_id: "odom"
status: 
  status: 2
  service: 1
latitude: 37.8731202234
longitude: -122.268209541
altitude: 61.9714014325
position_covariance: [1.1822231849417246, 0.0, 0.0, 0.0, 1.1509692450173676, 0.0, 0.0, 0.0, 1.1033233916383733]
position_covariance_type: 2
---
header: 
  seq: 5778
  stamp: 
    secs: 1574451648
    nsecs: 404709100
  frame_id: "odom"
status: 
  status: 2
  service: 1
latitude: 37.8731199615
longitude: -122.268211362
altitude: 61.9684352735
position_covariance: [1.1822231849417246, 0.0, 0.0, 0.0, 1.1509692450173676, 0.0, 0.0, 0.0, 1.1033233916383733]
position_covariance_type: 2
---
header: 
  seq: 5779
  stamp: 
    secs: 1574451648
    nsecs: 458237886
  frame_id: "odom"
status: 
  status: 2
  service: 1
latitude: 37.8731197013
longitude: -122.268213187
altitude: 61.9654272422
position_covariance: [1.1822231849417246, 0.0, 0.0, 0.0, 1.1509692450173676, 0.0, 0.0, 0.0, 1.1033233916383733]
position_covariance_type: 2
---
header: 
  seq: 5780
  stamp: 
    secs: 1574451648
    nsecs: 511629104
  frame_id: "odom"
status: 
  status: 2
  service: 1
latitude: 37.8731194426
longitude: -122.268215015
altitude: 61.9622932039
position_covariance: [1.1822231849417246, 0.0, 0.0, 0.0, 1.1509692450173676, 0.0, 0.0, 0.0, 1.1033233916383733]
position_covariance_type: 2
---
header: 
  seq: 5781
  stamp: 
    secs: 1574451648
    nsecs: 565196990
  frame_id: "odom"
status: 
  status: 2
  service: 1
latitude: 37.873119186
longitude: -122.268216842
altitude: 61.9593248535
position_covariance: [1.1822231849417246, 0.0, 0.0, 0.0, 1.1509692450173676, 0.0, 0.0, 0.0, 1.1033233916383733]
position_covariance_type: 2
---
header: 
  seq: 5782
  stamp: 
    secs: 1574451648
    nsecs: 662981986
  frame_id: "odom"
status: 
  status: 2
  service: 1
latitude: 37.8731186709
longitude: -122.268220502
altitude: 61.9532551244
position_covariance: [1.1822231849417246, 0.0, 0.0, 0.0, 1.1509692450173676, 0.0, 0.0, 0.0, 1.1033233916383733]
position_covariance_type: 2
---
header: 
  seq: 5783
  stamp: 
    secs: 1574451648
    nsecs: 693741083
  frame_id: "odom"
status: 
  status: 2
  service: 1
latitude: 37.8731184146
longitude: -122.268222336
altitude: 61.9503497975
position_covariance: [1.1822231849417246, 0.0, 0.0, 0.0, 1.1509692450173676, 0.0, 0.0, 0.0, 1.1033233916383733]
position_covariance_type: 2
---
header: 
  seq: 5784
  stamp: 
    secs: 1574451648
    nsecs: 747216939
  frame_id: "odom"
status: 
  status: 2
  service: 1
latitude: 37.8731181587
longitude: -122.268224176
altitude: 61.9472713349
position_covariance: [1.1822231849417246, 0.0, 0.0, 0.0, 1.1509692450173676, 0.0, 0.0, 0.0, 1.1033233916383733]
position_covariance_type: 2
---
header: 
  seq: 5785
  stamp: 
    secs: 1574451648
    nsecs: 800683021
  frame_id: "odom"
status: 
  status: 2
  service: 1
latitude: 37.8731179032
longitude: -122.268226024
altitude: 61.9441187074
position_covariance: [1.1822231849417246, 0.0, 0.0, 0.0, 1.1509692450173676, 0.0, 0.0, 0.0, 1.1033233916383733]
position_covariance_type: 2
---
header: 
  seq: 5786
  stamp: 
    secs: 1574451648
    nsecs: 854736089
  frame_id: "odom"
status: 
  status: 2
  service: 1
latitude: 37.8731176518
longitude: -122.268227879
altitude: 61.9408027427
position_covariance: [1.1822231849417246, 0.0, 0.0, 0.0, 1.1509692450173676, 0.0, 0.0, 0.0, 1.1033233916383733]
position_covariance_type: 2
---
header: 
  seq: 5787
  stamp: 
    secs: 1574451648
    nsecs: 908075094
  frame_id: "odom"
status: 
  status: 2
  service: 1
latitude: 37.8731174019
longitude: -122.268229733
altitude: 61.9373169998
position_covariance: [1.1822231971525508, 0.0, 0.0, 0.0, 1.1509692450173676, 0.0, 0.0, 0.0, 1.1033233916383733]
position_covariance_type: 2
---
header: 
  seq: 5788
  stamp: 
    secs: 1574451648
    nsecs: 961621999
  frame_id: "odom"
status: 
  status: 2
  service: 1
latitude: 37.8731171468
longitude: -122.268231582
altitude: 61.9337496022
position_covariance: [1.1822231971525508, 0.0, 0.0, 0.0, 1.1509692450173676, 0.0, 0.0, 0.0, 1.1033233916383733]
position_covariance_type: 2
---
header: 
  seq: 5789
  stamp: 
    secs: 1574451648
    nsecs: 992304086
  frame_id: "odom"
status: 
  status: 2
  service: 1
latitude: 37.8731168916
longitude: -122.268233426
altitude: 61.9305401649
position_covariance: [1.1822231971525508, 0.0, 0.0, 0.0, 1.1509692450173676, 0.0, 0.0, 0.0, 1.1033233916383733]
position_covariance_type: 2
---
header: 
  seq: 5790
  stamp: 
    secs: 1574451649
    nsecs:  45774936
  frame_id: "odom"
status: 
  status: 2
  service: 1
latitude: 37.8731166403
longitude: -122.268235277
altitude: 61.9276350532
position_covariance: [1.1953685555798146, 0.0, 0.0, 0.0, 1.1532645382592142, 0.0, 0.0, 0.0, 1.10827862867707]
position_covariance_type: 2
---
header: 
  seq: 5791
  stamp: 
    secs: 1574451649
    nsecs:  99200963
  frame_id: "odom"
status: 
  status: 2
  service: 1
latitude: 37.8731163988
longitude: -122.268237126
altitude: 61.9251840711
position_covariance: [1.1953685555798146, 0.0, 0.0, 0.0, 1.1532645382592142, 0.0, 0.0, 0.0, 1.10827862867707]
position_covariance_type: 2
---
header: 
  seq: 5792
  stamp: 
    secs: 1574451649
    nsecs: 152712106
  frame_id: "odom"
status: 
  status: 2
  service: 1
latitude: 37.8731161679
longitude: -122.268238962
altitude: 61.9231314529
position_covariance: [1.1953685555798146, 0.0, 0.0, 0.0, 1.1532645382592142, 0.0, 0.0, 0.0, 1.10827862867707]
position_covariance_type: 2
---
header: 
  seq: 5793
  stamp: 
    secs: 1574451649
    nsecs: 206093072
  frame_id: "odom"
status: 
  status: 2
  service: 1
latitude: 37.8731159485
longitude: -122.268240784
altitude: 61.9208089355
position_covariance: [1.1953685555798146, 0.0, 0.0, 0.0, 1.1532645382592142, 0.0, 0.0, 0.0, 1.10827862867707]
position_covariance_type: 2
---
header: 
  seq: 5794
  stamp: 
    secs: 1574451649
    nsecs: 259645938
  frame_id: "odom"
status: 
  status: 2
  service: 1
latitude: 37.8731157397
longitude: -122.268242586
altitude: 61.9185648905
position_covariance: [1.1953685555798146, 0.0, 0.0, 0.0, 1.1532645382592142, 0.0, 0.0, 0.0, 1.10827862867707]
position_covariance_type: 2
---
header: 
  seq: 5795
  stamp: 
    secs: 1574451649
    nsecs: 290388107
  frame_id: "odom"
status: 
  status: 2
  service: 1
latitude: 37.8731155385
longitude: -122.268244369
altitude: 61.9165294478
position_covariance: [1.1953685555798146, 0.0, 0.0, 0.0, 1.1532645382592142, 0.0, 0.0, 0.0, 1.10827862867707]
position_covariance_type: 2
---
header: 
  seq: 5796
  stamp: 
    secs: 1574451649
    nsecs: 344049930
  frame_id: "odom"
status: 
  status: 2
  service: 1
latitude: 37.87311534
longitude: -122.268246135
altitude: 61.9146682061
position_covariance: [1.1953685555798146, 0.0, 0.0, 0.0, 1.1532645382592142, 0.0, 0.0, 0.0, 1.10827862867707]
position_covariance_type: 2
---
header: 
  seq: 5797
  stamp: 
    secs: 1574451649
    nsecs: 397286891
  frame_id: "odom"
status: 
  status: 2
  service: 1
latitude: 37.8731151381
longitude: -122.268247885
altitude: 61.9123972375
position_covariance: [1.1953685555798146, 0.0, 0.0, 0.0, 1.1532645382592142, 0.0, 0.0, 0.0, 1.10827862867707]
position_covariance_type: 2
---
header: 
  seq: 5798
  stamp: 
    secs: 1574451649
    nsecs: 450725078
  frame_id: "odom"
status: 
  status: 2
  service: 1
latitude: 37.8731149293
longitude: -122.268249617
altitude: 61.9097613003
position_covariance: [1.1953685555798146, 0.0, 0.0, 0.0, 1.1532645382592142, 0.0, 0.0, 0.0, 1.10827862867707]
position_covariance_type: 2
---
header: 
  seq: 5799
  stamp: 
    secs: 1574451649
    nsecs: 504600048
  frame_id: "odom"
status: 
  status: 2
  service: 1
latitude: 37.8731147163
longitude: -122.268251335
altitude: 61.9065795206
position_covariance: [1.1953685555798146, 0.0, 0.0, 0.0, 1.1532645382592142, 0.0, 0.0, 0.0, 1.10827862867707]
position_covariance_type: 2
---
header: 
  seq: 5800
  stamp: 
    secs: 1574451649
    nsecs: 557969093
  frame_id: "odom"
status: 
  status: 2
  service: 1
latitude: 37.8731145045
longitude: -122.26825304
altitude: 61.9031432858
position_covariance: [1.1953685555798146, 0.0, 0.0, 0.0, 1.1532645382592142, 0.0, 0.0, 0.0, 1.10827862867707]
position_covariance_type: 2
---
header: 
  seq: 5801
  stamp: 
    secs: 1574451649
    nsecs: 611406087
  frame_id: "odom"
status: 
  status: 2
  service: 1
latitude: 37.8731142994
longitude: -122.268254732
altitude: 61.8994691595
position_covariance: [1.1953685555798146, 0.0, 0.0, 0.0, 1.1532645382592142, 0.0, 0.0, 0.0, 1.10827862867707]
position_covariance_type: 2
---
header: 
  seq: 5802
  stamp: 
    secs: 1574451649
    nsecs: 664915084
  frame_id: "odom"
status: 
  status: 2
  service: 1
latitude: 37.8731141052
longitude: -122.268256409
altitude: 61.8956175316
position_covariance: [1.1953685555798146, 0.0, 0.0, 0.0, 1.1532645382592142, 0.0, 0.0, 0.0, 1.10827862867707]
position_covariance_type: 2
---
header: 
  seq: 5803
  stamp: 
    secs: 1574451649
    nsecs: 748963117
  frame_id: "odom"
status: 
  status: 2
  service: 1
latitude: 37.8731137497
longitude: -122.268259713
altitude: 61.8881576359
position_covariance: [1.1953685555798146, 0.0, 0.0, 0.0, 1.1532645382592142, 0.0, 0.0, 0.0, 1.10827862867707]
position_covariance_type: 2
---
header: 
  seq: 5804
  stamp: 
    secs: 1574451649
    nsecs: 802311897
  frame_id: "odom"
status: 
  status: 2
  service: 1
latitude: 37.8731135765
longitude: -122.268261337
altitude: 61.8849059874
position_covariance: [1.1953685555798146, 0.0, 0.0, 0.0, 1.1532645382592142, 0.0, 0.0, 0.0, 1.10827862867707]
position_covariance_type: 2
---
header: 
  seq: 5805
  stamp: 
    secs: 1574451649
    nsecs: 855940103
  frame_id: "odom"
status: 
  status: 2
  service: 1
latitude: 37.8731133985
longitude: -122.268262937
altitude: 61.8822995126
position_covariance: [1.1953685555798146, 0.0, 0.0, 0.0, 1.1532645382592142, 0.0, 0.0, 0.0, 1.10827862867707]
position_covariance_type: 2
---
header: 
  seq: 5806
  stamp: 
    secs: 1574451649
    nsecs: 909360885
  frame_id: "odom"
status: 
  status: 2
  service: 1
latitude: 37.8731132115
longitude: -122.268264506
altitude: 61.8799946001
position_covariance: [1.1953685555798146, 0.0, 0.0, 0.0, 1.1532645382592142, 0.0, 0.0, 0.0, 1.10827862867707]
position_covariance_type: 2
---
header: 
  seq: 5807
  stamp: 
    secs: 1574451649
    nsecs: 962802886
  frame_id: "odom"
status: 
  status: 2
  service: 1
latitude: 37.8731130207
longitude: -122.268266052
altitude: 61.8779306384
position_covariance: [1.1953685555798146, 0.0, 0.0, 0.0, 1.1532645382592142, 0.0, 0.0, 0.0, 1.10827862867707]
position_covariance_type: 2
---
header: 
  seq: 5808
  stamp: 
    secs: 1574451650
    nsecs:   8204936
  frame_id: "odom"
status: 
  status: 2
  service: 1
latitude: 37.8731128353
longitude: -122.268267582
altitude: 61.8762528859
position_covariance: [1.1953685555798146, 0.0, 0.0, 0.0, 1.1532645382592142, 0.0, 0.0, 0.0, 1.10827862867707]
position_covariance_type: 2
---
header: 
  seq: 5809
  stamp: 
    secs: 1574451650
    nsecs:  47915935
  frame_id: "odom"
status: 
  status: 2
  service: 1
latitude: 37.8731126327
longitude: -122.268269071
altitude: 61.8744158158
position_covariance: [1.2021739908085993, 0.0, 0.0, 0.0, 1.1527687956306325, 0.0, 0.0, 0.0, 1.1134248507083284]
position_covariance_type: 2
---
header: 
  seq: 5810
  stamp: 
    secs: 1574451650
    nsecs: 101286888
  frame_id: "odom"
status: 
  status: 2
  service: 1
latitude: 37.8731124266
longitude: -122.268270529
altitude: 61.8720625117
position_covariance: [1.2021739908085993, 0.0, 0.0, 0.0, 1.1527687956306325, 0.0, 0.0, 0.0, 1.1134248507083284]
position_covariance_type: 2
---
header: 
  seq: 5811
  stamp: 
    secs: 1574451650
    nsecs: 154870033
  frame_id: "odom"
status: 
  status: 2
  service: 1
latitude: 37.8731122309
longitude: -122.268271964
altitude: 61.8697452163
position_covariance: [1.2021739908085993, 0.0, 0.0, 0.0, 1.1527687956306325, 0.0, 0.0, 0.0, 1.1134248507083284]
position_covariance_type: 2
---
header: 
  seq: 5812
  stamp: 
    secs: 1574451650
    nsecs: 208190917
  frame_id: "odom"
status: 
  status: 2
  service: 1
latitude: 37.8731120405
longitude: -122.268273374
altitude: 61.8676689863
position_covariance: [1.2021739908085993, 0.0, 0.0, 0.0, 1.1527687956306325, 0.0, 0.0, 0.0, 1.1134248507083284]
position_covariance_type: 2
---
header: 
  seq: 5813
  stamp: 
    secs: 1574451650
    nsecs: 261727094
  frame_id: "odom"
status: 
  status: 2
  service: 1
latitude: 37.8731118544
longitude: -122.268274755
altitude: 61.8660763297
position_covariance: [1.2021739908085993, 0.0, 0.0, 0.0, 1.1527687956306325, 0.0, 0.0, 0.0, 1.1134248507083284]
position_covariance_type: 2
---
header: 
  seq: 5814
  stamp: 
    secs: 1574451650
    nsecs: 292447090
  frame_id: "odom"
status: 
  status: 2
  service: 1
latitude: 37.8731116674
longitude: -122.268276103
altitude: 61.8647008585
position_covariance: [1.2021739908085993, 0.0, 0.0, 0.0, 1.1527687956306325, 0.0, 0.0, 0.0, 1.1134248507083284]
position_covariance_type: 2
---
header: 
  seq: 5815
  stamp: 
    secs: 1574451650
    nsecs: 345851898
  frame_id: "odom"
status: 
  status: 2
  service: 1
latitude: 37.8731114768
longitude: -122.268277419
altitude: 61.8633283665
position_covariance: [1.2021739908085993, 0.0, 0.0, 0.0, 1.1527687837240321, 0.0, 0.0, 0.0, 1.1134248507083284]
position_covariance_type: 2
---
header: 
  seq: 5816
  stamp: 
    secs: 1574451650
    nsecs: 385615110
  frame_id: "odom"
status: 
  status: 2
  service: 1
latitude: 37.8731112853
longitude: -122.268278709
altitude: 61.8618037505
position_covariance: [1.2021739908085993, 0.0, 0.0, 0.0, 1.1527687837240321, 0.0, 0.0, 0.0, 1.1134248507083284]
position_covariance_type: 2
---
header: 
  seq: 5817
  stamp: 
    secs: 1574451650
    nsecs: 439150094
  frame_id: "odom"
status: 
  status: 2
  service: 1
latitude: 37.8731110959
longitude: -122.268279977
altitude: 61.8600335801
position_covariance: [1.2021739908085993, 0.0, 0.0, 0.0, 1.1527687837240321, 0.0, 0.0, 0.0, 1.1134248507083284]
position_covariance_type: 2
---
header: 
  seq: 5818
  stamp: 
    secs: 1574451650
    nsecs: 492465019
  frame_id: "odom"
status: 
  status: 2
  service: 1
latitude: 37.8731109105
longitude: -122.268281216
altitude: 61.858110196
position_covariance: [1.2021739908085993, 0.0, 0.0, 0.0, 1.1527687837240321, 0.0, 0.0, 0.0, 1.1134248507083284]
position_covariance_type: 2
---
header: 
  seq: 5819
  stamp: 
    secs: 1574451650
    nsecs: 545901060
  frame_id: "odom"
status: 
  status: 2
  service: 1
latitude: 37.8731107263
longitude: -122.268282422
altitude: 61.8557681581
position_covariance: [1.2021739908085993, 0.0, 0.0, 0.0, 1.1527687837240321, 0.0, 0.0, 0.0, 1.1134248507083284]
position_covariance_type: 2
---
header: 
  seq: 5820
  stamp: 
    secs: 1574451650
    nsecs: 599333047
  frame_id: "odom"
status: 
  status: 2
  service: 1
latitude: 37.8731105474
longitude: -122.268283592
altitude: 61.85364962
position_covariance: [1.2021739908085993, 0.0, 0.0, 0.0, 1.1527687837240321, 0.0, 0.0, 0.0, 1.1134248507083284]
position_covariance_type: 2
---
header: 
  seq: 5821
  stamp: 
    secs: 1574451650
    nsecs: 652817010
  frame_id: "odom"
status: 
  status: 2
  service: 1
latitude: 37.8731103769
longitude: -122.268284727
altitude: 61.8518516645
position_covariance: [1.2021739908085993, 0.0, 0.0, 0.0, 1.1527687837240321, 0.0, 0.0, 0.0, 1.1134248507083284]
position_covariance_type: 2
---
header: 
  seq: 5822
  stamp: 
    secs: 1574451650
    nsecs: 698168992
  frame_id: "odom"
status: 
  status: 2
  service: 1
latitude: 37.873110214
longitude: -122.268285828
altitude: 61.8503964422
position_covariance: [1.2021739908085993, 0.0, 0.0, 0.0, 1.1527687837240321, 0.0, 0.0, 0.0, 1.1134248507083284]
position_covariance_type: 2
---
header: 
  seq: 5823
  stamp: 
    secs: 1574451650
    nsecs: 751733064
  frame_id: "odom"
status: 
  status: 2
  service: 1
latitude: 37.8731100618
longitude: -122.2682869
altitude: 61.8492902024
position_covariance: [1.2021739908085993, 0.0, 0.0, 0.0, 1.1527687837240321, 0.0, 0.0, 0.0, 1.1134248507083284]
position_covariance_type: 2
---
header: 
  seq: 5824
  stamp: 
    secs: 1574451650
    nsecs: 805247068
  frame_id: "odom"
status: 
  status: 2
  service: 1
latitude: 37.8731099206
longitude: -122.268287947
altitude: 61.8483572509
position_covariance: [1.2021739908085993, 0.0, 0.0, 0.0, 1.1527687837240321, 0.0, 0.0, 0.0, 1.1134248507083284]
position_covariance_type: 2
---
header: 
  seq: 5825
  stamp: 
    secs: 1574451650
    nsecs: 858778953
  frame_id: "odom"
status: 
  status: 2
  service: 1
latitude: 37.8731097927
longitude: -122.268288974
altitude: 61.8474826189
position_covariance: [1.2021739908085993, 0.0, 0.0, 0.0, 1.1527687837240321, 0.0, 0.0, 0.0, 1.1134248507083284]
position_covariance_type: 2
---
header: 
  seq: 5826
  stamp: 
    secs: 1574451650
    nsecs: 912107944
  frame_id: "odom"
status: 
  status: 2
  service: 1
latitude: 37.8731096698
longitude: -122.268289974
altitude: 61.846378942
position_covariance: [1.2021739908085993, 0.0, 0.0, 0.0, 1.1527687837240321, 0.0, 0.0, 0.0, 1.1134248507083284]
position_covariance_type: 2
---
header: 
  seq: 5827
  stamp: 
    secs: 1574451650
    nsecs: 958956956
  frame_id: "odom"
status: 
  status: 2
  service: 1
latitude: 37.8731095467
longitude: -122.268290942
altitude: 61.8450865867
position_covariance: [1.2021739908085993, 0.0, 0.0, 0.0, 1.1527687837240321, 0.0, 0.0, 0.0, 1.1134248507083284]
position_covariance_type: 2
---
header: 
  seq: 5828
  stamp: 
    secs: 1574451651
    nsecs:  12393951
  frame_id: "odom"
status: 
  status: 2
  service: 1
latitude: 37.8731094162
longitude: -122.268291877
altitude: 61.8437003167
position_covariance: [1.2021739908085993, 0.0, 0.0, 0.0, 1.1527687837240321, 0.0, 0.0, 0.0, 1.1134248507083284]
position_covariance_type: 2
---
header: 
  seq: 5829
  stamp: 
    secs: 1574451651
    nsecs: 110162973
  frame_id: "odom"
status: 
  status: 2
  service: 1
latitude: 37.8731091367
longitude: -122.268293708
altitude: 61.8408253826
position_covariance: [1.20111127684653, 0.0, 0.0, 0.0, 1.1526772970364494, 0.0, 0.0, 0.0, 1.1188293703809904]
position_covariance_type: 2
---
header: 
  seq: 5830
  stamp: 
    secs: 1574451651
    nsecs: 163675069
  frame_id: "odom"
status: 
  status: 2
  service: 1
latitude: 37.8731089963
longitude: -122.268294577
altitude: 61.8394195652
position_covariance: [1.20111127684653, 0.0, 0.0, 0.0, 1.1526772970364494, 0.0, 0.0, 0.0, 1.1188293703809904]
position_covariance_type: 2
---
header: 
  seq: 5831
  stamp: 
    secs: 1574451651
    nsecs: 217052936
  frame_id: "odom"
status: 
  status: 2
  service: 1
latitude: 37.8731088608
longitude: -122.268295411
altitude: 61.8377163988
position_covariance: [1.20111127684653, 0.0, 0.0, 0.0, 1.1526772970364494, 0.0, 0.0, 0.0, 1.1188293703809904]
position_covariance_type: 2
---
header: 
  seq: 5832
  stamp: 
    secs: 1574451651
    nsecs: 314918041
  frame_id: "odom"
status: 
  status: 2
  service: 1
latitude: 37.873108625
longitude: -122.268296974
altitude: 61.8348062262
position_covariance: [1.20111127684653, 0.0, 0.0, 0.0, 1.1526772970364494, 0.0, 0.0, 0.0, 1.1188293703809904]
position_covariance_type: 2
---
header: 
  seq: 5833
  stamp: 
    secs: 1574451651
    nsecs: 345776081
  frame_id: "odom"
status: 
  status: 2
  service: 1
latitude: 37.8731085258
longitude: -122.268297702
altitude: 61.8338737395
position_covariance: [1.20111127684653, 0.0, 0.0, 0.0, 1.1526772970364494, 0.0, 0.0, 0.0, 1.1188293703809904]
position_covariance_type: 2
---
header: 
  seq: 5834
  stamp: 
    secs: 1574451651
    nsecs: 399173974
  frame_id: "odom"
status: 
  status: 2
  service: 1
latitude: 37.8731084314
longitude: -122.268298391
altitude: 61.8328619227
position_covariance: [1.20111127684653, 0.0, 0.0, 0.0, 1.1526772970364494, 0.0, 0.0, 0.0, 1.1188293703809904]
position_covariance_type: 2
---
header: 
  seq: 5835
  stamp: 
    secs: 1574451651
    nsecs: 452688932
  frame_id: "odom"
status: 
  status: 2
  service: 1
latitude: 37.873108342
longitude: -122.268299044
altitude: 61.8319566166
position_covariance: [1.20111127684653, 0.0, 0.0, 0.0, 1.1526772970364494, 0.0, 0.0, 0.0, 1.1188293703809904]
position_covariance_type: 2
---
header: 
  seq: 5836
  stamp: 
    secs: 1574451651
    nsecs: 498029947
  frame_id: "odom"
status: 
  status: 2
  service: 1
latitude: 37.8731082551
longitude: -122.268299661
altitude: 61.8310616184
position_covariance: [1.20111127684653, 0.0, 0.0, 0.0, 1.1526772970364494, 0.0, 0.0, 0.0, 1.1188293819370412]
position_covariance_type: 2
---
header: 
  seq: 5837
  stamp: 
    secs: 1574451651
    nsecs: 551593065
  frame_id: "odom"
status: 
  status: 2
  service: 1
latitude: 37.873108167
longitude: -122.268300243
altitude: 61.8301193779
position_covariance: [1.20111127684653, 0.0, 0.0, 0.0, 1.1526772970364494, 0.0, 0.0, 0.0, 1.1188293819370412]
position_covariance_type: 2
---
header: 
  seq: 5838
  stamp: 
    secs: 1574451651
    nsecs: 605007886
  frame_id: "odom"
status: 
  status: 2
  service: 1
latitude: 37.8731080767
longitude: -122.268300792
altitude: 61.8289768249
position_covariance: [1.20111127684653, 0.0, 0.0, 0.0, 1.1526772970364494, 0.0, 0.0, 0.0, 1.1188293819370412]
position_covariance_type: 2
---
header: 
  seq: 5839
  stamp: 
    secs: 1574451651
    nsecs: 658473968
  frame_id: "odom"
status: 
  status: 2
  service: 1
latitude: 37.8731079842
longitude: -122.268301309
altitude: 61.8276256248
position_covariance: [1.20111127684653, 0.0, 0.0, 0.0, 1.1526772970364494, 0.0, 0.0, 0.0, 1.1188293819370412]
position_covariance_type: 2
---
header: 
  seq: 5840
  stamp: 
    secs: 1574451651
    nsecs: 711896896
  frame_id: "odom"
status: 
  status: 2
  service: 1
latitude: 37.873107894
longitude: -122.268301791
altitude: 61.8262851657
position_covariance: [1.20111127684653, 0.0, 0.0, 0.0, 1.1526772970364494, 0.0, 0.0, 0.0, 1.1188293819370412]
position_covariance_type: 2
---
header: 
  seq: 5841
  stamp: 
    secs: 1574451651
    nsecs: 757344007
  frame_id: "odom"
status: 
  status: 2
  service: 1
latitude: 37.8731078077
longitude: -122.268302239
altitude: 61.8249971913
position_covariance: [1.20111127684653, 0.0, 0.0, 0.0, 1.1526772970364494, 0.0, 0.0, 0.0, 1.1188293819370412]
position_covariance_type: 2
---
header: 
  seq: 5842
  stamp: 
    secs: 1574451651
    nsecs: 810770034
  frame_id: "odom"
status: 
  status: 2
  service: 1
latitude: 37.8731077266
longitude: -122.268302651
altitude: 61.8237459119
position_covariance: [1.20111127684653, 0.0, 0.0, 0.0, 1.1526772970364494, 0.0, 0.0, 0.0, 1.1188293819370412]
position_covariance_type: 2
---
header: 
  seq: 5843
  stamp: 
    secs: 1574451651
    nsecs: 850485086
  frame_id: "odom"
status: 
  status: 2
  service: 1
latitude: 37.8731076524
longitude: -122.268303029
altitude: 61.822762141
position_covariance: [1.20111127684653, 0.0, 0.0, 0.0, 1.1526772970364494, 0.0, 0.0, 0.0, 1.1188293819370412]
position_covariance_type: 2
---
header: 
  seq: 5844
  stamp: 
    secs: 1574451651
    nsecs: 904612064
  frame_id: "odom"
status: 
  status: 2
  service: 1
latitude: 37.8731075859
longitude: -122.268303374
altitude: 61.8219184736
position_covariance: [1.20111127684653, 0.0, 0.0, 0.0, 1.1526772970364494, 0.0, 0.0, 0.0, 1.1188293819370412]
position_covariance_type: 2
---
header: 
  seq: 5845
  stamp: 
    secs: 1574451651
    nsecs: 958666086
  frame_id: "odom"
status: 
  status: 2
  service: 1
latitude: 37.873107524
longitude: -122.268303687
altitude: 61.8211956425
position_covariance: [1.20111127684653, 0.0, 0.0, 0.0, 1.1526772970364494, 0.0, 0.0, 0.0, 1.1188293819370412]
position_covariance_type: 2
---
header: 
  seq: 5846
  stamp: 
    secs: 1574451651
    nsecs: 998318910
  frame_id: "odom"
status: 
  status: 2
  service: 1
latitude: 37.8731074651
longitude: -122.26830397
altitude: 61.8203730891
position_covariance: [1.20111127684653, 0.0, 0.0, 0.0, 1.1526772970364494, 0.0, 0.0, 0.0, 1.1188293819370412]
position_covariance_type: 2
---
header: 
  seq: 5847
  stamp: 
    secs: 1574451652
    nsecs:  51858901
  frame_id: "odom"
status: 
  status: 2
  service: 1
latitude: 37.8731074227
longitude: -122.268304231
altitude: 61.8196953433
position_covariance: [1.1988782805683877, 0.0, 0.0, 0.0, 1.1527487927151685, 0.0, 0.0, 0.0, 1.124341597124166]
position_covariance_type: 2
---
header: 
  seq: 5848
  stamp: 
    secs: 1574451652
    nsecs: 105230093
  frame_id: "odom"
status: 
  status: 2
  service: 1
latitude: 37.8731073938
longitude: -122.268304466
altitude: 61.8191924719
position_covariance: [1.1988782805683877, 0.0, 0.0, 0.0, 1.1527487927151685, 0.0, 0.0, 0.0, 1.124341597124166]
position_covariance_type: 2
---
header: 
  seq: 5849
  stamp: 
    secs: 1574451652
    nsecs: 158706903
  frame_id: "odom"
status: 
  status: 2
  service: 1
latitude: 37.8731073673
longitude: -122.268304668
altitude: 61.8186765471
position_covariance: [1.1988782805683877, 0.0, 0.0, 0.0, 1.1527487927151685, 0.0, 0.0, 0.0, 1.124341597124166]
position_covariance_type: 2
---
header: 
  seq: 5850
  stamp: 
    secs: 1574451652
    nsecs: 212076902
  frame_id: "odom"
status: 
  status: 2
  service: 1
latitude: 37.8731073438
longitude: -122.268304841
altitude: 61.8181552365
position_covariance: [1.1988782805683877, 0.0, 0.0, 0.0, 1.1527487927151685, 0.0, 0.0, 0.0, 1.124341597124166]
position_covariance_type: 2
---
header: 
  seq: 5851
  stamp: 
    secs: 1574451652
    nsecs: 309977054
  frame_id: "odom"
status: 
  status: 2
  service: 1
latitude: 37.8731073071
longitude: -122.268305101
altitude: 61.8171657966
position_covariance: [1.1988782805683877, 0.0, 0.0, 0.0, 1.1527487927151685, 0.0, 0.0, 0.0, 1.124341597124166]
position_covariance_type: 2
---
header: 
  seq: 5852
  stamp: 
    secs: 1574451652
    nsecs: 355570077
  frame_id: "odom"
status: 
  status: 2
  service: 1
latitude: 37.8731072946
longitude: -122.26830519
altitude: 61.8166850237
position_covariance: [1.1988782805683877, 0.0, 0.0, 0.0, 1.1527487927151685, 0.0, 0.0, 0.0, 1.124341597124166]
position_covariance_type: 2
---
header: 
  seq: 5853
  stamp: 
    secs: 1574451652
    nsecs: 408813953
  frame_id: "odom"
status: 
  status: 2
  service: 1
latitude: 37.8731072864
longitude: -122.268305252
altitude: 61.816253325
position_covariance: [1.1988782805683877, 0.0, 0.0, 0.0, 1.1527487927151685, 0.0, 0.0, 0.0, 1.124341597124166]
position_covariance_type: 2
---
header: 
  seq: 5854
  stamp: 
    secs: 1574451652
    nsecs: 448609113
  frame_id: "odom"
status: 
  status: 2
  service: 1
latitude: 37.8731072823
longitude: -122.268305288
altitude: 61.8159284517
position_covariance: [1.1988782805683877, 0.0, 0.0, 0.0, 1.1527487927151685, 0.0, 0.0, 0.0, 1.124341597124166]
position_covariance_type: 2
---
header: 
  seq: 5855
  stamp: 
    secs: 1574451652
    nsecs: 501972913
  frame_id: "odom"
status: 
  status: 2
  service: 1
latitude: 37.8731072808
longitude: -122.268305299
altitude: 61.8156477027
position_covariance: [1.1988782805683877, 0.0, 0.0, 0.0, 1.1527487927151685, 0.0, 0.0, 0.0, 1.124341597124166]
position_covariance_type: 2
---
header: 
  seq: 5856
  stamp: 
    secs: 1574451652
    nsecs: 555454969
  frame_id: "odom"
status: 
  status: 2
  service: 1
latitude: 37.8731072812
longitude: -122.268305286
altitude: 61.815490921
position_covariance: [1.1988782805683877, 0.0, 0.0, 0.0, 1.1527487927151685, 0.0, 0.0, 0.0, 1.124341597124166]
position_covariance_type: 2
---
header: 
  seq: 5857
  stamp: 
    secs: 1574451652
    nsecs: 608850955
  frame_id: "odom"
status: 
  status: 2
  service: 1
latitude: 37.873107282
longitude: -122.268305264
altitude: 61.8154590968
position_covariance: [1.1988782805683877, 0.0, 0.0, 0.0, 1.1527487927151685, 0.0, 0.0, 0.0, 1.124341597124166]
position_covariance_type: 2
---
header: 
  seq: 5858
  stamp: 
    secs: 1574451652
    nsecs: 648551940
  frame_id: "odom"
status: 
  status: 2
  service: 1
latitude: 37.8731072813
longitude: -122.26830525
altitude: 61.8157301759
position_covariance: [1.1988782805683877, 0.0, 0.0, 0.0, 1.1527487927151685, 0.0, 0.0, 0.0, 1.124341597124166]
position_covariance_type: 2
---
header: 
  seq: 5859
  stamp: 
    secs: 1574451652
    nsecs: 746434926
  frame_id: "odom"
status: 
  status: 2
  service: 1
latitude: 37.873107276
longitude: -122.268305257
altitude: 61.8167443974
position_covariance: [1.1988782805683877, 0.0, 0.0, 0.0, 1.1527487927151685, 0.0, 0.0, 0.0, 1.124341597124166]
position_covariance_type: 2
---
header: 
  seq: 5860
  stamp: 
    secs: 1574451652
    nsecs: 799808979
  frame_id: "odom"
status: 
  status: 2
  service: 1
latitude: 37.8731072751
longitude: -122.26830526
altitude: 61.8169206837
position_covariance: [1.1988782805683877, 0.0, 0.0, 0.0, 1.1527487927151685, 0.0, 0.0, 0.0, 1.124341597124166]
position_covariance_type: 2
---
header: 
  seq: 5861
  stamp: 
    secs: 1574451652
    nsecs: 854224920
  frame_id: "odom"
status: 
  status: 2
  service: 1
latitude: 37.8731072755
longitude: -122.268305254
altitude: 61.816608998
position_covariance: [1.1988782805683877, 0.0, 0.0, 0.0, 1.1527487927151685, 0.0, 0.0, 0.0, 1.124341597124166]
position_covariance_type: 2
---
header: 
  seq: 5862
  stamp: 
    secs: 1574451652
    nsecs: 907587051
  frame_id: "odom"
status: 
  status: 2
  service: 1
latitude: 37.8731072757
longitude: -122.268305245
altitude: 61.8159205606
position_covariance: [1.1988782805683877, 0.0, 0.0, 0.0, 1.1527487927151685, 0.0, 0.0, 0.0, 1.124341597124166]
position_covariance_type: 2
---
header: 
  seq: 5863
  stamp: 
    secs: 1574451652
    nsecs: 969542026
  frame_id: "odom"
status: 
  status: 2
  service: 1
latitude: 37.8731072753
longitude: -122.268305242
altitude: 61.8153088763
position_covariance: [1.1988782805683877, 0.0, 0.0, 0.0, 1.1527487927151685, 0.0, 0.0, 0.0, 1.124341597124166]
position_covariance_type: 2
---
header: 
  seq: 5864
  stamp: 
    secs: 1574451653
    nsecs:  14818906
  frame_id: "odom"
status: 
  status: 2
  service: 1
latitude: 37.8731072746
longitude: -122.268305247
altitude: 61.8150256667
position_covariance: [1.1988782805683877, 0.0, 0.0, 0.0, 1.1527487927151685, 0.0, 0.0, 0.0, 1.124341597124166]
position_covariance_type: 2
---
header: 
  seq: 5865
  stamp: 
    secs: 1574451653
    nsecs:  45700073
  frame_id: "odom"
status: 
  status: 2
  service: 1
latitude: 37.8731072755
longitude: -122.268305262
altitude: 61.8148519583
position_covariance: [1.1991037687317931, 0.0, 0.0, 0.0, 1.1526921315787104, 0.0, 0.0, 0.0, 1.1298993154304844]
position_covariance_type: 2
---
header: 
  seq: 5866
  stamp: 
    secs: 1574451653
    nsecs:  99055051
  frame_id: "odom"
status: 
  status: 2
  service: 1
latitude: 37.8731072784
longitude: -122.268305276
altitude: 61.8146084305
position_covariance: [1.1991037687317931, 0.0, 0.0, 0.0, 1.1526921315787104, 0.0, 0.0, 0.0, 1.1298993154304844]
position_covariance_type: 2
---
header: 
  seq: 5867
  stamp: 
    secs: 1574451653
    nsecs: 152604103
  frame_id: "odom"
status: 
  status: 2
  service: 1
latitude: 37.8731072812
longitude: -122.268305284
altitude: 61.8142378619
position_covariance: [1.1991037687317931, 0.0, 0.0, 0.0, 1.1526921315787104, 0.0, 0.0, 0.0, 1.1298993154304844]
position_covariance_type: 2
---
header: 
  seq: 5868
  stamp: 
    secs: 1574451653
    nsecs: 205941915
  frame_id: "odom"
status: 
  status: 2
  service: 1
latitude: 37.8731072846
longitude: -122.268305289
altitude: 61.8139127931
position_covariance: [1.1991037687317931, 0.0, 0.0, 0.0, 1.1526921315787104, 0.0, 0.0, 0.0, 1.1298993154304844]
position_covariance_type: 2
---
header: 
  seq: 5869
  stamp: 
    secs: 1574451653
    nsecs: 245687961
  frame_id: "odom"
status: 
  status: 2
  service: 1
latitude: 37.8731072879
longitude: -122.268305297
altitude: 61.813681338
position_covariance: [1.1991037687317931, 0.0, 0.0, 0.0, 1.1526921315787104, 0.0, 0.0, 0.0, 1.1298993154304844]
position_covariance_type: 2
---
header: 
  seq: 5870
  stamp: 
    secs: 1574451653
    nsecs: 299092054
  frame_id: "odom"
status: 
  status: 2
  service: 1
latitude: 37.8731072916
longitude: -122.268305309
altitude: 61.813517767
position_covariance: [1.1991037687317931, 0.0, 0.0, 0.0, 1.1526921315787104, 0.0, 0.0, 0.0, 1.1298993154304844]
position_covariance_type: 2
---
header: 
  seq: 5871
  stamp: 
    secs: 1574451653
    nsecs: 352653026
  frame_id: "odom"
status: 
  status: 2
  service: 1
latitude: 37.873107296
longitude: -122.268305322
altitude: 61.8133228282
position_covariance: [1.1991037687317931, 0.0, 0.0, 0.0, 1.1526921315787104, 0.0, 0.0, 0.0, 1.1298993154304844]
position_covariance_type: 2
---
header: 
  seq: 5872
  stamp: 
    secs: 1574451653
    nsecs: 406018018
  frame_id: "odom"
status: 
  status: 2
  service: 1
latitude: 37.8731073005
longitude: -122.268305335
altitude: 61.8130346192
position_covariance: [1.1991037687317931, 0.0, 0.0, 0.0, 1.1526921315787104, 0.0, 0.0, 0.0, 1.1298993154304844]
position_covariance_type: 2
---
header: 
  seq: 5873
  stamp: 
    secs: 1574451653
    nsecs: 459590911
  frame_id: "odom"
status: 
  status: 2
  service: 1
latitude: 37.8731073047
longitude: -122.268305344
altitude: 61.8126957128
position_covariance: [1.1991037687317931, 0.0, 0.0, 0.0, 1.1526921315787104, 0.0, 0.0, 0.0, 1.1298993154304844]
position_covariance_type: 2
---
header: 
  seq: 5874
  stamp: 
    secs: 1574451653
    nsecs: 504909038
  frame_id: "odom"
status: 
  status: 2
  service: 1
latitude: 37.8731073087
longitude: -122.268305352
altitude: 61.8123937948
position_covariance: [1.1991037687317931, 0.0, 0.0, 0.0, 1.1526921315787104, 0.0, 0.0, 0.0, 1.1298993154304844]
position_covariance_type: 2
---
header: 
  seq: 5875
  stamp: 
    secs: 1574451653
    nsecs: 558408021
  frame_id: "odom"
status: 
  status: 2
  service: 1
latitude: 37.8731073124
longitude: -122.26830536
altitude: 61.8121917658
position_covariance: [1.1991037687317931, 0.0, 0.0, 0.0, 1.1526921315787104, 0.0, 0.0, 0.0, 1.1298993154304844]
position_covariance_type: 2
---
header: 
  seq: 5876
  stamp: 
    secs: 1574451653
    nsecs: 611818075
  frame_id: "odom"
status: 
  status: 2
  service: 1
latitude: 37.8731073161
longitude: -122.26830537
altitude: 61.8119881302
position_covariance: [1.1991037687317931, 0.0, 0.0, 0.0, 1.1526921315787104, 0.0, 0.0, 0.0, 1.1298993154304844]
position_covariance_type: 2
---
header: 
  seq: 5877
  stamp: 
    secs: 1574451653
    nsecs: 709640026
  frame_id: "odom"
status: 
  status: 2
  service: 1
latitude: 37.873107324
longitude: -122.268305391
altitude: 61.8113666689
position_covariance: [1.1991037687317931, 0.0, 0.0, 0.0, 1.1526921315787104, 0.0, 0.0, 0.0, 1.1298993154304844]
position_covariance_type: 2
---
header: 
  seq: 5878
  stamp: 
    secs: 1574451653
    nsecs: 755227088
  frame_id: "odom"
status: 
  status: 2
  service: 1
latitude: 37.8731073287
longitude: -122.268305401
altitude: 61.8110399488
position_covariance: [1.1991037687317931, 0.0, 0.0, 0.0, 1.1526921315787104, 0.0, 0.0, 0.0, 1.1298993154304844]
position_covariance_type: 2
---
header: 
  seq: 5879
  stamp: 
    secs: 1574451653
    nsecs: 794786930
  frame_id: "odom"
status: 
  status: 2
  service: 1
latitude: 37.8731073339
longitude: -122.268305409
altitude: 61.8107803315
position_covariance: [1.1991037687317931, 0.0, 0.0, 0.0, 1.1526921315787104, 0.0, 0.0, 0.0, 1.1298993154304844]
position_covariance_type: 2
---
header: 
  seq: 5880
  stamp: 
    secs: 1574451653
    nsecs: 848243951
  frame_id: "odom"
status: 
  status: 2
  service: 1
latitude: 37.8731073394
longitude: -122.268305418
altitude: 61.8105815612
position_covariance: [1.1991037687317931, 0.0, 0.0, 0.0, 1.1526921315787104, 0.0, 0.0, 0.0, 1.1298993154304844]
position_covariance_type: 2
---
header: 
  seq: 5881
  stamp: 
    secs: 1574451653
    nsecs: 901702880
  frame_id: "odom"
status: 
  status: 2
  service: 1
latitude: 37.8731073447
longitude: -122.268305426
altitude: 61.8103749836
position_covariance: [1.1991037687317931, 0.0, 0.0, 0.0, 1.1526921315787104, 0.0, 0.0, 0.0, 1.1298993154304844]
position_covariance_type: 2
---
header: 
  seq: 5882
  stamp: 
    secs: 1574451653
    nsecs: 956351041
  frame_id: "odom"
status: 
  status: 2
  service: 1
latitude: 37.8731073493
longitude: -122.268305435
altitude: 61.8100971561
position_covariance: [1.1991037687317931, 0.0, 0.0, 0.0, 1.1526921315787104, 0.0, 0.0, 0.0, 1.1298993154304844]
position_covariance_type: 2
---
header: 
  seq: 5883
  stamp: 
    secs: 1574451654
    nsecs:   9717941
  frame_id: "odom"
status: 
  status: 2
  service: 1
latitude: 37.8731073538
longitude: -122.268305445
altitude: 61.809772213
position_covariance: [1.1991037687317931, 0.0, 0.0, 0.0, 1.1526921315787104, 0.0, 0.0, 0.0, 1.1298993154304844]
position_covariance_type: 2
---
header: 
  seq: 5884
  stamp: 
    secs: 1574451654
    nsecs: 107566118
  frame_id: "odom"
status: 
  status: 2
  service: 1
latitude: 37.8731073316
longitude: -122.268305485
altitude: 61.8096121605
position_covariance: [1.1981082403100265, 0.0, 0.0, 0.0, 1.1508473161207737, 0.0, 0.0, 0.0, 1.1352751322515415]
position_covariance_type: 2
---
header: 
  seq: 5885
  stamp: 
    secs: 1574451654
    nsecs: 161050081
  frame_id: "odom"
status: 
  status: 2
  service: 1
latitude: 37.8731073178
longitude: -122.268305505
altitude: 61.8096478693
position_covariance: [1.1981082403100265, 0.0, 0.0, 0.0, 1.1508473161207737, 0.0, 0.0, 0.0, 1.1352751322515415]
position_covariance_type: 2
---
header: 
  seq: 5886
  stamp: 
    secs: 1574451654
    nsecs: 214446067
  frame_id: "odom"
status: 
  status: 2
  service: 1
latitude: 37.873107304
longitude: -122.268305526
altitude: 61.8096750537
position_covariance: [1.1981082403100265, 0.0, 0.0, 0.0, 1.1508473161207737, 0.0, 0.0, 0.0, 1.1352751322515415]
position_covariance_type: 2
---
header: 
  seq: 5887
  stamp: 
    secs: 1574451654
    nsecs: 245276927
  frame_id: "odom"
status: 
  status: 2
  service: 1
latitude: 37.8731072902
longitude: -122.268305548
altitude: 61.8096805727
position_covariance: [1.1981082403100265, 0.0, 0.0, 0.0, 1.1508473161207737, 0.0, 0.0, 0.0, 1.1352751322515415]
position_covariance_type: 2
---
header: 
  seq: 5888
  stamp: 
    secs: 1574451654
    nsecs: 298734903
  frame_id: "odom"
status: 
  status: 2
  service: 1
latitude: 37.8731072761
longitude: -122.26830557
altitude: 61.8096525846
position_covariance: [1.1981082403100265, 0.0, 0.0, 0.0, 1.1508473161207737, 0.0, 0.0, 0.0, 1.1352751322515415]
position_covariance_type: 2
---
header: 
  seq: 5889
  stamp: 
    secs: 1574451654
    nsecs: 352196931
  frame_id: "odom"
status: 
  status: 2
  service: 1
latitude: 37.8731072619
longitude: -122.268305592
altitude: 61.809620929
position_covariance: [1.1981082403100265, 0.0, 0.0, 0.0, 1.1508473161207737, 0.0, 0.0, 0.0, 1.1352751322515415]
position_covariance_type: 2
---
header: 
  seq: 5890
  stamp: 
    secs: 1574451654
    nsecs: 405782938
  frame_id: "odom"
status: 
  status: 2
  service: 1
latitude: 37.8731072476
longitude: -122.268305613
altitude: 61.8096001418
position_covariance: [1.1981082403100265, 0.0, 0.0, 0.0, 1.1508473161207737, 0.0, 0.0, 0.0, 1.1352751322515415]
position_covariance_type: 2
---
header: 
  seq: 5891
  stamp: 
    secs: 1574451654
    nsecs: 459232091
  frame_id: "odom"
status: 
  status: 2
  service: 1
latitude: 37.8731072334
longitude: -122.268305634
altitude: 61.8095992506
position_covariance: [1.1981082403100265, 0.0, 0.0, 0.0, 1.1508473161207737, 0.0, 0.0, 0.0, 1.1352751322515415]
position_covariance_type: 2
---
header: 
  seq: 5892
  stamp: 
    secs: 1574451654
    nsecs: 512614011
  frame_id: "odom"
status: 
  status: 2
  service: 1
latitude: 37.8731072193
longitude: -122.268305654
altitude: 61.8095935406
position_covariance: [1.1981082403100265, 0.0, 0.0, 0.0, 1.1508473161207737, 0.0, 0.0, 0.0, 1.1352751322515415]
position_covariance_type: 2
---
header: 
  seq: 5893
  stamp: 
    secs: 1574451654
    nsecs: 566135883
  frame_id: "odom"
status: 
  status: 2
  service: 1
latitude: 37.8731072056
longitude: -122.268305675
altitude: 61.8095820267
position_covariance: [1.1981082403100265, 0.0, 0.0, 0.0, 1.1508473161207737, 0.0, 0.0, 0.0, 1.1352751322515415]
position_covariance_type: 2
---
header: 
  seq: 5894
  stamp: 
    secs: 1574451654
    nsecs: 596901893
  frame_id: "odom"
status: 
  status: 2
  service: 1
latitude: 37.873107192
longitude: -122.268305697
altitude: 61.8095858637
position_covariance: [1.1981082403100265, 0.0, 0.0, 0.0, 1.1508473161207737, 0.0, 0.0, 0.0, 1.1352751322515415]
position_covariance_type: 2
---
header: 
  seq: 5895
  stamp: 
    secs: 1574451654
    nsecs: 650362014
  frame_id: "odom"
status: 
  status: 2
  service: 1
latitude: 37.8731071784
longitude: -122.268305718
altitude: 61.8095731055
position_covariance: [1.1981082403100265, 0.0, 0.0, 0.0, 1.1508473161207737, 0.0, 0.0, 0.0, 1.1352751322515415]
position_covariance_type: 2
---
header: 
  seq: 5896
  stamp: 
    secs: 1574451654
    nsecs: 703810930
  frame_id: "odom"
status: 
  status: 2
  service: 1
latitude: 37.8731071648
longitude: -122.268305739
altitude: 61.8095714357
position_covariance: [1.1981082403100265, 0.0, 0.0, 0.0, 1.1508473161207737, 0.0, 0.0, 0.0, 1.1352751322515415]
position_covariance_type: 2
---
header: 
  seq: 5897
  stamp: 
    secs: 1574451654
    nsecs: 757313966
  frame_id: "odom"
status: 
  status: 2
  service: 1
latitude: 37.8731071512
longitude: -122.26830576
altitude: 61.8095849222
position_covariance: [1.1981082403100265, 0.0, 0.0, 0.0, 1.1508473161207737, 0.0, 0.0, 0.0, 1.1352751322515415]
position_covariance_type: 2
---
header: 
  seq: 5898
  stamp: 
    secs: 1574451654
    nsecs: 810684919
  frame_id: "odom"
status: 
  status: 2
  service: 1
latitude: 37.8731071375
longitude: -122.26830578
altitude: 61.8095971467
position_covariance: [1.1981082403100265, 0.0, 0.0, 0.0, 1.1508473161207737, 0.0, 0.0, 0.0, 1.1352751322515415]
position_covariance_type: 2
---
header: 
  seq: 5899
  stamp: 
    secs: 1574451654
    nsecs: 864208936
  frame_id: "odom"
status: 
  status: 2
  service: 1
latitude: 37.8731071237
longitude: -122.268305801
altitude: 61.8095884612
position_covariance: [1.1981082403100265, 0.0, 0.0, 0.0, 1.1508473161207737, 0.0, 0.0, 0.0, 1.1352751322515415]
position_covariance_type: 2
---
header: 
  seq: 5900
  stamp: 
    secs: 1574451654
    nsecs: 917536973
  frame_id: "odom"
status: 
  status: 2
  service: 1
latitude: 37.8731071101
longitude: -122.268305822
altitude: 61.8095825342
position_covariance: [1.1981082403100265, 0.0, 0.0, 0.0, 1.1508473161207737, 0.0, 0.0, 0.0, 1.1352751322515415]
position_covariance_type: 2
---
header: 
  seq: 5901
  stamp: 
    secs: 1574451654
    nsecs: 957273960
  frame_id: "odom"
status: 
  status: 2
  service: 1
latitude: 37.8731070968
longitude: -122.268305843
altitude: 61.8095787363
position_covariance: [1.1981082403100265, 0.0, 0.0, 0.0, 1.1508473161207737, 0.0, 0.0, 0.0, 1.1352751322515415]
position_covariance_type: 2
---
header: 
  seq: 5902
  stamp: 
    secs: 1574451655
    nsecs:  10740041
  frame_id: "odom"
status: 
  status: 2
  service: 1
latitude: 37.8731070834
longitude: -122.268305864
altitude: 61.8095785808
position_covariance: [1.1981082403100265, 0.0, 0.0, 0.0, 1.1508473161207737, 0.0, 0.0, 0.0, 1.1352751322515415]
position_covariance_type: 2
---
header: 
  seq: 5903
  stamp: 
    secs: 1574451655
    nsecs:  64270019
  frame_id: "odom"
status: 
  status: 2
  service: 1
latitude: 37.8731070666
longitude: -122.268305882
altitude: 61.8094610404
position_covariance: [1.1978433477802113, 0.0, 0.0, 0.0, 1.1489260370749752, 0.0, 0.0, 0.0, 1.1404716959667212]
position_covariance_type: 2
---
header: 
  seq: 5904
  stamp: 
    secs: 1574451655
    nsecs: 117595911
  frame_id: "odom"
status: 
  status: 2
  service: 1
latitude: 37.8731070484
longitude: -122.268305895
altitude: 61.8093332583
position_covariance: [1.1978433477802113, 0.0, 0.0, 0.0, 1.1489260370749752, 0.0, 0.0, 0.0, 1.1404716959667212]
position_covariance_type: 2
---
header: 
  seq: 5905
  stamp: 
    secs: 1574451655
    nsecs: 157284021
  frame_id: "odom"
status: 
  status: 2
  service: 1
latitude: 37.8731070303
longitude: -122.268305909
altitude: 61.8092132397
position_covariance: [1.1978433477802113, 0.0, 0.0, 0.0, 1.1489260370749752, 0.0, 0.0, 0.0, 1.1404716959667212]
position_covariance_type: 2
---
header: 
  seq: 5906
  stamp: 
    secs: 1574451655
    nsecs: 210819959
  frame_id: "odom"
status: 
  status: 2
  service: 1
latitude: 37.8731070119
longitude: -122.268305922
altitude: 61.8090722756
position_covariance: [1.1978433477802113, 0.0, 0.0, 0.0, 1.1489260370749752, 0.0, 0.0, 0.0, 1.1404716959667212]
position_covariance_type: 2
---
header: 
  seq: 5907
  stamp: 
    secs: 1574451655
    nsecs: 264194011
  frame_id: "odom"
status: 
  status: 2
  service: 1
latitude: 37.8731069935
longitude: -122.268305936
altitude: 61.8089308636
position_covariance: [1.1978433477802113, 0.0, 0.0, 0.0, 1.1489260370749752, 0.0, 0.0, 0.0, 1.1404716959667212]
position_covariance_type: 2
---
header: 
  seq: 5908
  stamp: 
    secs: 1574451655
    nsecs: 317691087
  frame_id: "odom"
status: 
  status: 2
  service: 1
latitude: 37.8731069753
longitude: -122.26830595
altitude: 61.8087999299
position_covariance: [1.1978433477802113, 0.0, 0.0, 0.0, 1.1489260370749752, 0.0, 0.0, 0.0, 1.1404716959667212]
position_covariance_type: 2
---
header: 
  seq: 5909
  stamp: 
    secs: 1574451655
    nsecs: 348419904
  frame_id: "odom"
status: 
  status: 2
  service: 1
latitude: 37.8731069574
longitude: -122.268305964
altitude: 61.8086887524
position_covariance: [1.1978433477802113, 0.0, 0.0, 0.0, 1.1489260370749752, 0.0, 0.0, 0.0, 1.1404716959667212]
position_covariance_type: 2
---
header: 
  seq: 5910
  stamp: 
    secs: 1574451655
    nsecs: 401848077
  frame_id: "odom"
status: 
  status: 2
  service: 1
latitude: 37.8731069394
longitude: -122.268305977
altitude: 61.808570534
position_covariance: [1.1978433477802113, 0.0, 0.0, 0.0, 1.1489260370749752, 0.0, 0.0, 0.0, 1.1404716959667212]
position_covariance_type: 2
---
header: 
  seq: 5911
  stamp: 
    secs: 1574451655
    nsecs: 455435037
  frame_id: "odom"
status: 
  status: 2
  service: 1
latitude: 37.8731069217
longitude: -122.268305991
altitude: 61.8084779941
position_covariance: [1.1978433477802113, 0.0, 0.0, 0.0, 1.1489260370749752, 0.0, 0.0, 0.0, 1.1404716959667212]
position_covariance_type: 2
---
header: 
  seq: 5912
  stamp: 
    secs: 1574451655
    nsecs: 508718967
  frame_id: "odom"
status: 
  status: 2
  service: 1
latitude: 37.8731069039
longitude: -122.268306004
altitude: 61.8083654456
position_covariance: [1.1978433477802113, 0.0, 0.0, 0.0, 1.1489260370749752, 0.0, 0.0, 0.0, 1.1404716959667212]
position_covariance_type: 2
---
header: 
  seq: 5913
  stamp: 
    secs: 1574451655
    nsecs: 554166078
  frame_id: "odom"
status: 
  status: 2
  service: 1
latitude: 37.873106886
longitude: -122.268306018
altitude: 61.808276996
position_covariance: [1.1978433477802113, 0.0, 0.0, 0.0, 1.1489260370749752, 0.0, 0.0, 0.0, 1.1404716959667212]
position_covariance_type: 2
---
header: 
  seq: 5914
  stamp: 
    secs: 1574451655
    nsecs: 607635021
  frame_id: "odom"
status: 
  status: 2
  service: 1
latitude: 37.873106868
longitude: -122.268306032
altitude: 61.808170124
position_covariance: [1.1978433477802113, 0.0, 0.0, 0.0, 1.1489260370749752, 0.0, 0.0, 0.0, 1.1404716959667212]
position_covariance_type: 2
---
header: 
  seq: 5915
  stamp: 
    secs: 1574451655
    nsecs: 661134958
  frame_id: "odom"
status: 
  status: 2
  service: 1
latitude: 37.8731068501
longitude: -122.268306045
altitude: 61.808065448
position_covariance: [1.1978433477802113, 0.0, 0.0, 0.0, 1.1489260370749752, 0.0, 0.0, 0.0, 1.1404716959667212]
position_covariance_type: 2
---
header: 
  seq: 5916
  stamp: 
    secs: 1574451655
    nsecs: 714549064
  frame_id: "odom"
status: 
  status: 2
  service: 1
latitude: 37.8731068321
longitude: -122.268306059
altitude: 61.8079538317
position_covariance: [1.1978433477802113, 0.0, 0.0, 0.0, 1.1489260370749752, 0.0, 0.0, 0.0, 1.1404716959667212]
position_covariance_type: 2
---
header: 
  seq: 5917
  stamp: 
    secs: 1574451655
    nsecs: 745398044
  frame_id: "odom"
status: 
  status: 2
  service: 1
latitude: 37.8731068143
longitude: -122.268306072
altitude: 61.807863784
position_covariance: [1.1978433477802113, 0.0, 0.0, 0.0, 1.1489260370749752, 0.0, 0.0, 0.0, 1.1404716959667212]
position_covariance_type: 2
---
header: 
  seq: 5918
  stamp: 
    secs: 1574451655
    nsecs: 798773050
  frame_id: "odom"
status: 
  status: 2
  service: 1
latitude: 37.8731067968
longitude: -122.268306085
altitude: 61.8077702252
position_covariance: [1.1978433477802113, 0.0, 0.0, 0.0, 1.1489260370749752, 0.0, 0.0, 0.0, 1.1404716959667212]
position_covariance_type: 2
---
header: 
  seq: 5919
  stamp: 
    secs: 1574451655
    nsecs: 852256059
  frame_id: "odom"
status: 
  status: 2
  service: 1
latitude: 37.8731067796
longitude: -122.268306098
altitude: 61.8076800006
position_covariance: [1.1978433477802113, 0.0, 0.0, 0.0, 1.1489260370749752, 0.0, 0.0, 0.0, 1.1404716959667212]
position_covariance_type: 2
---
header: 
  seq: 5920
  stamp: 
    secs: 1574451655
    nsecs: 905689001
  frame_id: "odom"
status: 
  status: 2
  service: 1
latitude: 37.8731067623
longitude: -122.268306112
altitude: 61.8075686861
position_covariance: [1.1978433477802113, 0.0, 0.0, 0.0, 1.1489260370749752, 0.0, 0.0, 0.0, 1.1404716959667212]
position_covariance_type: 2
---
header: 
  seq: 5921
  stamp: 
    secs: 1574451655
    nsecs: 959182977
  frame_id: "odom"
status: 
  status: 2
  service: 1
latitude: 37.8731067451
longitude: -122.268306125
altitude: 61.807463428
position_covariance: [1.1978433477802113, 0.0, 0.0, 0.0, 1.1489260370749752, 0.0, 0.0, 0.0, 1.1404716959667212]
position_covariance_type: 2
---
header: 
  seq: 5922
  stamp: 
    secs: 1574451656
    nsecs:   4513978
  frame_id: "odom"
status: 
  status: 2
  service: 1
latitude: 37.8731067277
longitude: -122.268306138
altitude: 61.8073561583
position_covariance: [1.1978433477802113, 0.0, 0.0, 0.0, 1.1489260370749752, 0.0, 0.0, 0.0, 1.1404716959667212]
position_covariance_type: 2
---
header: 
  seq: 5923
  stamp: 
    secs: 1574451656
    nsecs:  58022022
  frame_id: "odom"
status: 
  status: 2
  service: 1
latitude: 37.8731067155
longitude: -122.268306154
altitude: 61.8075362267
position_covariance: [1.1988447235103572, 0.0, 0.0, 0.0, 1.1483655335484682, 0.0, 0.0, 0.0, 1.1457320441799825]
position_covariance_type: 2
---
header: 
  seq: 5924
  stamp: 
    secs: 1574451656
    nsecs: 111401081
  frame_id: "odom"
status: 
  status: 2
  service: 1
latitude: 37.8731067077
longitude: -122.268306171
altitude: 61.8079669951
position_covariance: [1.1988447235103572, 0.0, 0.0, 0.0, 1.1483655335484682, 0.0, 0.0, 0.0, 1.1457320441799825]
position_covariance_type: 2
---
header: 
  seq: 5925
  stamp: 
    secs: 1574451656
    nsecs: 165103912
  frame_id: "odom"
status: 
  status: 2
  service: 1
latitude: 37.8731066998
longitude: -122.268306188
altitude: 61.8083951669
position_covariance: [1.1988447235103572, 0.0, 0.0, 0.0, 1.1483655335484682, 0.0, 0.0, 0.0, 1.1457320441799825]
position_covariance_type: 2
---
header: 
  seq: 5926
  stamp: 
    secs: 1574451656
    nsecs: 195796966
  frame_id: "odom"
status: 
  status: 2
  service: 1
latitude: 37.8731066921
longitude: -122.268306206
altitude: 61.8088125912
position_covariance: [1.1988447235103572, 0.0, 0.0, 0.0, 1.1483655335484682, 0.0, 0.0, 0.0, 1.1457320441799825]
position_covariance_type: 2
---
header: 
  seq: 5927
  stamp: 
    secs: 1574451656
    nsecs: 249296903
  frame_id: "odom"
status: 
  status: 2
  service: 1
latitude: 37.8731066846
longitude: -122.268306223
altitude: 61.8092480982
position_covariance: [1.1988447235103572, 0.0, 0.0, 0.0, 1.1483655335484682, 0.0, 0.0, 0.0, 1.1457320441799825]
position_covariance_type: 2
---
header: 
  seq: 5928
  stamp: 
    secs: 1574451656
    nsecs: 302711009
  frame_id: "odom"
status: 
  status: 2
  service: 1
latitude: 37.8731066772
longitude: -122.268306239
altitude: 61.8096880587
position_covariance: [1.1988447235103572, 0.0, 0.0, 0.0, 1.1483655335484682, 0.0, 0.0, 0.0, 1.1457320441799825]
position_covariance_type: 2
---
header: 
  seq: 5929
  stamp: 
    secs: 1574451656
    nsecs: 356156110
  frame_id: "odom"
status: 
  status: 2
  service: 1
latitude: 37.8731066697
longitude: -122.268306256
altitude: 61.8101278041
position_covariance: [1.1988447235103572, 0.0, 0.0, 0.0, 1.1483655335484682, 0.0, 0.0, 0.0, 1.1457320441799825]
position_covariance_type: 2
---
header: 
  seq: 5930
  stamp: 
    secs: 1574451656
    nsecs: 409641981
  frame_id: "odom"
status: 
  status: 2
  service: 1
latitude: 37.8731066623
longitude: -122.268306273
altitude: 61.8105667969
position_covariance: [1.1988447235103572, 0.0, 0.0, 0.0, 1.1483655335484682, 0.0, 0.0, 0.0, 1.1457320441799825]
position_covariance_type: 2
---
header: 
  seq: 5931
  stamp: 
    secs: 1574451656
    nsecs: 493705034
  frame_id: "odom"
status: 
  status: 2
  service: 1
latitude: 37.8731066473
longitude: -122.268306307
altitude: 61.8114273045
position_covariance: [1.1988447235103572, 0.0, 0.0, 0.0, 1.1483655335484682, 0.0, 0.0, 0.0, 1.1457320441799825]
position_covariance_type: 2
---
header: 
  seq: 5932
  stamp: 
    secs: 1574451656
    nsecs: 547164916
  frame_id: "odom"
status: 
  status: 2
  service: 1
latitude: 37.8731066399
longitude: -122.268306324
altitude: 61.8118782528
position_covariance: [1.1988447235103572, 0.0, 0.0, 0.0, 1.1483655335484682, 0.0, 0.0, 0.0, 1.1457320441799825]
position_covariance_type: 2
---
header: 
  seq: 5933
  stamp: 
    secs: 1574451656
    nsecs: 600527048
  frame_id: "odom"
status: 
  status: 2
  service: 1
latitude: 37.8731066323
longitude: -122.26830634
altitude: 61.8123267684
position_covariance: [1.1988447235103572, 0.0, 0.0, 0.0, 1.1483655335484682, 0.0, 0.0, 0.0, 1.1457320441799825]
position_covariance_type: 2
---
header: 
  seq: 5934
  stamp: 
    secs: 1574451656
    nsecs: 654834985
  frame_id: "odom"
status: 
  status: 2
  service: 1
latitude: 37.8731066249
longitude: -122.268306357
altitude: 61.812785212
position_covariance: [1.1988447235103572, 0.0, 0.0, 0.0, 1.1483655335484682, 0.0, 0.0, 0.0, 1.1457320441799825]
position_covariance_type: 2
---
header: 
  seq: 5935
  stamp: 
    secs: 1574451656
    nsecs: 708179950
  frame_id: "odom"
status: 
  status: 2
  service: 1
latitude: 37.8731066174
longitude: -122.268306374
altitude: 61.8132255888
position_covariance: [1.1988447235103572, 0.0, 0.0, 0.0, 1.1483655335484682, 0.0, 0.0, 0.0, 1.1457320441799825]
position_covariance_type: 2
---
header: 
  seq: 5936
  stamp: 
    secs: 1574451656
    nsecs: 753691911
  frame_id: "odom"
status: 
  status: 2
  service: 1
latitude: 37.8731066098
longitude: -122.268306391
altitude: 61.8136832248
position_covariance: [1.1988447235103572, 0.0, 0.0, 0.0, 1.1483655335484682, 0.0, 0.0, 0.0, 1.1457320441799825]
position_covariance_type: 2
---
header: 
  seq: 5937
  stamp: 
    secs: 1574451656
    nsecs: 851517915
  frame_id: "odom"
status: 
  status: 2
  service: 1
latitude: 37.8731065946
longitude: -122.268306425
altitude: 61.8145817379
position_covariance: [1.1988447235103572, 0.0, 0.0, 0.0, 1.1483655335484682, 0.0, 0.0, 0.0, 1.1457320441799825]
position_covariance_type: 2
---
header: 
  seq: 5938
  stamp: 
    secs: 1574451656
    nsecs: 949440002
  frame_id: "odom"
status: 
  status: 2
  service: 1
latitude: 37.8731065796
longitude: -122.268306459
altitude: 61.8154999018
position_covariance: [1.1988447235103572, 0.0, 0.0, 0.0, 1.1483655335484682, 0.0, 0.0, 0.0, 1.1457320441799825]
position_covariance_type: 2
---
header: 
  seq: 5939
  stamp: 
    secs: 1574451657
    nsecs:   2768993
  frame_id: "odom"
status: 
  status: 2
  service: 1
latitude: 37.8731065722
longitude: -122.268306476
altitude: 61.8159652054
position_covariance: [1.1988447235103572, 0.0, 0.0, 0.0, 1.1483655335484682, 0.0, 0.0, 0.0, 1.1457320441799825]
position_covariance_type: 2
---
header: 
  seq: 5940
  stamp: 
    secs: 1574451657
    nsecs:  56317090
  frame_id: "odom"
status: 
  status: 2
  service: 1
latitude: 37.8731065646
longitude: -122.268306506
altitude: 61.8159358548
position_covariance: [1.19446764278452, 0.0, 0.0, 0.0, 1.1441263488813824, 0.0, 0.0, 0.0, 1.1499766793578865]
position_covariance_type: 2
---
header: 
  seq: 5941
  stamp: 
    secs: 1574451657
    nsecs: 109740972
  frame_id: "odom"
status: 
  status: 2
  service: 1
latitude: 37.8731065569
longitude: -122.268306544
altitude: 61.8156507351
position_covariance: [1.19446764278452, 0.0, 0.0, 0.0, 1.1441263488813824, 0.0, 0.0, 0.0, 1.1499766793578865]
position_covariance_type: 2
---
header: 
  seq: 5942
  stamp: 
    secs: 1574451657
    nsecs: 207546949
  frame_id: "odom"
status: 
  status: 2
  service: 1
latitude: 37.8731065416
longitude: -122.26830662
altitude: 61.8150756685
position_covariance: [1.19446764278452, 0.0, 0.0, 0.0, 1.1441263488813824, 0.0, 0.0, 0.0, 1.1499766793578865]
position_covariance_type: 2
---
header: 
  seq: 5943
  stamp: 
    secs: 1574451657
    nsecs: 253065109
  frame_id: "odom"
status: 
  status: 2
  service: 1
latitude: 37.8731065339
longitude: -122.268306658
altitude: 61.8147753812
position_covariance: [1.19446764278452, 0.0, 0.0, 0.0, 1.1441263488813824, 0.0, 0.0, 0.0, 1.1499766793578865]
position_covariance_type: 2
---
header: 
  seq: 5944
  stamp: 
    secs: 1574451657
    nsecs: 306421041
  frame_id: "odom"
status: 
  status: 2
  service: 1
latitude: 37.873106526
longitude: -122.268306695
altitude: 61.8144694548
position_covariance: [1.19446764278452, 0.0, 0.0, 0.0, 1.1441263488813824, 0.0, 0.0, 0.0, 1.1499766793578865]
position_covariance_type: 2
---
header: 
  seq: 5945
  stamp: 
    secs: 1574451657
    nsecs: 360013961
  frame_id: "odom"
status: 
  status: 2
  service: 1
latitude: 37.8731065182
longitude: -122.268306733
altitude: 61.8141802875
position_covariance: [1.19446764278452, 0.0, 0.0, 0.0, 1.1441263488813824, 0.0, 0.0, 0.0, 1.1499766793578865]
position_covariance_type: 2
---
header: 
  seq: 5946
  stamp: 
    secs: 1574451657
    nsecs: 413281917
  frame_id: "odom"
status: 
  status: 2
  service: 1
latitude: 37.8731065106
longitude: -122.268306771
altitude: 61.813900141
position_covariance: [1.19446764278452, 0.0, 0.0, 0.0, 1.1441263488813824, 0.0, 0.0, 0.0, 1.1499766793578865]
position_covariance_type: 2
---
header: 
  seq: 5947
  stamp: 
    secs: 1574451657
    nsecs: 444225072
  frame_id: "odom"
status: 
  status: 2
  service: 1
latitude: 37.8731065033
longitude: -122.268306809
altitude: 61.813609804
position_covariance: [1.19446764278452, 0.0, 0.0, 0.0, 1.1441263488813824, 0.0, 0.0, 0.0, 1.1499766793578865]
position_covariance_type: 2
---
header: 
  seq: 5948
  stamp: 
    secs: 1574451657
    nsecs: 497553110
  frame_id: "odom"
status: 
  status: 2
  service: 1
latitude: 37.8731064964
longitude: -122.268306846
altitude: 61.8133513397
position_covariance: [1.19446764278452, 0.0, 0.0, 0.0, 1.1441263488813824, 0.0, 0.0, 0.0, 1.1499766793578865]
position_covariance_type: 2
---
header: 
  seq: 5949
  stamp: 
    secs: 1574451657
    nsecs: 551017999
  frame_id: "odom"
status: 
  status: 2
  service: 1
latitude: 37.8731064892
longitude: -122.268306884
altitude: 61.813097572
position_covariance: [1.19446764278452, 0.0, 0.0, 0.0, 1.1441263488813824, 0.0, 0.0, 0.0, 1.1499766793578865]
position_covariance_type: 2
---
header: 
  seq: 5950
  stamp: 
    secs: 1574451657
    nsecs: 604582071
  frame_id: "odom"
status: 
  status: 2
  service: 1
latitude: 37.8731064817
longitude: -122.268306923
altitude: 61.8128228113
position_covariance: [1.19446764278452, 0.0, 0.0, 0.0, 1.1441263488813824, 0.0, 0.0, 0.0, 1.1499766793578865]
position_covariance_type: 2
---
header: 
  seq: 5951
  stamp: 
    secs: 1574451657
    nsecs: 658085107
  frame_id: "odom"
status: 
  status: 2
  service: 1
latitude: 37.8731064737
longitude: -122.26830696
altitude: 61.8125238037
position_covariance: [1.19446764278452, 0.0, 0.0, 0.0, 1.1441263488813824, 0.0, 0.0, 0.0, 1.1499766793578865]
