header: 
  seq: 12837
  stamp: 
    secs: 1574452099
    nsecs: 517146110
  frame_id: "odom"
status: 
  status: 2
  service: 1
latitude: 37.8723396797
longitude: -122.266170447
altitude: 64.1303827995
position_covariance: [1.0240194448448747, 0.0, 0.0, 0.0, 1.0232833879393644, 0.0, 0.0, 0.0, 1.0250877230880333]
position_covariance_type: 2
---
header: 
  seq: 12838
  stamp: 
    secs: 1574452099
    nsecs: 556916952
  frame_id: "odom"
status: 
  status: 2
  service: 1
latitude: 37.8723362069
longitude: -122.266170006
altitude: 64.127759506
position_covariance: [1.0240194448448747, 0.0, 0.0, 0.0, 1.0232833879393644, 0.0, 0.0, 0.0, 1.0250877230880333]
position_covariance_type: 2
---
header: 
  seq: 12839
  stamp: 
    secs: 1574452099
    nsecs: 610302925
  frame_id: "odom"
status: 
  status: 2
  service: 1
latitude: 37.8723327202
longitude: -122.26616956
altitude: 64.1248762179
position_covariance: [1.0240194448448747, 0.0, 0.0, 0.0, 1.0232833879393644, 0.0, 0.0, 0.0, 1.0250877230880333]
position_covariance_type: 2
---
header: 
  seq: 12840
  stamp: 
    secs: 1574452099
    nsecs: 663777112
  frame_id: "odom"
status: 
  status: 2
  service: 1
latitude: 37.872329224
longitude: -122.266169113
altitude: 64.1216348773
position_covariance: [1.0240194448448747, 0.0, 0.0, 0.0, 1.0232833879393644, 0.0, 0.0, 0.0, 1.0250877230880333]
position_covariance_type: 2
---
header: 
  seq: 12841
  stamp: 
    secs: 1574452099
    nsecs: 717175960
  frame_id: "odom"
status: 
  status: 2
  service: 1
latitude: 37.8723257103
longitude: -122.266168683
altitude: 64.1188761825
position_covariance: [1.0240194448448747, 0.0, 0.0, 0.0, 1.0232833879393644, 0.0, 0.0, 0.0, 1.0250877230880333]
position_covariance_type: 2
---
header: 
  seq: 12842
  stamp: 
    secs: 1574452099
    nsecs: 756937026
  frame_id: "odom"
status: 
  status: 2
  service: 1
latitude: 37.8723221909
longitude: -122.266168264
altitude: 64.116223841
position_covariance: [1.0240194448448747, 0.0, 0.0, 0.0, 1.0232833879393644, 0.0, 0.0, 0.0, 1.0250877230880333]
position_covariance_type: 2
---
header: 
  seq: 12843
  stamp: 
    secs: 1574452099
    nsecs: 810339927
  frame_id: "odom"
status: 
  status: 2
  service: 1
latitude: 37.8723186572
longitude: -122.266167857
altitude: 64.1137898965
position_covariance: [1.0240194448448747, 0.0, 0.0, 0.0, 1.0232833879393644, 0.0, 0.0, 0.0, 1.0250877230880333]
position_covariance_type: 2
---
header: 
  seq: 12844
  stamp: 
    secs: 1574452099
    nsecs: 863861083
  frame_id: "odom"
status: 
  status: 2
  service: 1
latitude: 37.8723151089
longitude: -122.266167452
altitude: 64.111476359
position_covariance: [1.0240194448448747, 0.0, 0.0, 0.0, 1.0232833879393644, 0.0, 0.0, 0.0, 1.0250877230880333]
position_covariance_type: 2
---
header: 
  seq: 12845
  stamp: 
    secs: 1574452099
    nsecs: 903570890
  frame_id: "odom"
status: 
  status: 2
  service: 1
latitude: 37.8723115487
longitude: -122.266167036
altitude: 64.1087248437
position_covariance: [1.0240194448448747, 0.0, 0.0, 0.0, 1.0232833879393644, 0.0, 0.0, 0.0, 1.0250877230880333]
position_covariance_type: 2
---
header: 
  seq: 12846
  stamp: 
    secs: 1574452099
    nsecs: 956990957
  frame_id: "odom"
status: 
  status: 2
  service: 1
latitude: 37.8723079757
longitude: -122.266166615
altitude: 64.1059321519
position_covariance: [1.0240194448448747, 0.0, 0.0, 0.0, 1.0232833879393644, 0.0, 0.0, 0.0, 1.0250877230880333]
position_covariance_type: 2
---
header: 
  seq: 12847
  stamp: 
    secs: 1574452100
    nsecs:  10373115
  frame_id: "odom"
status: 
  status: 2
  service: 1
latitude: 37.8723043936
longitude: -122.266166196
altitude: 64.1034042072
position_covariance: [1.0240194448448747, 0.0, 0.0, 0.0, 1.0232833879393644, 0.0, 0.0, 0.0, 1.0250877230880333]
position_covariance_type: 2
---
header: 
  seq: 12848
  stamp: 
    secs: 1574452100
    nsecs:  63803911
  frame_id: "odom"
status: 
  status: 2
  service: 1
latitude: 37.8723007998
longitude: -122.266165775
altitude: 64.1008272013
position_covariance: [1.0237925212191596, 0.0, 0.0, 0.0, 1.0230917944817917, 0.0, 0.0, 0.0, 1.0249892610782467]
position_covariance_type: 2
---
header: 
  seq: 12849
  stamp: 
    secs: 1574452100
    nsecs:  94635963
  frame_id: "odom"
status: 
  status: 2
  service: 1
latitude: 37.8722971966
longitude: -122.266165355
altitude: 64.0994422063
position_covariance: [1.0237925212191596, 0.0, 0.0, 0.0, 1.0230917944817917, 0.0, 0.0, 0.0, 1.0249892610782467]
position_covariance_type: 2
---
header: 
  seq: 12850
  stamp: 
    secs: 1574452100
    nsecs: 148113965
  frame_id: "odom"
status: 
  status: 2
  service: 1
latitude: 37.8722935875
longitude: -122.266164939
altitude: 64.0985985398
position_covariance: [1.0237925212191596, 0.0, 0.0, 0.0, 1.0230917944817917, 0.0, 0.0, 0.0, 1.0249892610782467]
position_covariance_type: 2
---
header: 
  seq: 12851
  stamp: 
    secs: 1574452100
    nsecs: 201577901
  frame_id: "odom"
status: 
  status: 2
  service: 1
latitude: 37.8722899734
longitude: -122.266164531
altitude: 64.0979532301
position_covariance: [1.0237925212191596, 0.0, 0.0, 0.0, 1.0230917944817917, 0.0, 0.0, 0.0, 1.0249892610782467]
position_covariance_type: 2
---
header: 
  seq: 12852
  stamp: 
    secs: 1574452100
    nsecs: 246997117
  frame_id: "odom"
status: 
  status: 2
  service: 1
latitude: 37.8722863517
longitude: -122.266164131
altitude: 64.0972654484
position_covariance: [1.0237925212191596, 0.0, 0.0, 0.0, 1.0230917944817917, 0.0, 0.0, 0.0, 1.0249892610782467]
position_covariance_type: 2
---
header: 
  seq: 12853
  stamp: 
    secs: 1574452100
    nsecs: 301069974
  frame_id: "odom"
status: 
  status: 2
  service: 1
latitude: 37.8722827259
longitude: -122.266163734
altitude: 64.0968612172
position_covariance: [1.0237925212191596, 0.0, 0.0, 0.0, 1.0230917944817917, 0.0, 0.0, 0.0, 1.0249892584315456]
position_covariance_type: 2
---
header: 
  seq: 12854
  stamp: 
    secs: 1574452100
    nsecs: 340836048
  frame_id: "odom"
status: 
  status: 2
  service: 1
latitude: 37.8722790969
longitude: -122.266163344
altitude: 64.0969457198
position_covariance: [1.0237925212191596, 0.0, 0.0, 0.0, 1.0230917944817917, 0.0, 0.0, 0.0, 1.0249892584315456]
position_covariance_type: 2
---
header: 
  seq: 12855
  stamp: 
    secs: 1574452100
    nsecs: 394226074
  frame_id: "odom"
status: 
  status: 2
  service: 1
latitude: 37.8722754669
longitude: -122.266162953
altitude: 64.0970527222
position_covariance: [1.0237925212191596, 0.0, 0.0, 0.0, 1.0230917944817917, 0.0, 0.0, 0.0, 1.0249892584315456]
position_covariance_type: 2
---
header: 
  seq: 12856
  stamp: 
    secs: 1574452100
    nsecs: 447789907
  frame_id: "odom"
status: 
  status: 2
  service: 1
latitude: 37.8722718339
longitude: -122.26616257
altitude: 64.097136626
position_covariance: [1.0237925212191596, 0.0, 0.0, 0.0, 1.0230917944817917, 0.0, 0.0, 0.0, 1.0249892584315456]
position_covariance_type: 2
---
header: 
  seq: 12857
  stamp: 
    secs: 1574452100
    nsecs: 501071929
  frame_id: "odom"
status: 
  status: 2
  service: 1
latitude: 37.8722682065
longitude: -122.266162183
altitude: 64.0972461402
position_covariance: [1.0237925212191596, 0.0, 0.0, 0.0, 1.0230917944817917, 0.0, 0.0, 0.0, 1.0249892584315456]
position_covariance_type: 2
---
header: 
  seq: 12858
  stamp: 
    secs: 1574452100
    nsecs: 554649114
  frame_id: "odom"
status: 
  status: 2
  service: 1
latitude: 37.8722645844
longitude: -122.2661618
altitude: 64.0974809732
position_covariance: [1.0237925212191596, 0.0, 0.0, 0.0, 1.0230917944817917, 0.0, 0.0, 0.0, 1.0249892584315456]
position_covariance_type: 2
---
header: 
  seq: 12859
  stamp: 
    secs: 1574452100
    nsecs: 599992036
  frame_id: "odom"
status: 
  status: 2
  service: 1
latitude: 37.8722609721
longitude: -122.266161419
altitude: 64.0977112446
position_covariance: [1.0237925212191596, 0.0, 0.0, 0.0, 1.0230917944817917, 0.0, 0.0, 0.0, 1.0249892584315456]
position_covariance_type: 2
---
header: 
  seq: 12860
  stamp: 
    secs: 1574452100
    nsecs: 653508901
  frame_id: "odom"
status: 
  status: 2
  service: 1
latitude: 37.8722573678
longitude: -122.26616104
altitude: 64.0981519707
position_covariance: [1.0237925212191596, 0.0, 0.0, 0.0, 1.0230917944817917, 0.0, 0.0, 0.0, 1.0249892584315456]
position_covariance_type: 2
---
header: 
  seq: 12861
  stamp: 
    secs: 1574452100
    nsecs: 706935882
  frame_id: "odom"
status: 
  status: 2
  service: 1
latitude: 37.8722537736
longitude: -122.26616066
altitude: 64.0987398522
position_covariance: [1.0237925212191596, 0.0, 0.0, 0.0, 1.0230917944817917, 0.0, 0.0, 0.0, 1.0249892584315456]
position_covariance_type: 2
---
header: 
  seq: 12862
  stamp: 
    secs: 1574452100
    nsecs: 760446071
  frame_id: "odom"
status: 
  status: 2
  service: 1
latitude: 37.8722501901
longitude: -122.266160285
altitude: 64.0994853685
position_covariance: [1.0237925212191596, 0.0, 0.0, 0.0, 1.0230917944817917, 0.0, 0.0, 0.0, 1.0249892584315456]
position_covariance_type: 2
---
header: 
  seq: 12863
  stamp: 
    secs: 1574452100
    nsecs: 813777923
  frame_id: "odom"
status: 
  status: 2
  service: 1
latitude: 37.8722466177
longitude: -122.266159917
altitude: 64.100430375
position_covariance: [1.0237925212191596, 0.0, 0.0, 0.0, 1.0230917944817917, 0.0, 0.0, 0.0, 1.0249892584315456]
position_covariance_type: 2
---
header: 
  seq: 12864
  stamp: 
    secs: 1574452100
    nsecs: 844614982
  frame_id: "odom"
status: 
  status: 2
  service: 1
latitude: 37.8722430515
longitude: -122.266159545
altitude: 64.1008440349
position_covariance: [1.0237925212191596, 0.0, 0.0, 0.0, 1.0230917944817917, 0.0, 0.0, 0.0, 1.0249892584315456]
position_covariance_type: 2
---
header: 
  seq: 12865
  stamp: 
    secs: 1574452100
    nsecs: 898032903
  frame_id: "odom"
status: 
  status: 2
  service: 1
latitude: 37.8722394897
longitude: -122.266159178
altitude: 64.1012658095
position_covariance: [1.0237925212191596, 0.0, 0.0, 0.0, 1.0230917944817917, 0.0, 0.0, 0.0, 1.0249892584315456]
position_covariance_type: 2
---
header: 
  seq: 12866
  stamp: 
    secs: 1574452100
    nsecs: 952809095
  frame_id: "odom"
status: 
  status: 2
  service: 1
latitude: 37.8722359324
longitude: -122.266158812
altitude: 64.10178342
position_covariance: [1.0237925212191596, 0.0, 0.0, 0.0, 1.0230917944817917, 0.0, 0.0, 0.0, 1.0249892584315456]
position_covariance_type: 2
---
header: 
  seq: 12867
  stamp: 
    secs: 1574452101
    nsecs:   6181001
  frame_id: "odom"
status: 
  status: 2
  service: 1
latitude: 37.8722323777
longitude: -122.266158442
altitude: 64.1021024697
position_covariance: [1.0237925212191596, 0.0, 0.0, 0.0, 1.0230917944817917, 0.0, 0.0, 0.0, 1.0249892584315456]
position_covariance_type: 2
---
header: 
  seq: 12868
  stamp: 
    secs: 1574452101
    nsecs:  59691905
  frame_id: "odom"
status: 
  status: 2
  service: 1
latitude: 37.8722288295
longitude: -122.266158068
altitude: 64.1026743008
position_covariance: [1.0236469426305215, 0.0, 0.0, 0.0, 1.023020222657072, 0.0, 0.0, 0.0, 1.025215920503956]
position_covariance_type: 2
---
header: 
  seq: 12869
  stamp: 
    secs: 1574452101
    nsecs: 113081932
  frame_id: "odom"
status: 
  status: 2
  service: 1
latitude: 37.8722252889
longitude: -122.266157691
altitude: 64.1034844639
position_covariance: [1.0236469426305215, 0.0, 0.0, 0.0, 1.023020222657072, 0.0, 0.0, 0.0, 1.025215920503956]
position_covariance_type: 2
---
header: 
  seq: 12870
  stamp: 
    secs: 1574452101
    nsecs: 158634901
  frame_id: "odom"
status: 
  status: 2
  service: 1
latitude: 37.8722217539
longitude: -122.266157319
altitude: 64.1044431264
position_covariance: [1.0236469426305215, 0.0, 0.0, 0.0, 1.023020222657072, 0.0, 0.0, 0.0, 1.025215920503956]
position_covariance_type: 2
---
header: 
  seq: 12871
  stamp: 
    secs: 1574452101
    nsecs: 212100982
  frame_id: "odom"
status: 
  status: 2
  service: 1
latitude: 37.8722182292
longitude: -122.26615695
altitude: 64.1053041825
position_covariance: [1.0236469426305215, 0.0, 0.0, 0.0, 1.023020222657072, 0.0, 0.0, 0.0, 1.025215920503956]
position_covariance_type: 2
---
header: 
  seq: 12872
  stamp: 
    secs: 1574452101
    nsecs: 251699924
  frame_id: "odom"
status: 
  status: 2
  service: 1
latitude: 37.8722147119
longitude: -122.266156586
altitude: 64.1065464681
position_covariance: [1.0236469426305215, 0.0, 0.0, 0.0, 1.023020222657072, 0.0, 0.0, 0.0, 1.025215920503956]
position_covariance_type: 2
---
header: 
  seq: 12873
  stamp: 
    secs: 1574452101
    nsecs: 305088043
  frame_id: "odom"
status: 
  status: 2
  service: 1
latitude: 37.8722112025
longitude: -122.266156224
altitude: 64.1075343331
position_covariance: [1.0236469426305215, 0.0, 0.0, 0.0, 1.023020222657072, 0.0, 0.0, 0.0, 1.025215920503956]
position_covariance_type: 2
---
header: 
  seq: 12874
  stamp: 
    secs: 1574452101
    nsecs: 358685970
  frame_id: "odom"
status: 
  status: 2
  service: 1
latitude: 37.8722077033
longitude: -122.26615586
altitude: 64.1085772235
position_covariance: [1.0236469426305215, 0.0, 0.0, 0.0, 1.023020222657072, 0.0, 0.0, 0.0, 1.025215920503956]
position_covariance_type: 2
---
header: 
  seq: 12875
  stamp: 
    secs: 1574452101
    nsecs: 411952018
  frame_id: "odom"
status: 
  status: 2
  service: 1
latitude: 37.8722042128
longitude: -122.266155496
altitude: 64.1098173419
position_covariance: [1.0236469426305215, 0.0, 0.0, 0.0, 1.023020222657072, 0.0, 0.0, 0.0, 1.025215920503956]
position_covariance_type: 2
---
header: 
  seq: 12876
  stamp: 
    secs: 1574452101
    nsecs: 457387924
  frame_id: "odom"
status: 
  status: 2
  service: 1
latitude: 37.8722007289
longitude: -122.266155135
altitude: 64.1108741863
position_covariance: [1.0236469426305215, 0.0, 0.0, 0.0, 1.023020222657072, 0.0, 0.0, 0.0, 1.025215920503956]
position_covariance_type: 2
---
header: 
  seq: 12877
  stamp: 
    secs: 1574452101
    nsecs: 510831117
  frame_id: "odom"
status: 
  status: 2
  service: 1
latitude: 37.8721972539
longitude: -122.266154782
altitude: 64.1122989552
position_covariance: [1.0236469426305215, 0.0, 0.0, 0.0, 1.023020222657072, 0.0, 0.0, 0.0, 1.025215920503956]
position_covariance_type: 2
---
header: 
  seq: 12878
  stamp: 
    secs: 1574452101
    nsecs: 608684062
  frame_id: "odom"
status: 
  status: 2
  service: 1
latitude: 37.8721903287
longitude: -122.266154083
altitude: 64.1152000567
position_covariance: [1.0236469426305215, 0.0, 0.0, 0.0, 1.023020222657072, 0.0, 0.0, 0.0, 1.025215920503956]
position_covariance_type: 2
---
header: 
  seq: 12879
  stamp: 
    secs: 1574452101
    nsecs: 648412942
  frame_id: "odom"
status: 
  status: 2
  service: 1
latitude: 37.8721868813
longitude: -122.266153734
altitude: 64.1169603933
position_covariance: [1.0236469426305215, 0.0, 0.0, 0.0, 1.023020222657072, 0.0, 0.0, 0.0, 1.025215920503956]
position_covariance_type: 2
---
header: 
  seq: 12880
  stamp: 
    secs: 1574452101
    nsecs: 701908111
  frame_id: "odom"
status: 
  status: 2
  service: 1
latitude: 37.8721834407
longitude: -122.266153392
altitude: 64.1187956017
position_covariance: [1.0236469426305215, 0.0, 0.0, 0.0, 1.023020222657072, 0.0, 0.0, 0.0, 1.025215920503956]
position_covariance_type: 2
---
header: 
  seq: 12881
  stamp: 
    secs: 1574452101
    nsecs: 755280971
  frame_id: "odom"
status: 
  status: 2
  service: 1
latitude: 37.8721800089
longitude: -122.266153053
altitude: 64.120907384
position_covariance: [1.0236469426305215, 0.0, 0.0, 0.0, 1.023020222657072, 0.0, 0.0, 0.0, 1.025215920503956]
position_covariance_type: 2
---
header: 
  seq: 12882
  stamp: 
    secs: 1574452101
    nsecs: 808687925
  frame_id: "odom"
status: 
  status: 2
  service: 1
latitude: 37.8721765825
longitude: -122.266152715
altitude: 64.1230116626
position_covariance: [1.0236469452737564, 0.0, 0.0, 0.0, 1.023020222657072, 0.0, 0.0, 0.0, 1.025215920503956]
position_covariance_type: 2
---
header: 
  seq: 12883
  stamp: 
    secs: 1574452101
    nsecs: 862215995
  frame_id: "odom"
status: 
  status: 2
  service: 1
latitude: 37.8721731626
longitude: -122.266152375
altitude: 64.1248658411
position_covariance: [1.0236469452737564, 0.0, 0.0, 0.0, 1.023020222657072, 0.0, 0.0, 0.0, 1.025215920503956]
position_covariance_type: 2
---
header: 
  seq: 12884
  stamp: 
    secs: 1574452101
    nsecs: 915553092
  frame_id: "odom"
status: 
  status: 2
  service: 1
latitude: 37.8721697497
longitude: -122.266152033
altitude: 64.1262564929
position_covariance: [1.0236469452737564, 0.0, 0.0, 0.0, 1.023020222657072, 0.0, 0.0, 0.0, 1.025215920503956]
position_covariance_type: 2
---
header: 
  seq: 12885
  stamp: 
    secs: 1574452101
    nsecs: 946396112
  frame_id: "odom"
status: 
  status: 2
  service: 1
latitude: 37.8721663459
longitude: -122.266151688
altitude: 64.1277770828
position_covariance: [1.0236469452737564, 0.0, 0.0, 0.0, 1.023020222657072, 0.0, 0.0, 0.0, 1.025215920503956]
position_covariance_type: 2
---
header: 
  seq: 12886
  stamp: 
    secs: 1574452101
    nsecs: 999802112
  frame_id: "odom"
status: 
  status: 2
  service: 1
latitude: 37.8721629475
longitude: -122.266151339
altitude: 64.1290162299
position_covariance: [1.0236469452737564, 0.0, 0.0, 0.0, 1.023020222657072, 0.0, 0.0, 0.0, 1.025215920503956]
position_covariance_type: 2
---
header: 
  seq: 12887
  stamp: 
    secs: 1574452102
    nsecs:  64815998
  frame_id: "odom"
status: 
  status: 2
  service: 1
latitude: 37.8721595496
longitude: -122.266150996
altitude: 64.1304573994
position_covariance: [1.0235694459140117, 0.0, 0.0, 0.0, 1.0229744418224653, 0.0, 0.0, 0.0, 1.0255911440459216]
position_covariance_type: 2
---
header: 
  seq: 12888
  stamp: 
    secs: 1574452102
    nsecs: 118165016
  frame_id: "odom"
status: 
  status: 2
  service: 1
latitude: 37.8721561592
longitude: -122.266150653
altitude: 64.1316774683
position_covariance: [1.0235694459140117, 0.0, 0.0, 0.0, 1.0229744418224653, 0.0, 0.0, 0.0, 1.0255911440459216]
position_covariance_type: 2
---
header: 
  seq: 12889
  stamp: 
    secs: 1574452102
    nsecs: 171696901
  frame_id: "odom"
status: 
  status: 2
  service: 1
latitude: 37.8721527775
longitude: -122.266150312
altitude: 64.132680784
position_covariance: [1.0235694459140117, 0.0, 0.0, 0.0, 1.0229744418224653, 0.0, 0.0, 0.0, 1.0255911440459216]
position_covariance_type: 2
---
header: 
  seq: 12890
  stamp: 
    secs: 1574452102
    nsecs: 225246906
  frame_id: "odom"
status: 
  status: 2
  service: 1
latitude: 37.8721494054
longitude: -122.26614998
altitude: 64.1339316312
position_covariance: [1.0235694459140117, 0.0, 0.0, 0.0, 1.0229744418224653, 0.0, 0.0, 0.0, 1.0255911440459216]
position_covariance_type: 2
---
header: 
  seq: 12891
  stamp: 
    secs: 1574452102
    nsecs: 256082057
  frame_id: "odom"
status: 
  status: 2
  service: 1
latitude: 37.8721460435
longitude: -122.266149646
altitude: 64.1349162199
position_covariance: [1.0235694459140117, 0.0, 0.0, 0.0, 1.0229744418224653, 0.0, 0.0, 0.0, 1.0255911440459216]
position_covariance_type: 2
---
header: 
  seq: 12892
  stamp: 
    secs: 1574452102
    nsecs: 309356927
  frame_id: "odom"
status: 
  status: 2
  service: 1
latitude: 37.8721426881
longitude: -122.26614931
altitude: 64.1361789452
position_covariance: [1.0235694459140117, 0.0, 0.0, 0.0, 1.0229744418224653, 0.0, 0.0, 0.0, 1.0255911440459216]
position_covariance_type: 2
---
header: 
  seq: 12893
  stamp: 
    secs: 1574452102
    nsecs: 362899065
  frame_id: "odom"
status: 
  status: 2
  service: 1
latitude: 37.8721393437
longitude: -122.266148968
altitude: 64.1372421216
position_covariance: [1.0235694459140117, 0.0, 0.0, 0.0, 1.0229744418224653, 0.0, 0.0, 0.0, 1.0255911440459216]
position_covariance_type: 2
---
header: 
  seq: 12894
  stamp: 
    secs: 1574452102
    nsecs: 416232109
  frame_id: "odom"
status: 
  status: 2
  service: 1
latitude: 37.8721360096
longitude: -122.266148625
altitude: 64.1382533265
position_covariance: [1.0235694459140117, 0.0, 0.0, 0.0, 1.0229744418224653, 0.0, 0.0, 0.0, 1.0255911440459216]
position_covariance_type: 2
---
header: 
  seq: 12895
  stamp: 
    secs: 1574452102
    nsecs: 469741106
  frame_id: "odom"
status: 
  status: 2
  service: 1
latitude: 37.8721326868
longitude: -122.266148281
altitude: 64.1392590934
position_covariance: [1.0235694459140117, 0.0, 0.0, 0.0, 1.0229744418224653, 0.0, 0.0, 0.0, 1.0255911440459216]
position_covariance_type: 2
---
header: 
  seq: 12896
  stamp: 
    secs: 1574452102
    nsecs: 523768901
  frame_id: "odom"
status: 
  status: 2
  service: 1
latitude: 37.8721293742
longitude: -122.266147937
altitude: 64.1403837474
position_covariance: [1.0235694459140117, 0.0, 0.0, 0.0, 1.0229744418224653, 0.0, 0.0, 0.0, 1.0255911440459216]
position_covariance_type: 2
---
header: 
  seq: 12897
  stamp: 
    secs: 1574452102
    nsecs: 577111959
  frame_id: "odom"
status: 
  status: 2
  service: 1
latitude: 37.8721260674
longitude: -122.266147595
altitude: 64.141706029
position_covariance: [1.0235694459140117, 0.0, 0.0, 0.0, 1.0229744418224653, 0.0, 0.0, 0.0, 1.0255911440459216]
position_covariance_type: 2
---
header: 
  seq: 12898
  stamp: 
    secs: 1574452102
    nsecs: 607887983
  frame_id: "odom"
status: 
  status: 2
  service: 1
latitude: 37.8721227663
longitude: -122.266147251
altitude: 64.1430361373
position_covariance: [1.0235694459140117, 0.0, 0.0, 0.0, 1.0229744418224653, 0.0, 0.0, 0.0, 1.0255911440459216]
position_covariance_type: 2
---
header: 
  seq: 12899
  stamp: 
    secs: 1574452102
    nsecs: 661333084
  frame_id: "odom"
status: 
  status: 2
  service: 1
latitude: 37.8721194723
longitude: -122.266146898
altitude: 64.1442239741
position_covariance: [1.0235694459140117, 0.0, 0.0, 0.0, 1.0229744418224653, 0.0, 0.0, 0.0, 1.0255911440459216]
position_covariance_type: 2
---
header: 
  seq: 12900
  stamp: 
    secs: 1574452102
    nsecs: 714721918
  frame_id: "odom"
status: 
  status: 2
  service: 1
latitude: 37.872116185
longitude: -122.266146543
altitude: 64.1454439936
position_covariance: [1.0235694459140117, 0.0, 0.0, 0.0, 1.0229744418224653, 0.0, 0.0, 0.0, 1.0255911440459216]
position_covariance_type: 2
---
header: 
  seq: 12901
  stamp: 
    secs: 1574452102
    nsecs: 754539012
  frame_id: "odom"
status: 
  status: 2
  service: 1
latitude: 37.872112905
longitude: -122.266146186
altitude: 64.1467127735
position_covariance: [1.0235694459140117, 0.0, 0.0, 0.0, 1.0229744418224653, 0.0, 0.0, 0.0, 1.0255911440459216]
position_covariance_type: 2
---
header: 
  seq: 12902
  stamp: 
    secs: 1574452102
    nsecs: 807878971
  frame_id: "odom"
status: 
  status: 2
  service: 1
latitude: 37.8721096296
longitude: -122.266145829
altitude: 64.1482260386
position_covariance: [1.0235694459140117, 0.0, 0.0, 0.0, 1.0229744418224653, 0.0, 0.0, 0.0, 1.0255911440459216]
position_covariance_type: 2
---
header: 
  seq: 12903
  stamp: 
    secs: 1574452102
    nsecs: 861392974
  frame_id: "odom"
status: 
  status: 2
  service: 1
latitude: 37.8721063598
longitude: -122.266145474
altitude: 64.149942603
position_covariance: [1.0235694459140117, 0.0, 0.0, 0.0, 1.0229744418224653, 0.0, 0.0, 0.0, 1.0255911440459216]
position_covariance_type: 2
---
header: 
  seq: 12904
  stamp: 
    secs: 1574452102
    nsecs: 914803981
  frame_id: "odom"
status: 
  status: 2
  service: 1
latitude: 37.8721030992
longitude: -122.266145111
altitude: 64.1512486739
position_covariance: [1.0235694459140117, 0.0, 0.0, 0.0, 1.0229744418224653, 0.0, 0.0, 0.0, 1.0255911440459216]
position_covariance_type: 2
---
header: 
  seq: 12905
  stamp: 
    secs: 1574452102
    nsecs: 968281984
  frame_id: "odom"
status: 
  status: 2
  service: 1
latitude: 37.8720998464
longitude: -122.26614475
altitude: 64.1526001515
position_covariance: [1.0235694459140117, 0.0, 0.0, 0.0, 1.0229744418224653, 0.0, 0.0, 0.0, 1.0255911440459216]
position_covariance_type: 2
---
header: 
  seq: 12906
  stamp: 
    secs: 1574452103
    nsecs:  21837949
  frame_id: "odom"
status: 
  status: 2
  service: 1
latitude: 37.8720966018
longitude: -122.266144388
altitude: 64.1539108837
position_covariance: [1.0235694459140117, 0.0, 0.0, 0.0, 1.0229744418224653, 0.0, 0.0, 0.0, 1.0255911440459216]
position_covariance_type: 2
---
header: 
  seq: 12907
  stamp: 
    secs: 1574452103
    nsecs:  85113048
  frame_id: "odom"
status: 
  status: 2
  service: 1
latitude: 37.872093366
longitude: -122.26614402
altitude: 64.1551683433
position_covariance: [1.0295668380396406, 0.0, 0.0, 0.0, 1.0287570892770228, 0.0, 0.0, 0.0, 1.029571168779786]
position_covariance_type: 2
---
header: 
  seq: 12908
  stamp: 
    secs: 1574452103
    nsecs: 115931034
  frame_id: "odom"
status: 
  status: 2
  service: 1
latitude: 37.8720901367
longitude: -122.266143654
altitude: 64.1566863824
position_covariance: [1.0295668380396406, 0.0, 0.0, 0.0, 1.0287570892770228, 0.0, 0.0, 0.0, 1.029571168779786]
position_covariance_type: 2
---
header: 
  seq: 12909
  stamp: 
    secs: 1574452103
    nsecs: 169516086
  frame_id: "odom"
status: 
  status: 2
  service: 1
latitude: 37.8720869173
longitude: -122.266143285
altitude: 64.1580217537
position_covariance: [1.0295668380396406, 0.0, 0.0, 0.0, 1.0287570892770228, 0.0, 0.0, 0.0, 1.029571168779786]
position_covariance_type: 2
---
header: 
  seq: 12910
  stamp: 
    secs: 1574452103
    nsecs: 267350912
  frame_id: "odom"
status: 
  status: 2
  service: 1
latitude: 37.8720805109
longitude: -122.266142551
altitude: 64.1606993275
position_covariance: [1.0295668380396406, 0.0, 0.0, 0.0, 1.0287570892770228, 0.0, 0.0, 0.0, 1.029571168779786]
position_covariance_type: 2
---
header: 
  seq: 12911
  stamp: 
    secs: 1574452103
    nsecs: 320797920
  frame_id: "odom"
status: 
  status: 2
  service: 1
latitude: 37.8720773271
longitude: -122.266142187
altitude: 64.16208525
position_covariance: [1.0295668380396406, 0.0, 0.0, 0.0, 1.0287570892770228, 0.0, 0.0, 0.0, 1.029571168779786]
position_covariance_type: 2
---
header: 
  seq: 12912
  stamp: 
    secs: 1574452103
    nsecs: 374131917
  frame_id: "odom"
status: 
  status: 2
  service: 1
latitude: 37.8720741579
longitude: -122.266141822
altitude: 64.1634052526
position_covariance: [1.0295668380396406, 0.0, 0.0, 0.0, 1.0287570892770228, 0.0, 0.0, 0.0, 1.029571168779786]
position_covariance_type: 2
---
header: 
  seq: 12913
  stamp: 
    secs: 1574452103
    nsecs: 472033023
  frame_id: "odom"
status: 
  status: 2
  service: 1
latitude: 37.8720678755
longitude: -122.266141081
altitude: 64.1651824201
position_covariance: [1.0295668380396406, 0.0, 0.0, 0.0, 1.0287570892770228, 0.0, 0.0, 0.0, 1.029571168779786]
position_covariance_type: 2
---
header: 
  seq: 12914
  stamp: 
    secs: 1574452103
    nsecs: 517431020
  frame_id: "odom"
status: 
  status: 2
  service: 1
latitude: 37.8720647686
longitude: -122.26614071
altitude: 64.1660965197
position_covariance: [1.0295668380396406, 0.0, 0.0, 0.0, 1.0287570892770228, 0.0, 0.0, 0.0, 1.029571168779786]
position_covariance_type: 2
---
header: 
  seq: 12915
  stamp: 
    secs: 1574452103
    nsecs: 570899963
  frame_id: "odom"
status: 
  status: 2
  service: 1
latitude: 37.8720616877
longitude: -122.266140344
altitude: 64.1670845756
position_covariance: [1.0295668380396406, 0.0, 0.0, 0.0, 1.0287570892770228, 0.0, 0.0, 0.0, 1.029571168779786]
position_covariance_type: 2
---
header: 
  seq: 12916
  stamp: 
    secs: 1574452103
    nsecs: 624399900
  frame_id: "odom"
status: 
  status: 2
  service: 1
latitude: 37.8720586315
longitude: -122.26613998
altitude: 64.1678864686
position_covariance: [1.0295668380396406, 0.0, 0.0, 0.0, 1.0287570892770228, 0.0, 0.0, 0.0, 1.029571168779786]
position_covariance_type: 2
---
header: 
  seq: 12917
  stamp: 
    secs: 1574452103
    nsecs: 677776098
  frame_id: "odom"
status: 
  status: 2
  service: 1
latitude: 37.872055596
longitude: -122.26613962
altitude: 64.1686890265
position_covariance: [1.0295668380396406, 0.0, 0.0, 0.0, 1.0287570892770228, 0.0, 0.0, 0.0, 1.029571168779786]
position_covariance_type: 2
---
header: 
  seq: 12918
  stamp: 
    secs: 1574452103
    nsecs: 731215000
  frame_id: "odom"
status: 
  status: 2
  service: 1
latitude: 37.8720525848
longitude: -122.266139263
altitude: 64.1694795117
position_covariance: [1.0295668380396406, 0.0, 0.0, 0.0, 1.0287570892770228, 0.0, 0.0, 0.0, 1.029571168779786]
position_covariance_type: 2
---
header: 
  seq: 12919
  stamp: 
    secs: 1574452103
    nsecs: 784626007
  frame_id: "odom"
status: 
  status: 2
  service: 1
latitude: 37.8720495971
longitude: -122.266138909
altitude: 64.1699566832
position_covariance: [1.0295668380396406, 0.0, 0.0, 0.0, 1.0287570892770228, 0.0, 0.0, 0.0, 1.029571168779786]
position_covariance_type: 2
---
header: 
  seq: 12920
  stamp: 
    secs: 1574452103
    nsecs: 824369907
  frame_id: "odom"
status: 
  status: 2
  service: 1
latitude: 37.8720466323
longitude: -122.266138566
altitude: 64.1705423668
position_covariance: [1.0295668380396406, 0.0, 0.0, 0.0, 1.0287570892770228, 0.0, 0.0, 0.0, 1.029571168779786]
position_covariance_type: 2
---
header: 
  seq: 12921
  stamp: 
    secs: 1574452103
    nsecs: 877824068
  frame_id: "odom"
status: 
  status: 2
  service: 1
latitude: 37.8720436904
longitude: -122.266138227
altitude: 64.1710621854
position_covariance: [1.0295668380396406, 0.0, 0.0, 0.0, 1.0287570892770228, 0.0, 0.0, 0.0, 1.029571168779786]
position_covariance_type: 2
---
header: 
  seq: 12922
  stamp: 
    secs: 1574452103
    nsecs: 931235074
  frame_id: "odom"
status: 
  status: 2
  service: 1
latitude: 37.8720407709
longitude: -122.266137895
altitude: 64.1718371371
position_covariance: [1.0295668380396406, 0.0, 0.0, 0.0, 1.0287570892770228, 0.0, 0.0, 0.0, 1.029571168779786]
position_covariance_type: 2
---
header: 
  seq: 12923
  stamp: 
    secs: 1574452103
    nsecs: 985306978
  frame_id: "odom"
status: 
  status: 2
  service: 1
latitude: 37.8720378721
longitude: -122.266137569
altitude: 64.1730756937
position_covariance: [1.0295668380396406, 0.0, 0.0, 0.0, 1.0287570892770228, 0.0, 0.0, 0.0, 1.029571168779786]
position_covariance_type: 2
---
header: 
  seq: 12924
  stamp: 
    secs: 1574452104
    nsecs:  16128063
  frame_id: "odom"
status: 
  status: 2
  service: 1
latitude: 37.8720349969
longitude: -122.266137242
altitude: 64.1741450876
position_covariance: [1.0295668380396406, 0.0, 0.0, 0.0, 1.0287570892770228, 0.0, 0.0, 0.0, 1.029571168779786]
position_covariance_type: 2
---
header: 
  seq: 12925
  stamp: 
    secs: 1574452104
    nsecs:  69600105
  frame_id: "odom"
status: 
  status: 2
  service: 1
latitude: 37.8720321422
longitude: -122.266136917
altitude: 64.1751365801
position_covariance: [1.0366572650970662, 0.0, 0.0, 0.0, 1.0355353119197108, 0.0, 0.0, 0.0, 1.03390016004007]
position_covariance_type: 2
---
header: 
  seq: 12926
  stamp: 
    secs: 1574452104
    nsecs: 115871906
  frame_id: "odom"
status: 
  status: 2
  service: 1
latitude: 37.8720293043
longitude: -122.266136596
altitude: 64.1761102257
position_covariance: [1.0366572650970662, 0.0, 0.0, 0.0, 1.0355353119197108, 0.0, 0.0, 0.0, 1.03390016004007]
position_covariance_type: 2
---
header: 
  seq: 12927
  stamp: 
    secs: 1574452104
    nsecs: 155755996
  frame_id: "odom"
status: 
  status: 2
  service: 1
latitude: 37.872026482
longitude: -122.266136277
altitude: 64.1769318888
position_covariance: [1.0366572650970662, 0.0, 0.0, 0.0, 1.0355353119197108, 0.0, 0.0, 0.0, 1.03390016004007]
position_covariance_type: 2
---
header: 
  seq: 12928
  stamp: 
    secs: 1574452104
    nsecs: 209018945
  frame_id: "odom"
status: 
  status: 2
  service: 1
latitude: 37.8720236699
longitude: -122.26613596
altitude: 64.1775801992
position_covariance: [1.0366572650970662, 0.0, 0.0, 0.0, 1.0355353119197108, 0.0, 0.0, 0.0, 1.03390016004007]
position_covariance_type: 2
---
header: 
  seq: 12929
  stamp: 
    secs: 1574452104
    nsecs: 262520074
  frame_id: "odom"
status: 
  status: 2
  service: 1
latitude: 37.8720208667
longitude: -122.266135645
altitude: 64.1784127923
position_covariance: [1.0366572650970662, 0.0, 0.0, 0.0, 1.0355353119197108, 0.0, 0.0, 0.0, 1.03390016004007]
position_covariance_type: 2
---
header: 
  seq: 12930
  stamp: 
    secs: 1574452104
    nsecs: 360346078
  frame_id: "odom"
status: 
  status: 2
  service: 1
latitude: 37.8720152811
longitude: -122.266135017
altitude: 64.1802157825
position_covariance: [1.0366572650970662, 0.0, 0.0, 0.0, 1.0355353119197108, 0.0, 0.0, 0.0, 1.03390016004007]
position_covariance_type: 2
---
header: 
  seq: 12931
  stamp: 
    secs: 1574452104
    nsecs: 413736104
  frame_id: "odom"
status: 
  status: 2
  service: 1
latitude: 37.8720124958
longitude: -122.266134711
altitude: 64.1816792041
position_covariance: [1.0366572650970662, 0.0, 0.0, 0.0, 1.0355353119197108, 0.0, 0.0, 0.0, 1.03390016004007]
position_covariance_type: 2
---
header: 
  seq: 12932
  stamp: 
    secs: 1574452104
    nsecs: 511570930
  frame_id: "odom"
status: 
  status: 2
  service: 1
latitude: 37.8720069434
longitude: -122.266134111
altitude: 64.1852868842
position_covariance: [1.0366572650970662, 0.0, 0.0, 0.0, 1.0355353119197108, 0.0, 0.0, 0.0, 1.03390016004007]
position_covariance_type: 2
---
header: 
  seq: 12933
  stamp: 
    secs: 1574452104
    nsecs: 565155982
  frame_id: "odom"
status: 
  status: 2
  service: 1
latitude: 37.8720041742
longitude: -122.266133814
altitude: 64.1872887919
position_covariance: [1.0366572650970662, 0.0, 0.0, 0.0, 1.0355353119197108, 0.0, 0.0, 0.0, 1.03390016004007]
position_covariance_type: 2
---
header: 
  seq: 12934
  stamp: 
    secs: 1574452104
    nsecs: 618408918
  frame_id: "odom"
status: 
  status: 2
  service: 1
latitude: 37.872001411
longitude: -122.266133519
altitude: 64.189267532
position_covariance: [1.0366572650970662, 0.0, 0.0, 0.0, 1.0355353119197108, 0.0, 0.0, 0.0, 1.03390016004007]
position_covariance_type: 2
---
header: 
  seq: 12935
  stamp: 
    secs: 1574452104
    nsecs: 671842098
  frame_id: "odom"
status: 
  status: 2
  service: 1
latitude: 37.8719986569
longitude: -122.266133222
altitude: 64.1910257507
position_covariance: [1.0366572650970662, 0.0, 0.0, 0.0, 1.0355353119197108, 0.0, 0.0, 0.0, 1.03390016004007]
position_covariance_type: 2
---
header: 
  seq: 12936
  stamp: 
    secs: 1574452104
    nsecs: 725379943
  frame_id: "odom"
status: 
  status: 2
  service: 1
latitude: 37.8719959121
longitude: -122.266132924
altitude: 64.1930278698
position_covariance: [1.0366572650970662, 0.0, 0.0, 0.0, 1.0355353145936437, 0.0, 0.0, 0.0, 1.03390016004007]
position_covariance_type: 2
---
header: 
  seq: 12937
  stamp: 
    secs: 1574452104
    nsecs: 778748035
  frame_id: "odom"
status: 
  status: 2
  service: 1
latitude: 37.8719931758
longitude: -122.266132627
altitude: 64.1951327017
position_covariance: [1.0366572650970662, 0.0, 0.0, 0.0, 1.0355353145936437, 0.0, 0.0, 0.0, 1.03390016004007]
position_covariance_type: 2
---
header: 
  seq: 12938
  stamp: 
    secs: 1574452104
    nsecs: 832169055
  frame_id: "odom"
status: 
  status: 2
  service: 1
latitude: 37.8719904452
longitude: -122.266132329
altitude: 64.1973021198
position_covariance: [1.0366572650970662, 0.0, 0.0, 0.0, 1.0355353145936437, 0.0, 0.0, 0.0, 1.03390016004007]
position_covariance_type: 2
---
header: 
  seq: 12939
  stamp: 
    secs: 1574452104
    nsecs: 885598897
  frame_id: "odom"
status: 
  status: 2
  service: 1
latitude: 37.8719877194
longitude: -122.266132035
altitude: 64.1995990751
position_covariance: [1.0366572650970662, 0.0, 0.0, 0.0, 1.0355353145936437, 0.0, 0.0, 0.0, 1.0339001573703592]
position_covariance_type: 2
---
header: 
  seq: 12940
  stamp: 
    secs: 1574452104
    nsecs: 916527032
  frame_id: "odom"
status: 
  status: 2
  service: 1
latitude: 37.8719849996
longitude: -122.26613174
altitude: 64.2016826058
position_covariance: [1.0366572650970662, 0.0, 0.0, 0.0, 1.0355353145936437, 0.0, 0.0, 0.0, 1.0339001573703592]
position_covariance_type: 2
---
header: 
  seq: 12941
  stamp: 
    secs: 1574452104
    nsecs: 969933032
  frame_id: "odom"
status: 
  status: 2
  service: 1
latitude: 37.8719822888
longitude: -122.266131443
altitude: 64.2035162868
position_covariance: [1.0366572650970662, 0.0, 0.0, 0.0, 1.0355353145936437, 0.0, 0.0, 0.0, 1.0339001573703592]
position_covariance_type: 2
---
header: 
  seq: 12942
  stamp: 
    secs: 1574452105
    nsecs:  15826940
  frame_id: "odom"
status: 
  status: 2
  service: 1
latitude: 37.8719795865
longitude: -122.266131148
altitude: 64.2053787662
position_covariance: [1.0366572650970662, 0.0, 0.0, 0.0, 1.0355353145936437, 0.0, 0.0, 0.0, 1.0339001573703592]
position_covariance_type: 2
---
header: 
  seq: 12943
  stamp: 
    secs: 1574452105
    nsecs:  69334030
  frame_id: "odom"
status: 
  status: 2
  service: 1
latitude: 37.8719768938
longitude: -122.266130854
altitude: 64.2073315009
position_covariance: [1.0452229328720581, 0.0, 0.0, 0.0, 1.0433493364925253, 0.0, 0.0, 0.0, 1.0386494051921384]
position_covariance_type: 2
---
header: 
  seq: 12944
  stamp: 
    secs: 1574452105
    nsecs: 122803926
  frame_id: "odom"
status: 
  status: 2
  service: 1
latitude: 37.8719742091
longitude: -122.266130557
altitude: 64.209325321
position_covariance: [1.0452229328720581, 0.0, 0.0, 0.0, 1.0433493364925253, 0.0, 0.0, 0.0, 1.0386494051921384]
position_covariance_type: 2
---
header: 
  seq: 12945
  stamp: 
    secs: 1574452105
    nsecs: 168167114
  frame_id: "odom"
status: 
  status: 2
  service: 1
latitude: 37.8719715304
longitude: -122.26613026
altitude: 64.2116333451
position_covariance: [1.0452229328720581, 0.0, 0.0, 0.0, 1.0433493364925253, 0.0, 0.0, 0.0, 1.0386494051921384]
position_covariance_type: 2
---
header: 
  seq: 12946
  stamp: 
    secs: 1574452105
    nsecs: 221698045
  frame_id: "odom"
status: 
  status: 2
  service: 1
latitude: 37.8719688568
longitude: -122.266129964
altitude: 64.2139250897
position_covariance: [1.0452229328720581, 0.0, 0.0, 0.0, 1.0433493364925253, 0.0, 0.0, 0.0, 1.0386494051921384]
position_covariance_type: 2
---
header: 
  seq: 12947
  stamp: 
    secs: 1574452105
    nsecs: 267064094
  frame_id: "odom"
status: 
  status: 2
  service: 1
latitude: 37.8719661923
longitude: -122.266129663
altitude: 64.2159855915
position_covariance: [1.0452229328720581, 0.0, 0.0, 0.0, 1.0433493364925253, 0.0, 0.0, 0.0, 1.0386494051921384]
position_covariance_type: 2
---
header: 
  seq: 12948
  stamp: 
    secs: 1574452105
    nsecs: 320440053
  frame_id: "odom"
status: 
  status: 2
  service: 1
latitude: 37.8719635372
longitude: -122.26612936
altitude: 64.2178258356
position_covariance: [1.0452229328720581, 0.0, 0.0, 0.0, 1.0433493364925253, 0.0, 0.0, 0.0, 1.0386494051921384]
position_covariance_type: 2
---
header: 
  seq: 12949
  stamp: 
    secs: 1574452105
    nsecs: 366030931
  frame_id: "odom"
status: 
  status: 2
  service: 1
latitude: 37.8719608907
longitude: -122.266129062
altitude: 64.2199038677
position_covariance: [1.0452229328720581, 0.0, 0.0, 0.0, 1.0433493364925253, 0.0, 0.0, 0.0, 1.0386494051921384]
position_covariance_type: 2
---
header: 
  seq: 12950
  stamp: 
    secs: 1574452105
    nsecs: 419349908
  frame_id: "odom"
status: 
  status: 2
  service: 1
latitude: 37.8719582507
longitude: -122.266128766
altitude: 64.2217406686
position_covariance: [1.0452229328720581, 0.0, 0.0, 0.0, 1.0433493364925253, 0.0, 0.0, 0.0, 1.0386494051921384]
position_covariance_type: 2
---
header: 
  seq: 12951
  stamp: 
    secs: 1574452105
    nsecs: 472822904
  frame_id: "odom"
status: 
  status: 2
  service: 1
latitude: 37.8719556167
longitude: -122.266128469
altitude: 64.2235095454
position_covariance: [1.0452229328720581, 0.0, 0.0, 0.0, 1.0433493364925253, 0.0, 0.0, 0.0, 1.0386494051921384]
position_covariance_type: 2
---
header: 
  seq: 12952
  stamp: 
    secs: 1574452105
    nsecs: 526355028
  frame_id: "odom"
status: 
  status: 2
  service: 1
latitude: 37.8719529879
longitude: -122.266128176
altitude: 64.2254947675
position_covariance: [1.0452229328720581, 0.0, 0.0, 0.0, 1.0433493364925253, 0.0, 0.0, 0.0, 1.0386494051921384]
position_covariance_type: 2
---
header: 
  seq: 12953
  stamp: 
    secs: 1574452105
    nsecs: 579713106
  frame_id: "odom"
status: 
  status: 2
  service: 1
latitude: 37.871950366
longitude: -122.266127881
altitude: 64.2276928788
position_covariance: [1.0452229328720581, 0.0, 0.0, 0.0, 1.0433493364925253, 0.0, 0.0, 0.0, 1.0386494051921384]
position_covariance_type: 2
---
header: 
  seq: 12954
  stamp: 
    secs: 1574452105
    nsecs: 633193969
  frame_id: "odom"
status: 
  status: 2
  service: 1
latitude: 37.8719477539
longitude: -122.266127582
altitude: 64.2297080569
position_covariance: [1.0452229328720581, 0.0, 0.0, 0.0, 1.0433493364925253, 0.0, 0.0, 0.0, 1.0386494051921384]
position_covariance_type: 2
---
header: 
  seq: 12955
  stamp: 
    secs: 1574452105
    nsecs: 686587095
  frame_id: "odom"
status: 
  status: 2
  service: 1
latitude: 37.8719451502
longitude: -122.266127284
altitude: 64.2319638832
position_covariance: [1.0452229328720581, 0.0, 0.0, 0.0, 1.0433493364925253, 0.0, 0.0, 0.0, 1.0386494051921384]
position_covariance_type: 2
---
header: 
  seq: 12956
  stamp: 
    secs: 1574452105
    nsecs: 717344999
  frame_id: "odom"
status: 
  status: 2
  service: 1
latitude: 37.8719425546
longitude: -122.26612699
altitude: 64.2344157984
position_covariance: [1.0452229328720581, 0.0, 0.0, 0.0, 1.0433493364925253, 0.0, 0.0, 0.0, 1.0386494051921384]
position_covariance_type: 2
---
header: 
  seq: 12957
  stamp: 
    secs: 1574452105
    nsecs: 815197944
  frame_id: "odom"
status: 
  status: 2
  service: 1
latitude: 37.8719373844
longitude: -122.2661264
altitude: 64.2391914884
position_covariance: [1.0452229328720581, 0.0, 0.0, 0.0, 1.0433493364925253, 0.0, 0.0, 0.0, 1.0386494051921384]
position_covariance_type: 2
---
header: 
  seq: 12958
  stamp: 
    secs: 1574452105
    nsecs: 868694067
  frame_id: "odom"
status: 
  status: 2
  service: 1
latitude: 37.8719348078
longitude: -122.266126108
altitude: 64.2415890554
position_covariance: [1.0452229328720581, 0.0, 0.0, 0.0, 1.0433493364925253, 0.0, 0.0, 0.0, 1.0386494051921384]
position_covariance_type: 2
---
header: 
  seq: 12959
  stamp: 
    secs: 1574452105
    nsecs: 966557979
  frame_id: "odom"
status: 
  status: 2
  service: 1
latitude: 37.8719296806
longitude: -122.266125519
altitude: 64.2458537091
position_covariance: [1.0452229328720581, 0.0, 0.0, 0.0, 1.0433493364925253, 0.0, 0.0, 0.0, 1.0386494051921384]
position_covariance_type: 2
---
header: 
  seq: 12960
  stamp: 
    secs: 1574452106
    nsecs:  19939899
  frame_id: "odom"
status: 
  status: 2
  service: 1
latitude: 37.8719271307
longitude: -122.266125226
altitude: 64.248308829
position_covariance: [1.0452229328720581, 0.0, 0.0, 0.0, 1.0433493364925253, 0.0, 0.0, 0.0, 1.0386494051921384]
position_covariance_type: 2
---
header: 
  seq: 12961
  stamp: 
    secs: 1574452106
    nsecs: 118371963
  frame_id: "odom"
status: 
  status: 2
  service: 1
latitude: 37.8719220393
longitude: -122.266124646
altitude: 64.2533835517
position_covariance: [1.054710437099925, 0.0, 0.0, 0.0, 1.0533565556430042, 0.0, 0.0, 0.0, 1.0438690465574323]
position_covariance_type: 2
---
header: 
  seq: 12962
  stamp: 
    secs: 1574452106
    nsecs: 171792030
  frame_id: "odom"
status: 
  status: 2
  service: 1
latitude: 37.8719195008
longitude: -122.266124356
altitude: 64.2560952408
position_covariance: [1.054710437099925, 0.0, 0.0, 0.0, 1.0533565556430042, 0.0, 0.0, 0.0, 1.0438690465574323]
position_covariance_type: 2
---
header: 
  seq: 12963
  stamp: 
    secs: 1574452106
    nsecs: 225238084
  frame_id: "odom"
status: 
  status: 2
  service: 1
latitude: 37.8719169675
longitude: -122.266124068
altitude: 64.258722052
position_covariance: [1.054710437099925, 0.0, 0.0, 0.0, 1.0533565556430042, 0.0, 0.0, 0.0, 1.0438690465574323]
position_covariance_type: 2
---
header: 
  seq: 12964
  stamp: 
    secs: 1574452106
    nsecs: 278621912
  frame_id: "odom"
status: 
  status: 2
  service: 1
latitude: 37.8719144444
longitude: -122.266123774
altitude: 64.2612254266
position_covariance: [1.054710437099925, 0.0, 0.0, 0.0, 1.0533565556430042, 0.0, 0.0, 0.0, 1.0438690465574323]
position_covariance_type: 2
---
header: 
  seq: 12965
  stamp: 
    secs: 1574452106
    nsecs: 332144021
  frame_id: "odom"
status: 
  status: 2
  service: 1
latitude: 37.8719119291
longitude: -122.266123479
altitude: 64.263492479
position_covariance: [1.054710437099925, 0.0, 0.0, 0.0, 1.0533565556430042, 0.0, 0.0, 0.0, 1.0438690465574323]
position_covariance_type: 2
---
header: 
  seq: 12966
  stamp: 
    secs: 1574452106
    nsecs: 385575056
  frame_id: "odom"
status: 
  status: 2
  service: 1
latitude: 37.8719094221
longitude: -122.266123191
altitude: 64.2661328632
position_covariance: [1.054710437099925, 0.0, 0.0, 0.0, 1.0533565556430042, 0.0, 0.0, 0.0, 1.0438690465574323]
position_covariance_type: 2
---
header: 
  seq: 12967
  stamp: 
    secs: 1574452106
    nsecs: 416294097
  frame_id: "odom"
status: 
  status: 2
  service: 1
latitude: 37.8719069204
longitude: -122.266122907
altitude: 64.268671033
position_covariance: [1.054710437099925, 0.0, 0.0, 0.0, 1.0533565556430042, 0.0, 0.0, 0.0, 1.0438690465574323]
position_covariance_type: 2
---
header: 
  seq: 12968
  stamp: 
    secs: 1574452106
    nsecs: 469791889
  frame_id: "odom"
status: 
  status: 2
  service: 1
latitude: 37.8719044251
longitude: -122.266122618
altitude: 64.2710533738
position_covariance: [1.054710437099925, 0.0, 0.0, 0.0, 1.0533565556430042, 0.0, 0.0, 0.0, 1.0438690465574323]
position_covariance_type: 2
---
header: 
  seq: 12969
  stamp: 
    secs: 1574452106
    nsecs: 568449020
  frame_id: "odom"
status: 
  status: 2
  service: 1
latitude: 37.8718994491
longitude: -122.266122052
altitude: 64.2763525834
position_covariance: [1.054710437099925, 0.0, 0.0, 0.0, 1.0533565556430042, 0.0, 0.0, 0.0, 1.0438690465574323]
position_covariance_type: 2
---
header: 
  seq: 12970
  stamp: 
    secs: 1574452106
    nsecs: 652621030
  frame_id: "odom"
status: 
  status: 2
  service: 1
latitude: 37.8718945071
longitude: -122.266121467
altitude: 64.2807594677
position_covariance: [1.054710437099925, 0.0, 0.0, 0.0, 1.0533565556430042, 0.0, 0.0, 0.0, 1.0438690465574323]
position_covariance_type: 2
---
header: 
  seq: 12971
  stamp: 
    secs: 1574452106
    nsecs: 705924034
  frame_id: "odom"
status: 
  status: 2
  service: 1
latitude: 37.8718920488
longitude: -122.266121179
altitude: 64.2830561381
position_covariance: [1.054710437099925, 0.0, 0.0, 0.0, 1.0533565556430042, 0.0, 0.0, 0.0, 1.0438690465574323]
position_covariance_type: 2
---
header: 
  seq: 12972
  stamp: 
    secs: 1574452106
    nsecs: 759471893
  frame_id: "odom"
status: 
  status: 2
  service: 1
latitude: 37.8718895965
longitude: -122.266120893
altitude: 64.285388954
position_covariance: [1.054710437099925, 0.0, 0.0, 0.0, 1.0533565556430042, 0.0, 0.0, 0.0, 1.0438690465574323]
position_covariance_type: 2
---
header: 
  seq: 12973
  stamp: 
    secs: 1574452106
    nsecs: 812798023
  frame_id: "odom"
status: 
  status: 2
  service: 1
latitude: 37.8718871518
longitude: -122.266120604
altitude: 64.2876680009
position_covariance: [1.054710437099925, 0.0, 0.0, 0.0, 1.0533565556430042, 0.0, 0.0, 0.0, 1.0438690465574323]
position_covariance_type: 2
---
header: 
  seq: 12974
  stamp: 
    secs: 1574452106
    nsecs: 852670907
  frame_id: "odom"
status: 
  status: 2
  service: 1
latitude: 37.8718847139
longitude: -122.26612032
altitude: 64.2901988719
position_covariance: [1.054710437099925, 0.0, 0.0, 0.0, 1.0533565556430042, 0.0, 0.0, 0.0, 1.0438690465574323]
position_covariance_type: 2
---
header: 
  seq: 12975
  stamp: 
    secs: 1574452106
    nsecs: 905962944
  frame_id: "odom"
status: 
  status: 2
  service: 1
latitude: 37.8718822828
longitude: -122.266120037
altitude: 64.2927798582
position_covariance: [1.054710437099925, 0.0, 0.0, 0.0, 1.0533565556430042, 0.0, 0.0, 0.0, 1.0438690465574323]
position_covariance_type: 2
---
header: 
  seq: 12976
  stamp: 
    secs: 1574452106
    nsecs: 959459066
  frame_id: "odom"
status: 
  status: 2
  service: 1
latitude: 37.8718798605
longitude: -122.26611975
altitude: 64.2950176541
position_covariance: [1.054710437099925, 0.0, 0.0, 0.0, 1.0533565556430042, 0.0, 0.0, 0.0, 1.0438690465574323]
position_covariance_type: 2
---
header: 
  seq: 12977
  stamp: 
    secs: 1574452107
    nsecs:  12887001
  frame_id: "odom"
status: 
  status: 2
  service: 1
latitude: 37.8718774465
longitude: -122.26611946
altitude: 64.2971056588
position_covariance: [1.054710437099925, 0.0, 0.0, 0.0, 1.0533565556430042, 0.0, 0.0, 0.0, 1.0438690465574323]
position_covariance_type: 2
---
header: 
  seq: 12978
  stamp: 
    secs: 1574452107
    nsecs:  66463947
  frame_id: "odom"
status: 
  status: 2
  service: 1
latitude: 37.8718750379
longitude: -122.266119175
altitude: 64.2992936159
position_covariance: [1.0640718562458515, 0.0, 0.0, 0.0, 1.0647942031143822, 0.0, 0.0, 0.0, 1.0494475497291562]
position_covariance_type: 2
---
header: 
  seq: 12979
  stamp: 
    secs: 1574452107
    nsecs: 119837999
  frame_id: "odom"
status: 
  status: 2
  service: 1
latitude: 37.8718726362
longitude: -122.266118894
altitude: 64.3016113043
position_covariance: [1.0640718562458515, 0.0, 0.0, 0.0, 1.0647942031143822, 0.0, 0.0, 0.0, 1.0494475497291562]
position_covariance_type: 2
---
header: 
  seq: 12980
  stamp: 
    secs: 1574452107
    nsecs: 173861980
  frame_id: "odom"
status: 
  status: 2
  service: 1
latitude: 37.8718702407
longitude: -122.266118611
altitude: 64.3038200261
position_covariance: [1.0640718562458515, 0.0, 0.0, 0.0, 1.0647942031143822, 0.0, 0.0, 0.0, 1.0494475497291562]
position_covariance_type: 2
---
header: 
  seq: 12981
  stamp: 
    secs: 1574452107
    nsecs: 227330923
  frame_id: "odom"
status: 
  status: 2
  service: 1
latitude: 37.8718678511
longitude: -122.266118328
altitude: 64.3059924776
position_covariance: [1.0640718562458515, 0.0, 0.0, 0.0, 1.0647942031143822, 0.0, 0.0, 0.0, 1.0494475497291562]
position_covariance_type: 2
---
header: 
  seq: 12982
  stamp: 
    secs: 1574452107
    nsecs: 280704975
  frame_id: "odom"
status: 
  status: 2
  service: 1
latitude: 37.8718654683
longitude: -122.266118049
altitude: 64.3084462984
position_covariance: [1.0640718562458515, 0.0, 0.0, 0.0, 1.0647942031143822, 0.0, 0.0, 0.0, 1.0494475497291562]
position_covariance_type: 2
---
header: 
  seq: 12983
  stamp: 
    secs: 1574452107
    nsecs: 334139108
  frame_id: "odom"
status: 
  status: 2
  service: 1
latitude: 37.8718630925
longitude: -122.266117766
altitude: 64.3106472371
position_covariance: [1.0640718562458515, 0.0, 0.0, 0.0, 1.0647942031143822, 0.0, 0.0, 0.0, 1.0494475497291562]
position_covariance_type: 2
---
header: 
  seq: 12984
  stamp: 
    secs: 1574452107
    nsecs: 365027904
  frame_id: "odom"
status: 
  status: 2
  service: 1
latitude: 37.8718607247
longitude: -122.266117479
altitude: 64.3128492227
position_covariance: [1.0640718562458515, 0.0, 0.0, 0.0, 1.0647942031143822, 0.0, 0.0, 0.0, 1.0494475497291562]
position_covariance_type: 2
---
header: 
  seq: 12985
  stamp: 
    secs: 1574452107
    nsecs: 418368101
  frame_id: "odom"
status: 
  status: 2
  service: 1
latitude: 37.8718583634
longitude: -122.266117197
altitude: 64.3151902454
position_covariance: [1.0640718562458515, 0.0, 0.0, 0.0, 1.0647942031143822, 0.0, 0.0, 0.0, 1.0494475497291562]
position_covariance_type: 2
---
header: 
  seq: 12986
  stamp: 
    secs: 1574452107
    nsecs: 471942901
  frame_id: "odom"
status: 
  status: 2
  service: 1
latitude: 37.871856009
longitude: -122.266116918
altitude: 64.3177678669
position_covariance: [1.0640718562458515, 0.0, 0.0, 0.0, 1.0647942031143822, 0.0, 0.0, 0.0, 1.0494475497291562]
position_covariance_type: 2
---
header: 
  seq: 12987
  stamp: 
    secs: 1574452107
    nsecs: 525361061
  frame_id: "odom"
status: 
  status: 2
  service: 1
latitude: 37.8718536603
longitude: -122.266116638
altitude: 64.3200969538
position_covariance: [1.0640718562458515, 0.0, 0.0, 0.0, 1.0647942031143822, 0.0, 0.0, 0.0, 1.0494475497291562]
position_covariance_type: 2
---
header: 
  seq: 12988
  stamp: 
    secs: 1574452107
    nsecs: 578766107
  frame_id: "odom"
status: 
  status: 2
  service: 1
latitude: 37.8718513182
longitude: -122.266116361
altitude: 64.3225264642
position_covariance: [1.0640718562458515, 0.0, 0.0, 0.0, 1.0647942031143822, 0.0, 0.0, 0.0, 1.0494475497291562]
position_covariance_type: 2
---
header: 
  seq: 12989
  stamp: 
    secs: 1574452107
    nsecs: 632170915
  frame_id: "odom"
status: 
  status: 2
  service: 1
latitude: 37.8718489812
longitude: -122.266116091
altitude: 64.3251663856
position_covariance: [1.0640718562458515, 0.0, 0.0, 0.0, 1.0647942031143822, 0.0, 0.0, 0.0, 1.0494475497291562]
position_covariance_type: 2
---
header: 
  seq: 12990
  stamp: 
    secs: 1574452107
    nsecs: 662998914
  frame_id: "odom"
status: 
  status: 2
  service: 1
latitude: 37.8718466492
longitude: -122.266115821
altitude: 64.3274208829
position_covariance: [1.0640718562458515, 0.0, 0.0, 0.0, 1.0647942031143822, 0.0, 0.0, 0.0, 1.0494475497291562]
position_covariance_type: 2
---
header: 
  seq: 12991
  stamp: 
    secs: 1574452107
    nsecs: 716386079
  frame_id: "odom"
status: 
  status: 2
  service: 1
latitude: 37.8718443242
longitude: -122.266115546
altitude: 64.3293672614
position_covariance: [1.0640718562458515, 0.0, 0.0, 0.0, 1.0647942031143822, 0.0, 0.0, 0.0, 1.0494475497291562]
position_covariance_type: 2
---
header: 
  seq: 12992
  stamp: 
    secs: 1574452107
    nsecs: 769916057
  frame_id: "odom"
status: 
  status: 2
  service: 1
latitude: 37.8718420047
longitude: -122.266115274
altitude: 64.3313709805
position_covariance: [1.0640718562458515, 0.0, 0.0, 0.0, 1.0647942031143822, 0.0, 0.0, 0.0, 1.0494475497291562]
position_covariance_type: 2
---
header: 
  seq: 12993
  stamp: 
    secs: 1574452107
    nsecs: 824179887
  frame_id: "odom"
status: 
  status: 2
  service: 1
latitude: 37.8718396897
longitude: -122.266115007
altitude: 64.3335801866
position_covariance: [1.0640718562458515, 0.0, 0.0, 0.0, 1.0647942031143822, 0.0, 0.0, 0.0, 1.0494475497291562]
position_covariance_type: 2
---
header: 
  seq: 12994
  stamp: 
    secs: 1574452107
    nsecs: 921961069
  frame_id: "odom"
status: 
  status: 2
  service: 1
latitude: 37.87183507
longitude: -122.266114476
altitude: 64.33774867
position_covariance: [1.0640718562458515, 0.0, 0.0, 0.0, 1.0647942031143822, 0.0, 0.0, 0.0, 1.0494475497291562]
position_covariance_type: 2
---
header: 
  seq: 12995
  stamp: 
    secs: 1574452107
    nsecs: 972749948
  frame_id: "odom"
status: 
  status: 2
  service: 1
latitude: 37.871832763
longitude: -122.266114215
altitude: 64.3399739666
position_covariance: [1.0640718562458515, 0.0, 0.0, 0.0, 1.0647942031143822, 0.0, 0.0, 0.0, 1.0494475497291562]
position_covariance_type: 2
---
header: 
  seq: 12996
  stamp: 
    secs: 1574452108
    nsecs:  26272058
  frame_id: "odom"
status: 
  status: 2
  service: 1
latitude: 37.8718304565
longitude: -122.266113959
altitude: 64.3424219387
position_covariance: [1.0640718562458515, 0.0, 0.0, 0.0, 1.0647942031143822, 0.0, 0.0, 0.0, 1.0494475497291562]
position_covariance_type: 2
---
header: 
  seq: 12997
  stamp: 
    secs: 1574452108
    nsecs:  79910993
  frame_id: "odom"
status: 
  status: 2
  service: 1
latitude: 37.8718281456
longitude: -122.266113697
altitude: 64.3444247572
position_covariance: [1.0719853482446984, 0.0, 0.0, 0.0, 1.0763699017150312, 0.0, 0.0, 0.0, 1.0553365034951414]
position_covariance_type: 2
---
header: 
  seq: 12998
  stamp: 
    secs: 1574452108
    nsecs: 177803039
  frame_id: "odom"
status: 
  status: 2
  service: 1
latitude: 37.8718235174
longitude: -122.266113174
altitude: 64.3481911235
position_covariance: [1.0719853482446984, 0.0, 0.0, 0.0, 1.0763699017150312, 0.0, 0.0, 0.0, 1.0553365034951414]
position_covariance_type: 2
---
header: 
  seq: 12999
  stamp: 
    secs: 1574452108
    nsecs: 217452049
  frame_id: "odom"
status: 
  status: 2
  service: 1
latitude: 37.8718211993
longitude: -122.266112916
altitude: 64.3499598382
position_covariance: [1.0719853482446984, 0.0, 0.0, 0.0, 1.0763699017150312, 0.0, 0.0, 0.0, 1.0553365034951414]
position_covariance_type: 2
---
header: 
  seq: 13000
  stamp: 
    secs: 1574452108
    nsecs: 271012067
  frame_id: "odom"
status: 
  status: 2
  service: 1
latitude: 37.8718188784
longitude: -122.266112657
altitude: 64.3516297629
position_covariance: [1.0719853482446984, 0.0, 0.0, 0.0, 1.0763699017150312, 0.0, 0.0, 0.0, 1.0553365034951414]
position_covariance_type: 2
---
header: 
  seq: 13001
  stamp: 
    secs: 1574452108
    nsecs: 324446916
  frame_id: "odom"
status: 
  status: 2
  service: 1
latitude: 37.8718165533
longitude: -122.266112395
altitude: 64.3532199869
position_covariance: [1.0719853482446984, 0.0, 0.0, 0.0, 1.0763699017150312, 0.0, 0.0, 0.0, 1.0553365034951414]
position_covariance_type: 2
---
header: 
  seq: 13002
  stamp: 
    secs: 1574452108
    nsecs: 377798080
  frame_id: "odom"
status: 
  status: 2
  service: 1
latitude: 37.8718142255
longitude: -122.266112133
altitude: 64.3550196066
position_covariance: [1.0719853482446984, 0.0, 0.0, 0.0, 1.0763699017150312, 0.0, 0.0, 0.0, 1.0553365034951414]
position_covariance_type: 2
---
header: 
  seq: 13003
  stamp: 
    secs: 1574452108
    nsecs: 423346996
  frame_id: "odom"
status: 
  status: 2
  service: 1
latitude: 37.8718118965
longitude: -122.266111871
altitude: 64.3567541633
position_covariance: [1.0719853482446984, 0.0, 0.0, 0.0, 1.0763699017150312, 0.0, 0.0, 0.0, 1.0553365034951414]
position_covariance_type: 2
---
header: 
  seq: 13004
  stamp: 
    secs: 1574452108
    nsecs: 476713895
  frame_id: "odom"
status: 
  status: 2
  service: 1
latitude: 37.8718095674
longitude: -122.266111606
altitude: 64.3583081691
position_covariance: [1.0719853482446984, 0.0, 0.0, 0.0, 1.0763699017150312, 0.0, 0.0, 0.0, 1.0553365034951414]
position_covariance_type: 2
---
header: 
  seq: 13005
  stamp: 
    secs: 1574452108
    nsecs: 530214071
  frame_id: "odom"
status: 
  status: 2
  service: 1
latitude: 37.8718072349
longitude: -122.266111347
altitude: 64.3601399306
position_covariance: [1.0719853482446984, 0.0, 0.0, 0.0, 1.0763699017150312, 0.0, 0.0, 0.0, 1.0553365034951414]
position_covariance_type: 2
---
header: 
  seq: 13006
  stamp: 
    secs: 1574452108
    nsecs: 583672046
  frame_id: "odom"
status: 
  status: 2
  service: 1
latitude: 37.8718048994
longitude: -122.266111092
altitude: 64.3620545836
position_covariance: [1.0719853482446984, 0.0, 0.0, 0.0, 1.0763699017150312, 0.0, 0.0, 0.0, 1.0553365034951414]
position_covariance_type: 2
---
header: 
  seq: 13007
  stamp: 
    secs: 1574452108
    nsecs: 637722969
  frame_id: "odom"
status: 
  status: 2
  service: 1
latitude: 37.8718025613
longitude: -122.266110841
altitude: 64.3639205629
position_covariance: [1.0719853482446984, 0.0, 0.0, 0.0, 1.0763699017150312, 0.0, 0.0, 0.0, 1.0553365034951414]
position_covariance_type: 2
---
header: 
  seq: 13008
  stamp: 
    secs: 1574452108
    nsecs: 677258014
  frame_id: "odom"
status: 
  status: 2
  service: 1
latitude: 37.8718002215
longitude: -122.26611059
altitude: 64.3657201631
position_covariance: [1.0719853482446984, 0.0, 0.0, 0.0, 1.0763699017150312, 0.0, 0.0, 0.0, 1.0553365034951414]
position_covariance_type: 2
---
header: 
  seq: 13009
  stamp: 
    secs: 1574452108
    nsecs: 730817079
  frame_id: "odom"
status: 
  status: 2
  service: 1
latitude: 37.8717978786
longitude: -122.266110338
altitude: 64.3675070377
position_covariance: [1.0719853482446984, 0.0, 0.0, 0.0, 1.0763699017150312, 0.0, 0.0, 0.0, 1.0553365034951414]
position_covariance_type: 2
---
header: 
  seq: 13010
  stamp: 
    secs: 1574452108
    nsecs: 784147977
  frame_id: "odom"
status: 
  status: 2
  service: 1
latitude: 37.8717955315
longitude: -122.26611009
altitude: 64.369259635
position_covariance: [1.0719853482446984, 0.0, 0.0, 0.0, 1.0763699017150312, 0.0, 0.0, 0.0, 1.0553365034951414]
position_covariance_type: 2
---
header: 
  seq: 13011
  stamp: 
    secs: 1574452108
    nsecs: 837836027
  frame_id: "odom"
status: 
  status: 2
  service: 1
