header: 
  seq: 20398
  stamp: 
    secs: 1574452571
    nsecs: 299213886
  frame_id: "odom"
status: 
  status: 2
  service: 1
latitude: 37.8707977994
longitude: -122.270646795
altitude: 56.5854825033
position_covariance: [1.2838136838106462, 0.0, 0.0, 0.0, 1.2661169049834093, 0.0, 0.0, 0.0, 1.624656535825443]
position_covariance_type: 2
---
header: 
  seq: 20399
  stamp: 
    secs: 1574452571
    nsecs: 344825029
  frame_id: "odom"
status: 
  status: 2
  service: 1
latitude: 37.8707950431
longitude: -122.270646526
altitude: 56.5826441413
position_covariance: [1.2838136838106462, 0.0, 0.0, 0.0, 1.2661169049834093, 0.0, 0.0, 0.0, 1.624656535825443]
position_covariance_type: 2
---
header: 
  seq: 20400
  stamp: 
    secs: 1574452571
    nsecs: 398088932
  frame_id: "odom"
status: 
  status: 2
  service: 1
latitude: 37.8707922829
longitude: -122.270646253
altitude: 56.579949405
position_covariance: [1.2838136838106462, 0.0, 0.0, 0.0, 1.2661169049834093, 0.0, 0.0, 0.0, 1.624656535825443]
position_covariance_type: 2
---
header: 
  seq: 20401
  stamp: 
    secs: 1574452571
    nsecs: 451667070
  frame_id: "odom"
status: 
  status: 2
  service: 1
latitude: 37.8707895251
longitude: -122.270645968
altitude: 56.5775222313
position_covariance: [1.2838137103308938, 0.0, 0.0, 0.0, 1.2661169049834093, 0.0, 0.0, 0.0, 1.624656535825443]
position_covariance_type: 2
---
header: 
  seq: 20402
  stamp: 
    secs: 1574452571
    nsecs: 505047082
  frame_id: "odom"
status: 
  status: 2
  service: 1
latitude: 37.8707867712
longitude: -122.270645672
altitude: 56.5755069405
position_covariance: [1.2838137103308938, 0.0, 0.0, 0.0, 1.2661169049834093, 0.0, 0.0, 0.0, 1.624656535825443]
position_covariance_type: 2
---
header: 
  seq: 20403
  stamp: 
    secs: 1574452571
    nsecs: 558495998
  frame_id: "odom"
status: 
  status: 2
  service: 1
latitude: 37.8707840246
longitude: -122.270645357
altitude: 56.573691152
position_covariance: [1.2838137103308938, 0.0, 0.0, 0.0, 1.2661169049834093, 0.0, 0.0, 0.0, 1.624656535825443]
position_covariance_type: 2
---
header: 
  seq: 20404
  stamp: 
    secs: 1574452571
    nsecs: 611859083
  frame_id: "odom"
status: 
  status: 2
  service: 1
latitude: 37.8707812852
longitude: -122.270645017
altitude: 56.571540961
position_covariance: [1.2838137103308938, 0.0, 0.0, 0.0, 1.2661169049834093, 0.0, 0.0, 0.0, 1.624656535825443]
position_covariance_type: 2
---
header: 
  seq: 20405
  stamp: 
    secs: 1574452571
    nsecs: 665363073
  frame_id: "odom"
status: 
  status: 2
  service: 1
latitude: 37.8707785483
longitude: -122.270644665
altitude: 56.5703119868
position_covariance: [1.2838137103308938, 0.0, 0.0, 0.0, 1.2661169049834093, 0.0, 0.0, 0.0, 1.624656535825443]
position_covariance_type: 2
---
header: 
  seq: 20406
  stamp: 
    secs: 1574452571
    nsecs: 710720062
  frame_id: "odom"
status: 
  status: 2
  service: 1
latitude: 37.8707758121
longitude: -122.270644317
altitude: 56.5693554897
position_covariance: [1.2838137103308938, 0.0, 0.0, 0.0, 1.2661169049834093, 0.0, 0.0, 0.0, 1.624656535825443]
position_covariance_type: 2
---
header: 
  seq: 20407
  stamp: 
    secs: 1574452571
    nsecs: 764322996
  frame_id: "odom"
status: 
  status: 2
  service: 1
latitude: 37.8707730759
longitude: -122.270643986
altitude: 56.5685282694
position_covariance: [1.2838137103308938, 0.0, 0.0, 0.0, 1.2661169049834093, 0.0, 0.0, 0.0, 1.624656535825443]
position_covariance_type: 2
---
header: 
  seq: 20408
  stamp: 
    secs: 1574452571
    nsecs: 794996976
  frame_id: "odom"
status: 
  status: 2
  service: 1
latitude: 37.8707703395
longitude: -122.27064367
altitude: 56.5677882861
position_covariance: [1.2838137103308938, 0.0, 0.0, 0.0, 1.2661169049834093, 0.0, 0.0, 0.0, 1.624656535825443]
position_covariance_type: 2
---
header: 
  seq: 20409
  stamp: 
    secs: 1574452571
    nsecs: 848480939
  frame_id: "odom"
status: 
  status: 2
  service: 1
latitude: 37.870767603
longitude: -122.270643343
altitude: 56.5658135768
position_covariance: [1.2838137103308938, 0.0, 0.0, 0.0, 1.2661169049834093, 0.0, 0.0, 0.0, 1.624656535825443]
position_covariance_type: 2
---
header: 
  seq: 20410
  stamp: 
    secs: 1574452571
    nsecs: 901873111
  frame_id: "odom"
status: 
  status: 2
  service: 1
latitude: 37.8707648666
longitude: -122.270643015
altitude: 56.5645322613
position_covariance: [1.2838137103308938, 0.0, 0.0, 0.0, 1.2661169049834093, 0.0, 0.0, 0.0, 1.624656535825443]
position_covariance_type: 2
---
header: 
  seq: 20411
  stamp: 
    secs: 1574452571
    nsecs: 947318077
  frame_id: "odom"
status: 
  status: 2
  service: 1
latitude: 37.8707621241
longitude: -122.270642694
altitude: 56.5639098994
position_covariance: [1.2838137103308938, 0.0, 0.0, 0.0, 1.2661169049834093, 0.0, 0.0, 0.0, 1.624656535825443]
position_covariance_type: 2
---
header: 
  seq: 20412
  stamp: 
    secs: 1574452572
    nsecs:    720977
  frame_id: "odom"
status: 
  status: 2
  service: 1
latitude: 37.8707593787
longitude: -122.270642353
altitude: 56.5630624052
position_covariance: [1.2838137103308938, 0.0, 0.0, 0.0, 1.2661169049834093, 0.0, 0.0, 0.0, 1.624656535825443]
position_covariance_type: 2
---
header: 
  seq: 20413
  stamp: 
    secs: 1574452572
    nsecs:  54244995
  frame_id: "odom"
status: 
  status: 2
  service: 1
latitude: 37.8707566388
longitude: -122.270641997
altitude: 56.5624781363
position_covariance: [1.2853249006481602, 0.0, 0.0, 0.0, 1.2751619889488466, 0.0, 0.0, 0.0, 1.6421698482751537]
position_covariance_type: 2
---
header: 
  seq: 20414
  stamp: 
    secs: 1574452572
    nsecs: 107624053
  frame_id: "odom"
status: 
  status: 2
  service: 1
latitude: 37.8707538977
longitude: -122.27064163
altitude: 56.5619377578
position_covariance: [1.2853249006481602, 0.0, 0.0, 0.0, 1.2751619889488466, 0.0, 0.0, 0.0, 1.6421698482751537]
position_covariance_type: 2
---
header: 
  seq: 20415
  stamp: 
    secs: 1574452572
    nsecs: 161160945
  frame_id: "odom"
status: 
  status: 2
  service: 1
latitude: 37.8707511524
longitude: -122.270641262
altitude: 56.5617780769
position_covariance: [1.2853249006481602, 0.0, 0.0, 0.0, 1.2751619889488466, 0.0, 0.0, 0.0, 1.6421698482751537]
position_covariance_type: 2
---
header: 
  seq: 20416
  stamp: 
    secs: 1574452572
    nsecs: 214653015
  frame_id: "odom"
status: 
  status: 2
  service: 1
latitude: 37.8707484033
longitude: -122.270640906
altitude: 56.5615016669
position_covariance: [1.2853249006481602, 0.0, 0.0, 0.0, 1.2751619889488466, 0.0, 0.0, 0.0, 1.6421698482751537]
position_covariance_type: 2
---
header: 
  seq: 20417
  stamp: 
    secs: 1574452572
    nsecs: 245358943
  frame_id: "odom"
status: 
  status: 2
  service: 1
latitude: 37.8707456484
longitude: -122.270640565
altitude: 56.5611482402
position_covariance: [1.2853249006481602, 0.0, 0.0, 0.0, 1.2751619889488466, 0.0, 0.0, 0.0, 1.6421698482751537]
position_covariance_type: 2
---
header: 
  seq: 20418
  stamp: 
    secs: 1574452572
    nsecs: 343229055
  frame_id: "odom"
status: 
  status: 2
  service: 1
latitude: 37.8707401138
longitude: -122.27063993
altitude: 56.5611836687
position_covariance: [1.2853249006481602, 0.0, 0.0, 0.0, 1.2751619889488466, 0.0, 0.0, 0.0, 1.6421698482751537]
position_covariance_type: 2
---
header: 
  seq: 20419
  stamp: 
    secs: 1574452572
    nsecs: 396667003
  frame_id: "odom"
status: 
  status: 2
  service: 1
latitude: 37.8707373364
longitude: -122.270639626
altitude: 56.5614789734
position_covariance: [1.2853249006481602, 0.0, 0.0, 0.0, 1.2751619889488466, 0.0, 0.0, 0.0, 1.6421698482751537]
position_covariance_type: 2
---
header: 
  seq: 20420
  stamp: 
    secs: 1574452572
    nsecs: 494426012
  frame_id: "odom"
status: 
  status: 2
  service: 1
latitude: 37.8707317674
longitude: -122.270639018
altitude: 56.5620906232
position_covariance: [1.2853249271996254, 0.0, 0.0, 0.0, 1.2751619889488466, 0.0, 0.0, 0.0, 1.6421698482751537]
position_covariance_type: 2
---
header: 
  seq: 20421
  stamp: 
    secs: 1574452572
    nsecs: 547930002
  frame_id: "odom"
status: 
  status: 2
  service: 1
latitude: 37.8707289823
longitude: -122.270638713
altitude: 56.5625493722
position_covariance: [1.2853249271996254, 0.0, 0.0, 0.0, 1.2751619889488466, 0.0, 0.0, 0.0, 1.6421698482751537]
position_covariance_type: 2
---
header: 
  seq: 20422
  stamp: 
    secs: 1574452572
    nsecs: 645725011
  frame_id: "odom"
status: 
  status: 2
  service: 1
latitude: 37.870723403
longitude: -122.270638112
altitude: 56.564166938
position_covariance: [1.2853249271996254, 0.0, 0.0, 0.0, 1.2751619889488466, 0.0, 0.0, 0.0, 1.6421698482751537]
position_covariance_type: 2
---
header: 
  seq: 20423
  stamp: 
    secs: 1574452572
    nsecs: 699198961
  frame_id: "odom"
status: 
  status: 2
  service: 1
latitude: 37.8707206087
longitude: -122.270637818
altitude: 56.5650270563
position_covariance: [1.2853249271996254, 0.0, 0.0, 0.0, 1.2751619889488466, 0.0, 0.0, 0.0, 1.6421698482751537]
position_covariance_type: 2
---
header: 
  seq: 20424
  stamp: 
    secs: 1574452572
    nsecs: 752698898
  frame_id: "odom"
status: 
  status: 2
  service: 1
latitude: 37.8707178147
longitude: -122.270637525
altitude: 56.5657288684
position_covariance: [1.2853249271996254, 0.0, 0.0, 0.0, 1.2751619889488466, 0.0, 0.0, 0.0, 1.6421698482751537]
position_covariance_type: 2
---
header: 
  seq: 20425
  stamp: 
    secs: 1574452572
    nsecs: 806169033
  frame_id: "odom"
status: 
  status: 2
  service: 1
latitude: 37.8707150204
longitude: -122.270637233
altitude: 56.5656953678
position_covariance: [1.2853249271996254, 0.0, 0.0, 0.0, 1.2751619889488466, 0.0, 0.0, 0.0, 1.6421698482751537]
position_covariance_type: 2
---
header: 
  seq: 20426
  stamp: 
    secs: 1574452572
    nsecs: 859544038
  frame_id: "odom"
status: 
  status: 2
  service: 1
latitude: 37.8707122297
longitude: -122.270636933
altitude: 56.5653428538
position_covariance: [1.2853249271996254, 0.0, 0.0, 0.0, 1.275161962607321, 0.0, 0.0, 0.0, 1.6421698482751537]
position_covariance_type: 2
---
header: 
  seq: 20427
  stamp: 
    secs: 1574452572
    nsecs: 913002014
  frame_id: "odom"
status: 
  status: 2
  service: 1
latitude: 37.8707094406
longitude: -122.270636641
altitude: 56.565891955
position_covariance: [1.2853249271996254, 0.0, 0.0, 0.0, 1.275161962607321, 0.0, 0.0, 0.0, 1.6421698482751537]
position_covariance_type: 2
---
header: 
  seq: 20428
  stamp: 
    secs: 1574452572
    nsecs: 943883895
  frame_id: "odom"
status: 
  status: 2
  service: 1
latitude: 37.870706654
longitude: -122.27063636
altitude: 56.5672141397
position_covariance: [1.2853249271996254, 0.0, 0.0, 0.0, 1.275161962607321, 0.0, 0.0, 0.0, 1.6421698482751537]
position_covariance_type: 2
---
header: 
  seq: 20429
  stamp: 
    secs: 1574452572
    nsecs: 985174894
  frame_id: "odom"
status: 
  status: 2
  service: 1
latitude: 37.870703873
longitude: -122.270636069
altitude: 56.568404872
position_covariance: [1.2853249271996254, 0.0, 0.0, 0.0, 1.275161962607321, 0.0, 0.0, 0.0, 1.6421698482751537]
position_covariance_type: 2
---
header: 
  seq: 20430
  stamp: 
    secs: 1574452573
    nsecs:  38691997
  frame_id: "odom"
status: 
  status: 2
  service: 1
latitude: 37.8707010877
longitude: -122.270635821
altitude: 56.5678128544
position_covariance: [1.2876761097523153, 0.0, 0.0, 0.0, 1.2838642589184466, 0.0, 0.0, 0.0, 1.6579050849368973]
position_covariance_type: 2
---
header: 
  seq: 20431
  stamp: 
    secs: 1574452573
    nsecs:  91994047
  frame_id: "odom"
status: 
  status: 2
  service: 1
latitude: 37.8706983163
longitude: -122.270635593
altitude: 56.5662458409
position_covariance: [1.2876761097523153, 0.0, 0.0, 0.0, 1.2838642589184466, 0.0, 0.0, 0.0, 1.6579050849368973]
position_covariance_type: 2
---
header: 
  seq: 20432
  stamp: 
    secs: 1574452573
    nsecs: 145509004
  frame_id: "odom"
status: 
  status: 2
  service: 1
latitude: 37.870695556
longitude: -122.270635363
altitude: 56.5647608042
position_covariance: [1.2876761097523153, 0.0, 0.0, 0.0, 1.2838642589184466, 0.0, 0.0, 0.0, 1.6579050849368973]
position_covariance_type: 2
---
header: 
  seq: 20433
  stamp: 
    secs: 1574452573
    nsecs: 198848962
  frame_id: "odom"
status: 
  status: 2
  service: 1
latitude: 37.8706928038
longitude: -122.270635127
altitude: 56.5630516205
position_covariance: [1.2876761097523153, 0.0, 0.0, 0.0, 1.2838642589184466, 0.0, 0.0, 0.0, 1.6579050849368973]
position_covariance_type: 2
---
header: 
  seq: 20434
  stamp: 
    secs: 1574452573
    nsecs: 288639068
  frame_id: "odom"
status: 
  status: 2
  service: 1
latitude: 37.8706873017
longitude: -122.270634623
altitude: 56.5581020303
position_covariance: [1.2876761097523153, 0.0, 0.0, 0.0, 1.2838642589184466, 0.0, 0.0, 0.0, 1.6579050849368973]
position_covariance_type: 2
---
header: 
  seq: 20435
  stamp: 
    secs: 1574452573
    nsecs: 342205047
  frame_id: "odom"
status: 
  status: 2
  service: 1
latitude: 37.8706845413
longitude: -122.270634356
altitude: 56.5546463132
position_covariance: [1.2876761097523153, 0.0, 0.0, 0.0, 1.2838642589184466, 0.0, 0.0, 0.0, 1.6579050849368973]
position_covariance_type: 2
---
header: 
  seq: 20436
  stamp: 
    secs: 1574452573
    nsecs: 395620107
  frame_id: "odom"
status: 
  status: 2
  service: 1
latitude: 37.870681779
longitude: -122.270634074
altitude: 56.5503072897
position_covariance: [1.2876761097523153, 0.0, 0.0, 0.0, 1.2838642589184466, 0.0, 0.0, 0.0, 1.6579050849368973]
position_covariance_type: 2
---
header: 
  seq: 20437
  stamp: 
    secs: 1574452573
    nsecs: 444914102
  frame_id: "odom"
status: 
  status: 2
  service: 1
latitude: 37.8706790116
longitude: -122.270633781
altitude: 56.54437353
position_covariance: [1.2876761363523506, 0.0, 0.0, 0.0, 1.2838642589184466, 0.0, 0.0, 0.0, 1.6579050849368973]
position_covariance_type: 2
---
header: 
  seq: 20438
  stamp: 
    secs: 1574452573
    nsecs: 480720996
  frame_id: "odom"
status: 
  status: 2
  service: 1
latitude: 37.8706762579
longitude: -122.270633493
altitude: 56.5384949669
position_covariance: [1.2876761363523506, 0.0, 0.0, 0.0, 1.2838642589184466, 0.0, 0.0, 0.0, 1.6579050849368973]
position_covariance_type: 2
---
header: 
  seq: 20439
  stamp: 
    secs: 1574452573
    nsecs: 534254074
  frame_id: "odom"
status: 
  status: 2
  service: 1
latitude: 37.8706735061
longitude: -122.270633223
altitude: 56.5340535045
position_covariance: [1.2876761363523506, 0.0, 0.0, 0.0, 1.2838642589184466, 0.0, 0.0, 0.0, 1.6579050849368973]
position_covariance_type: 2
---
header: 
  seq: 20440
  stamp: 
    secs: 1574452573
    nsecs: 587574958
  frame_id: "odom"
status: 
  status: 2
  service: 1
latitude: 37.8706707638
longitude: -122.270632956
altitude: 56.5315385032
position_covariance: [1.2876761363523506, 0.0, 0.0, 0.0, 1.2838642589184466, 0.0, 0.0, 0.0, 1.6579050849368973]
position_covariance_type: 2
---
header: 
  seq: 20441
  stamp: 
    secs: 1574452573
    nsecs: 641130924
  frame_id: "odom"
status: 
  status: 2
  service: 1
latitude: 37.87066803
longitude: -122.270632695
altitude: 56.5298265079
position_covariance: [1.2876761363523506, 0.0, 0.0, 0.0, 1.2838642589184466, 0.0, 0.0, 0.0, 1.6579050849368973]
position_covariance_type: 2
---
header: 
  seq: 20442
  stamp: 
    secs: 1574452573
    nsecs: 680725097
  frame_id: "odom"
status: 
  status: 2
  service: 1
latitude: 37.870665313
longitude: -122.27063243
altitude: 56.5279490724
position_covariance: [1.2876761363523506, 0.0, 0.0, 0.0, 1.2838642589184466, 0.0, 0.0, 0.0, 1.6579050849368973]
position_covariance_type: 2
---
header: 
  seq: 20443
  stamp: 
    secs: 1574452573
    nsecs: 734314918
  frame_id: "odom"
status: 
  status: 2
  service: 1
latitude: 37.8706626177
longitude: -122.270632165
altitude: 56.5254571261
position_covariance: [1.2876761363523506, 0.0, 0.0, 0.0, 1.2838642589184466, 0.0, 0.0, 0.0, 1.6579050849368973]
position_covariance_type: 2
---
header: 
  seq: 20444
  stamp: 
    secs: 1574452573
    nsecs: 787584066
  frame_id: "odom"
status: 
  status: 2
  service: 1
latitude: 37.8706599439
longitude: -122.270631892
altitude: 56.5222624987
position_covariance: [1.2876761363523506, 0.0, 0.0, 0.0, 1.2838642589184466, 0.0, 0.0, 0.0, 1.6579050849368973]
position_covariance_type: 2
---
header: 
  seq: 20445
  stamp: 
    secs: 1574452573
    nsecs: 841089010
  frame_id: "odom"
status: 
  status: 2
  service: 1
latitude: 37.870657288
longitude: -122.270631617
altitude: 56.5182181066
position_covariance: [1.2876761363523506, 0.0, 0.0, 0.0, 1.2838642589184466, 0.0, 0.0, 0.0, 1.6579050849368973]
position_covariance_type: 2
---
header: 
  seq: 20446
  stamp: 
    secs: 1574452573
    nsecs: 894484996
  frame_id: "odom"
status: 
  status: 2
  service: 1
latitude: 37.8706546518
longitude: -122.270631328
altitude: 56.5125080533
position_covariance: [1.2876761363523506, 0.0, 0.0, 0.0, 1.2838642589184466, 0.0, 0.0, 0.0, 1.6579050849368973]
position_covariance_type: 2
---
header: 
  seq: 20447
  stamp: 
    secs: 1574452573
    nsecs: 949326038
  frame_id: "odom"
status: 
  status: 2
  service: 1
latitude: 37.8706520178
longitude: -122.270631025
altitude: 56.5066676307
position_covariance: [1.2876761363523506, 0.0, 0.0, 0.0, 1.2838642589184466, 0.0, 0.0, 0.0, 1.6579050849368973]
position_covariance_type: 2
---
header: 
  seq: 20448
  stamp: 
    secs: 1574452574
    nsecs:  47971010
  frame_id: "odom"
status: 
  status: 2
  service: 1
latitude: 37.8706467579
longitude: -122.270630396
altitude: 56.4953016648
position_covariance: [1.2901315296792242, 0.0, 0.0, 0.0, 1.2914295410893901, 0.0, 0.0, 0.0, 1.6718602330702537]
position_covariance_type: 2
---
header: 
  seq: 20449
  stamp: 
    secs: 1574452574
    nsecs:  87610960
  frame_id: "odom"
status: 
  status: 2
  service: 1
latitude: 37.870644131
longitude: -122.270630073
altitude: 56.4891870487
position_covariance: [1.2901315296792242, 0.0, 0.0, 0.0, 1.2914295410893901, 0.0, 0.0, 0.0, 1.6718602330702537]
position_covariance_type: 2
---
header: 
  seq: 20450
  stamp: 
    secs: 1574452574
    nsecs: 141118049
  frame_id: "odom"
status: 
  status: 2
  service: 1
latitude: 37.8706415136
longitude: -122.270629759
altitude: 56.483699047
position_covariance: [1.290131556329982, 0.0, 0.0, 0.0, 1.2914295410893901, 0.0, 0.0, 0.0, 1.6718602330702537]
position_covariance_type: 2
---
header: 
  seq: 20451
  stamp: 
    secs: 1574452574
    nsecs: 194477081
  frame_id: "odom"
status: 
  status: 2
  service: 1
latitude: 37.8706389065
longitude: -122.27062945
altitude: 56.4786421861
position_covariance: [1.290131556329982, 0.0, 0.0, 0.0, 1.2914295410893901, 0.0, 0.0, 0.0, 1.6718602330702537]
position_covariance_type: 2
---
header: 
  seq: 20452
  stamp: 
    secs: 1574452574
    nsecs: 247900962
  frame_id: "odom"
status: 
  status: 2
  service: 1
latitude: 37.8706363042
longitude: -122.270629147
altitude: 56.4740265002
position_covariance: [1.290131556329982, 0.0, 0.0, 0.0, 1.2914295410893901, 0.0, 0.0, 0.0, 1.6718602330702537]
position_covariance_type: 2
---
header: 
  seq: 20453
  stamp: 
    secs: 1574452574
    nsecs: 301311969
  frame_id: "odom"
status: 
  status: 2
  service: 1
latitude: 37.8706337078
longitude: -122.270628849
altitude: 56.4699925324
position_covariance: [1.290131556329982, 0.0, 0.0, 0.0, 1.2914295410893901, 0.0, 0.0, 0.0, 1.6718602330702537]
position_covariance_type: 2
---
header: 
  seq: 20454
  stamp: 
    secs: 1574452574
    nsecs: 354835033
  frame_id: "odom"
status: 
  status: 2
  service: 1
latitude: 37.8706311199
longitude: -122.270628548
altitude: 56.4657527814
position_covariance: [1.290131556329982, 0.0, 0.0, 0.0, 1.2914295410893901, 0.0, 0.0, 0.0, 1.6718602330702537]
position_covariance_type: 2
---
header: 
  seq: 20455
  stamp: 
    secs: 1574452574
    nsecs: 408198118
  frame_id: "odom"
status: 
  status: 2
  service: 1
latitude: 37.870628539
longitude: -122.270628236
altitude: 56.4609216265
position_covariance: [1.290131556329982, 0.0, 0.0, 0.0, 1.2914295410893901, 0.0, 0.0, 0.0, 1.6718602330702537]
position_covariance_type: 2
---
header: 
  seq: 20456
  stamp: 
    secs: 1574452574
    nsecs: 461674928
  frame_id: "odom"
status: 
  status: 2
  service: 1
latitude: 37.8706259611
longitude: -122.270627919
altitude: 56.4559894176
position_covariance: [1.290131556329982, 0.0, 0.0, 0.0, 1.2914295410893901, 0.0, 0.0, 0.0, 1.6718602330702537]
position_covariance_type: 2
---
header: 
  seq: 20457
  stamp: 
    secs: 1574452574
    nsecs: 515104055
  frame_id: "odom"
status: 
  status: 2
  service: 1
latitude: 37.8706233855
longitude: -122.270627599
altitude: 56.4506095294
position_covariance: [1.290131556329982, 0.0, 0.0, 0.0, 1.2914295410893901, 0.0, 0.0, 0.0, 1.6718602330702537]
position_covariance_type: 2
---
header: 
  seq: 20458
  stamp: 
    secs: 1574452574
    nsecs: 546013116
  frame_id: "odom"
status: 
  status: 2
  service: 1
latitude: 37.8706208111
longitude: -122.270627274
altitude: 56.4445372093
position_covariance: [1.290131556329982, 0.0, 0.0, 0.0, 1.2914295410893901, 0.0, 0.0, 0.0, 1.6718602330702537]
position_covariance_type: 2
---
header: 
  seq: 20459
  stamp: 
    secs: 1574452574
    nsecs: 591346979
  frame_id: "odom"
status: 
  status: 2
  service: 1
latitude: 37.8706182392
longitude: -122.270626947
altitude: 56.4382358734
position_covariance: [1.290131556329982, 0.0, 0.0, 0.0, 1.2914295410893901, 0.0, 0.0, 0.0, 1.6718602330702537]
position_covariance_type: 2
---
header: 
  seq: 20460
  stamp: 
    secs: 1574452574
    nsecs: 644865989
  frame_id: "odom"
status: 
  status: 2
  service: 1
latitude: 37.8706156688
longitude: -122.270626623
altitude: 56.4321905412
position_covariance: [1.290131556329982, 0.0, 0.0, 0.0, 1.2914295410893901, 0.0, 0.0, 0.0, 1.6718602330702537]
position_covariance_type: 2
---
header: 
  seq: 20461
  stamp: 
    secs: 1574452574
    nsecs: 698226928
  frame_id: "odom"
status: 
  status: 2
  service: 1
latitude: 37.8706131022
longitude: -122.270626299
altitude: 56.4263398247
position_covariance: [1.290131556329982, 0.0, 0.0, 0.0, 1.2914295144118193, 0.0, 0.0, 0.0, 1.6718602330702537]
position_covariance_type: 2
---
header: 
  seq: 20462
  stamp: 
    secs: 1574452574
    nsecs: 738154888
  frame_id: "odom"
status: 
  status: 2
  service: 1
latitude: 37.8706105404
longitude: -122.270625973
altitude: 56.4208342647
position_covariance: [1.290131556329982, 0.0, 0.0, 0.0, 1.2914295144118193, 0.0, 0.0, 0.0, 1.6718602330702537]
position_covariance_type: 2
---
header: 
  seq: 20463
  stamp: 
    secs: 1574452574
    nsecs: 791419982
  frame_id: "odom"
status: 
  status: 2
  service: 1
latitude: 37.8706079834
longitude: -122.270625645
altitude: 56.4158584829
position_covariance: [1.2901315829807405, 0.0, 0.0, 0.0, 1.2914295144118193, 0.0, 0.0, 0.0, 1.6718602330702537]
position_covariance_type: 2
---
header: 
  seq: 20464
  stamp: 
    secs: 1574452574
    nsecs: 844944953
  frame_id: "odom"
status: 
  status: 2
  service: 1
latitude: 37.8706054281
longitude: -122.270625319
altitude: 56.411210116
position_covariance: [1.2901315829807405, 0.0, 0.0, 0.0, 1.2914295144118193, 0.0, 0.0, 0.0, 1.6718602330702537]
position_covariance_type: 2
---
header: 
  seq: 20465
  stamp: 
    secs: 1574452574
    nsecs: 898346900
  frame_id: "odom"
status: 
  status: 2
  service: 1
latitude: 37.8706028758
longitude: -122.27062499
altitude: 56.406590255
position_covariance: [1.2901315829807405, 0.0, 0.0, 0.0, 1.2914295144118193, 0.0, 0.0, 0.0, 1.6718602330702537]
position_covariance_type: 2
---
header: 
  seq: 20466
  stamp: 
    secs: 1574452574
    nsecs: 951778888
  frame_id: "odom"
status: 
  status: 2
  service: 1
latitude: 37.8706003261
longitude: -122.270624662
altitude: 56.4018279733
position_covariance: [1.2901315829807405, 0.0, 0.0, 0.0, 1.2914295144118193, 0.0, 0.0, 0.0, 1.6718602330702537]
position_covariance_type: 2
---
header: 
  seq: 20467
  stamp: 
    secs: 1574452575
    nsecs:  41830062
  frame_id: "odom"
status: 
  status: 2
  service: 1
latitude: 37.8705952507
longitude: -122.270623998
altitude: 56.3949512569
position_covariance: [1.2927647229612576, 0.0, 0.0, 0.0, 1.304268510310106, 0.0, 0.0, 0.0, 1.6914917399985308]
position_covariance_type: 2
---
header: 
  seq: 20468
  stamp: 
    secs: 1574452575
    nsecs:  95154047
  frame_id: "odom"
status: 
  status: 2
  service: 1
latitude: 37.8705927287
longitude: -122.270623648
altitude: 56.3935429649
position_covariance: [1.2927647496664103, 0.0, 0.0, 0.0, 1.304268510310106, 0.0, 0.0, 0.0, 1.6914917399985308]
position_covariance_type: 2
---
header: 
  seq: 20469
  stamp: 
    secs: 1574452575
    nsecs: 140604972
  frame_id: "odom"
status: 
  status: 2
  service: 1
latitude: 37.8705902109
longitude: -122.2706233
altitude: 56.3924983041
position_covariance: [1.2927647496664103, 0.0, 0.0, 0.0, 1.304268510310106, 0.0, 0.0, 0.0, 1.6914917399985308]
position_covariance_type: 2
---
header: 
  seq: 20470
  stamp: 
    secs: 1574452575
    nsecs: 194051980
  frame_id: "odom"
status: 
  status: 2
  service: 1
latitude: 37.8705876991
longitude: -122.270622948
altitude: 56.3916271981
position_covariance: [1.2927647496664103, 0.0, 0.0, 0.0, 1.304268510310106, 0.0, 0.0, 0.0, 1.6914917399985308]
position_covariance_type: 2
---
header: 
  seq: 20471
  stamp: 
    secs: 1574452575
    nsecs: 239768028
  frame_id: "odom"
status: 
  status: 2
  service: 1
latitude: 37.8705851923
longitude: -122.27062259
altitude: 56.3907385524
position_covariance: [1.2927647496664103, 0.0, 0.0, 0.0, 1.304268510310106, 0.0, 0.0, 0.0, 1.6914917399985308]
position_covariance_type: 2
---
header: 
  seq: 20472
  stamp: 
    secs: 1574452575
    nsecs: 293097019
  frame_id: "odom"
status: 
  status: 2
  service: 1
latitude: 37.8705826907
longitude: -122.270622228
altitude: 56.3897856874
position_covariance: [1.2927647496664103, 0.0, 0.0, 0.0, 1.304268510310106, 0.0, 0.0, 0.0, 1.6914917399985308]
position_covariance_type: 2
---
header: 
  seq: 20473
  stamp: 
    secs: 1574452575
    nsecs: 346651077
  frame_id: "odom"
status: 
  status: 2
  service: 1
latitude: 37.870580197
longitude: -122.270621864
altitude: 56.388839406
position_covariance: [1.2927647496664103, 0.0, 0.0, 0.0, 1.304268510310106, 0.0, 0.0, 0.0, 1.6914917399985308]
position_covariance_type: 2
---
header: 
  seq: 20474
  stamp: 
    secs: 1574452575
    nsecs: 386178970
  frame_id: "odom"
status: 
  status: 2
  service: 1
latitude: 37.8705777141
longitude: -122.270621496
altitude: 56.38754276
position_covariance: [1.2927647496664103, 0.0, 0.0, 0.0, 1.3042684833673155, 0.0, 0.0, 0.0, 1.6914917399985308]
position_covariance_type: 2
---
header: 
  seq: 20475
  stamp: 
    secs: 1574452575
    nsecs: 439718961
  frame_id: "odom"
status: 
  status: 2
  service: 1
latitude: 37.8705752415
longitude: -122.270621137
altitude: 56.3865690986
position_covariance: [1.2927647496664103, 0.0, 0.0, 0.0, 1.3042684833673155, 0.0, 0.0, 0.0, 1.6914917399985308]
position_covariance_type: 2
---
header: 
  seq: 20476
  stamp: 
    secs: 1574452575
    nsecs: 493107080
  frame_id: "odom"
status: 
  status: 2
  service: 1
latitude: 37.8705727774
longitude: -122.270620787
altitude: 56.3860135963
position_covariance: [1.2927647496664103, 0.0, 0.0, 0.0, 1.3042684833673155, 0.0, 0.0, 0.0, 1.6914917399985308]
position_covariance_type: 2
---
header: 
  seq: 20477
  stamp: 
    secs: 1574452575
    nsecs: 546711921
  frame_id: "odom"
status: 
  status: 2
  service: 1
latitude: 37.870570323
longitude: -122.270620436
altitude: 56.3853030326
position_covariance: [1.2927647496664103, 0.0, 0.0, 0.0, 1.3042684833673155, 0.0, 0.0, 0.0, 1.6914917399985308]
position_covariance_type: 2
---
header: 
  seq: 20478
  stamp: 
    secs: 1574452575
    nsecs: 600003957
  frame_id: "odom"
status: 
  status: 2
  service: 1
latitude: 37.8705678782
longitude: -122.27062008
altitude: 56.38473278
position_covariance: [1.2927647496664103, 0.0, 0.0, 0.0, 1.3042684833673155, 0.0, 0.0, 0.0, 1.6914917399985308]
position_covariance_type: 2
---
header: 
  seq: 20479
  stamp: 
    secs: 1574452575
    nsecs: 689858913
  frame_id: "odom"
status: 
  status: 2
  service: 1
latitude: 37.8705630183
longitude: -122.270619361
altitude: 56.3842354501
position_covariance: [1.2927647496664103, 0.0, 0.0, 0.0, 1.3042684833673155, 0.0, 0.0, 0.0, 1.6914917399985308]
position_covariance_type: 2
---
header: 
  seq: 20480
  stamp: 
    secs: 1574452575
    nsecs: 729723930
  frame_id: "odom"
status: 
  status: 2
  service: 1
latitude: 37.8705606086
longitude: -122.270618989
altitude: 56.3836022094
position_covariance: [1.2927647496664103, 0.0, 0.0, 0.0, 1.3042684833673155, 0.0, 0.0, 0.0, 1.6914917399985308]
position_covariance_type: 2
---
header: 
  seq: 20481
  stamp: 
    secs: 1574452575
    nsecs: 782974958
  frame_id: "odom"
status: 
  status: 2
  service: 1
latitude: 37.8705582108
longitude: -122.270618613
altitude: 56.3827394759
position_covariance: [1.2927647496664103, 0.0, 0.0, 0.0, 1.3042684833673155, 0.0, 0.0, 0.0, 1.6914917399985308]
position_covariance_type: 2
---
header: 
  seq: 20482
  stamp: 
    secs: 1574452575
    nsecs: 836472034
  frame_id: "odom"
status: 
  status: 2
  service: 1
latitude: 37.8705558243
longitude: -122.270618236
altitude: 56.3818565048
position_covariance: [1.2927647763715635, 0.0, 0.0, 0.0, 1.3042684833673155, 0.0, 0.0, 0.0, 1.6914917399985308]
position_covariance_type: 2
---
header: 
  seq: 20483
  stamp: 
    secs: 1574452575
    nsecs: 889834880
  frame_id: "odom"
status: 
  status: 2
  service: 1
latitude: 37.8705534498
longitude: -122.270617856
altitude: 56.3807909181
position_covariance: [1.2927647763715635, 0.0, 0.0, 0.0, 1.3042684833673155, 0.0, 0.0, 0.0, 1.6914917399985308]
position_covariance_type: 2
---
header: 
  seq: 20484
  stamp: 
    secs: 1574452575
    nsecs: 943423032
  frame_id: "odom"
status: 
  status: 2
  service: 1
latitude: 37.8705510864
longitude: -122.270617471
altitude: 56.3795703435
position_covariance: [1.2927647763715635, 0.0, 0.0, 0.0, 1.3042684833673155, 0.0, 0.0, 0.0, 1.6914917399985308]
position_covariance_type: 2
---
header: 
  seq: 20485
  stamp: 
    secs: 1574452575
    nsecs: 982978105
  frame_id: "odom"
status: 
  status: 2
  service: 1
latitude: 37.8705487306
longitude: -122.270617104
altitude: 56.3789795805
position_covariance: [1.2927647763715635, 0.0, 0.0, 0.0, 1.3042684833673155, 0.0, 0.0, 0.0, 1.6914917399985308]
position_covariance_type: 2
---
header: 
  seq: 20486
  stamp: 
    secs: 1574452576
    nsecs:  36591053
  frame_id: "odom"
status: 
  status: 2
  service: 1
latitude: 37.8705463815
longitude: -122.270616739
altitude: 56.3781917579
position_covariance: [1.2956817548331712, 0.0, 0.0, 0.0, 1.318122458979522, 0.0, 0.0, 0.0, 1.7116347678886061]
position_covariance_type: 2
---
header: 
  seq: 20487
  stamp: 
    secs: 1574452576
    nsecs:  89934110
  frame_id: "odom"
status: 
  status: 2
  service: 1
latitude: 37.8705440458
longitude: -122.270616371
altitude: 56.377099501
position_covariance: [1.2956817548331712, 0.0, 0.0, 0.0, 1.318122458979522, 0.0, 0.0, 0.0, 1.7116347678886061]
position_covariance_type: 2
---
header: 
  seq: 20488
  stamp: 
    secs: 1574452576
    nsecs: 143356084
  frame_id: "odom"
status: 
  status: 2
  service: 1
latitude: 37.8705417227
longitude: -122.270616008
altitude: 56.3762849225
position_covariance: [1.2956817548331712, 0.0, 0.0, 0.0, 1.318122458979522, 0.0, 0.0, 0.0, 1.7116347678886061]
position_covariance_type: 2
---
header: 
  seq: 20489
  stamp: 
    secs: 1574452576
    nsecs: 197741031
  frame_id: "odom"
status: 
  status: 2
  service: 1
latitude: 37.87053941
longitude: -122.270615654
altitude: 56.3758041263
position_covariance: [1.2956817815985822, 0.0, 0.0, 0.0, 1.318122458979522, 0.0, 0.0, 0.0, 1.7116347678886061]
position_covariance_type: 2
---
header: 
  seq: 20490
  stamp: 
    secs: 1574452576
    nsecs: 243242979
  frame_id: "odom"
status: 
  status: 2
  service: 1
latitude: 37.8705371097
longitude: -122.270615301
altitude: 56.3753895275
position_covariance: [1.2956817815985822, 0.0, 0.0, 0.0, 1.318122458979522, 0.0, 0.0, 0.0, 1.7116347678886061]
position_covariance_type: 2
---
header: 
  seq: 20491
  stamp: 
    secs: 1574452576
    nsecs: 341123104
  frame_id: "odom"
status: 
  status: 2
  service: 1
latitude: 37.8705325571
longitude: -122.270614586
altitude: 56.3747535441
position_covariance: [1.2956817815985822, 0.0, 0.0, 0.0, 1.318122458979522, 0.0, 0.0, 0.0, 1.7116347678886061]
position_covariance_type: 2
---
header: 
  seq: 20492
  stamp: 
    secs: 1574452576
    nsecs: 394387006
  frame_id: "odom"
status: 
  status: 2
  service: 1
latitude: 37.8705303023
longitude: -122.270614229
altitude: 56.3746072194
position_covariance: [1.2956817815985822, 0.0, 0.0, 0.0, 1.318122458979522, 0.0, 0.0, 0.0, 1.7116347678886061]
position_covariance_type: 2
---
header: 
  seq: 20493
  stamp: 
    secs: 1574452576
    nsecs: 448019981
  frame_id: "odom"
status: 
  status: 2
  service: 1
latitude: 37.870528062
longitude: -122.27061386
altitude: 56.3740985673
position_covariance: [1.2956817815985822, 0.0, 0.0, 0.0, 1.318122458979522, 0.0, 0.0, 0.0, 1.7116347678886061]
position_covariance_type: 2
---
header: 
  seq: 20494
  stamp: 
    secs: 1574452576
    nsecs: 501426935
  frame_id: "odom"
status: 
  status: 2
  service: 1
latitude: 37.8705258386
longitude: -122.270613486
altitude: 56.37319005
position_covariance: [1.2956817815985822, 0.0, 0.0, 0.0, 1.318122458979522, 0.0, 0.0, 0.0, 1.7116347678886061]
position_covariance_type: 2
---
header: 
  seq: 20495
  stamp: 
    secs: 1574452576
    nsecs: 555058002
  frame_id: "odom"
status: 
  status: 2
  service: 1
latitude: 37.8705236333
longitude: -122.270613111
altitude: 56.3721394194
position_covariance: [1.2956817815985822, 0.0, 0.0, 0.0, 1.318122458979522, 0.0, 0.0, 0.0, 1.7116347678886061]
position_covariance_type: 2
---
header: 
  seq: 20496
  stamp: 
    secs: 1574452576
    nsecs: 608319044
  frame_id: "odom"
status: 
  status: 2
  service: 1
latitude: 37.8705214404
longitude: -122.270612741
altitude: 56.37150604
position_covariance: [1.2956817815985822, 0.0, 0.0, 0.0, 1.318122458979522, 0.0, 0.0, 0.0, 1.7116347678886061]
position_covariance_type: 2
---
header: 
  seq: 20497
  stamp: 
    secs: 1574452576
    nsecs: 706207036
  frame_id: "odom"
status: 
  status: 2
  service: 1
latitude: 37.8705170941
longitude: -122.270612021
altitude: 56.3709300021
position_covariance: [1.2956817815985822, 0.0, 0.0, 0.0, 1.318122458979522, 0.0, 0.0, 0.0, 1.7116347678886061]
position_covariance_type: 2
---
header: 
  seq: 20498
  stamp: 
    secs: 1574452576
    nsecs: 759674072
  frame_id: "odom"
status: 
  status: 2
  service: 1
latitude: 37.8705149453
longitude: -122.270611674
altitude: 56.3709250437
position_covariance: [1.2956817815985822, 0.0, 0.0, 0.0, 1.318122458979522, 0.0, 0.0, 0.0, 1.7116347678886061]
position_covariance_type: 2
---
header: 
  seq: 20499
  stamp: 
    secs: 1574452576
    nsecs: 790399074
  frame_id: "odom"
status: 
  status: 2
  service: 1
latitude: 37.8705128096
longitude: -122.270611331
altitude: 56.3710119911
position_covariance: [1.2956817815985822, 0.0, 0.0, 0.0, 1.318122458979522, 0.0, 0.0, 0.0, 1.7116347678886061]
position_covariance_type: 2
---
header: 
  seq: 20500
  stamp: 
    secs: 1574452576
    nsecs: 843869924
  frame_id: "odom"
status: 
  status: 2
  service: 1
latitude: 37.8705106875
longitude: -122.270610987
altitude: 56.3714646921
position_covariance: [1.2956817815985822, 0.0, 0.0, 0.0, 1.318122458979522, 0.0, 0.0, 0.0, 1.7116347678886061]
position_covariance_type: 2
---
header: 
  seq: 20501
  stamp: 
    secs: 1574452576
    nsecs: 897778987
  frame_id: "odom"
status: 
  status: 2
  service: 1
latitude: 37.8705085809
longitude: -122.270610645
altitude: 56.3720343011
position_covariance: [1.2956817815985822, 0.0, 0.0, 0.0, 1.318122458979522, 0.0, 0.0, 0.0, 1.7116347678886061]
position_covariance_type: 2
---
header: 
  seq: 20502
  stamp: 
    secs: 1574452576
    nsecs: 951224088
  frame_id: "odom"
status: 
  status: 2
  service: 1
latitude: 37.8705064897
longitude: -122.270610303
altitude: 56.3726401813
position_covariance: [1.2956817815985822, 0.0, 0.0, 0.0, 1.318122458979522, 0.0, 0.0, 0.0, 1.7116347678886061]
position_covariance_type: 2
---
header: 
  seq: 20503
  stamp: 
    secs: 1574452577
    nsecs:   4735946
  frame_id: "odom"
status: 
  status: 2
  service: 1
latitude: 37.8705044134
longitude: -122.270609956
altitude: 56.3729377231
position_covariance: [1.2956817815985822, 0.0, 0.0, 0.0, 1.318122458979522, 0.0, 0.0, 0.0, 1.7116347678886061]
position_covariance_type: 2
---
header: 
  seq: 20504
  stamp: 
    secs: 1574452577
    nsecs:  58195114
  frame_id: "odom"
status: 
  status: 2
  service: 1
latitude: 37.8705023559
longitude: -122.270609632
altitude: 56.3717976846
position_covariance: [1.298778353091635, 0.0, 0.0, 0.0, 1.3299651908768066, 0.0, 0.0, 0.0, 1.7282670175394241]
position_covariance_type: 2
---
header: 
  seq: 20505
  stamp: 
    secs: 1574452577
    nsecs: 111665010
  frame_id: "odom"
status: 
  status: 2
  service: 1
latitude: 37.8705003122
longitude: -122.270609321
altitude: 56.3691805247
position_covariance: [1.298778353091635, 0.0, 0.0, 0.0, 1.3299651908768066, 0.0, 0.0, 0.0, 1.7282670175394241]
position_covariance_type: 2
---
header: 
  seq: 20506
  stamp: 
    secs: 1574452577
    nsecs: 142466068
  frame_id: "odom"
status: 
  status: 2
  service: 1
latitude: 37.8704982846
longitude: -122.270609012
altitude: 56.3668260956
position_covariance: [1.298778353091635, 0.0, 0.0, 0.0, 1.3299651908768066, 0.0, 0.0, 0.0, 1.7282670175394241]
position_covariance_type: 2
---
header: 
  seq: 20507
  stamp: 
    secs: 1574452577
    nsecs: 195779085
  frame_id: "odom"
status: 
  status: 2
  service: 1
latitude: 37.8704962725
longitude: -122.270608707
altitude: 56.3647678867
position_covariance: [1.298778353091635, 0.0, 0.0, 0.0, 1.3299651908768066, 0.0, 0.0, 0.0, 1.7282670175394241]
position_covariance_type: 2
---
header: 
  seq: 20508
  stamp: 
    secs: 1574452577
    nsecs: 249267101
  frame_id: "odom"
status: 
  status: 2
  service: 1
latitude: 37.8704942752
longitude: -122.270608404
altitude: 56.3627329068
position_covariance: [1.298778353091635, 0.0, 0.0, 0.0, 1.3299651908768066, 0.0, 0.0, 0.0, 1.7282670175394241]
position_covariance_type: 2
---
header: 
  seq: 20509
  stamp: 
    secs: 1574452577
    nsecs: 302700042
  frame_id: "odom"
status: 
  status: 2
  service: 1
latitude: 37.8704922917
longitude: -122.270608104
altitude: 56.3605576362
position_covariance: [1.298778353091635, 0.0, 0.0, 0.0, 1.3299651908768066, 0.0, 0.0, 0.0, 1.7282670175394241]
position_covariance_type: 2
---
header: 
  seq: 20510
  stamp: 
    secs: 1574452577
    nsecs: 356285095
  frame_id: "odom"
status: 
  status: 2
  service: 1
latitude: 37.870490322
longitude: -122.270607809
altitude: 56.3583359085
position_covariance: [1.298778353091635, 0.0, 0.0, 0.0, 1.3299651908768066, 0.0, 0.0, 0.0, 1.7282670175394241]
position_covariance_type: 2
---
header: 
  seq: 20511
  stamp: 
    secs: 1574452577
    nsecs: 409586906
  frame_id: "odom"
status: 
  status: 2
  service: 1
latitude: 37.8704883662
longitude: -122.270607515
altitude: 56.3560620258
position_covariance: [1.298778353091635, 0.0, 0.0, 0.0, 1.3299651908768066, 0.0, 0.0, 0.0, 1.7282670175394241]
position_covariance_type: 2
---
header: 
  seq: 20512
  stamp: 
    secs: 1574452577
    nsecs: 463036060
  frame_id: "odom"
status: 
  status: 2
  service: 1
latitude: 37.8704864239
longitude: -122.27060722
altitude: 56.3538036374
position_covariance: [1.298778353091635, 0.0, 0.0, 0.0, 1.3299651908768066, 0.0, 0.0, 0.0, 1.7282670175394241]
position_covariance_type: 2
---
header: 
  seq: 20513
  stamp: 
    secs: 1574452577
    nsecs: 493995904
  frame_id: "odom"
status: 
  status: 2
  service: 1
latitude: 37.8704844959
longitude: -122.270606932
altitude: 56.3519138796
position_covariance: [1.298778353091635, 0.0, 0.0, 0.0, 1.3299651908768066, 0.0, 0.0, 0.0, 1.7282670175394241]
position_covariance_type: 2
---
header: 
  seq: 20514
  stamp: 
    secs: 1574452577
    nsecs: 547795057
  frame_id: "odom"
status: 
  status: 2
  service: 1
latitude: 37.8704825838
longitude: -122.270606648
altitude: 56.3501808988
position_covariance: [1.298778353091635, 0.0, 0.0, 0.0, 1.3299651634031897, 0.0, 0.0, 0.0, 1.7282670175394241]
position_covariance_type: 2
---
header: 
  seq: 20515
  stamp: 
    secs: 1574452577
    nsecs: 601183891
  frame_id: "odom"
status: 
  status: 2
  service: 1
latitude: 37.8704806871
longitude: -122.270606366
altitude: 56.3484227238
position_covariance: [1.298778353091635, 0.0, 0.0, 0.0, 1.3299651634031897, 0.0, 0.0, 0.0, 1.7282670175394241]
position_covariance_type: 2
---
header: 
  seq: 20516
  stamp: 
    secs: 1574452577
    nsecs: 699070930
  frame_id: "odom"
status: 
  status: 2
  service: 1
latitude: 37.8704769394
longitude: -122.270605807
altitude: 56.3442084892
position_covariance: [1.2987783799210137, 0.0, 0.0, 0.0, 1.3299651634031897, 0.0, 0.0, 0.0, 1.7282670175394241]
position_covariance_type: 2
---
header: 
  seq: 20517
  stamp: 
    secs: 1574452577
    nsecs: 752505064
  frame_id: "odom"
status: 
  status: 2
  service: 1
latitude: 37.8704750886
longitude: -122.270605532
altitude: 56.3425203562
position_covariance: [1.2987783799210137, 0.0, 0.0, 0.0, 1.3299651634031897, 0.0, 0.0, 0.0, 1.7282670175394241]
position_covariance_type: 2
---
header: 
  seq: 20518
  stamp: 
    secs: 1574452577
    nsecs: 806000947
  frame_id: "odom"
status: 
  status: 2
  service: 1
latitude: 37.8704732458
longitude: -122.270605258
altitude: 56.3408795325
position_covariance: [1.2987783799210137, 0.0, 0.0, 0.0, 1.3299651634031897, 0.0, 0.0, 0.0, 1.7282670175394241]
position_covariance_type: 2
---
header: 
  seq: 20519
  stamp: 
    secs: 1574452577
    nsecs: 845797061
  frame_id: "odom"
status: 
  status: 2
  service: 1
latitude: 37.8704714032
longitude: -122.270604995
altitude: 56.3390846904
position_covariance: [1.2987783799210137, 0.0, 0.0, 0.0, 1.3299651634031897, 0.0, 0.0, 0.0, 1.7282670175394241]
position_covariance_type: 2
---
header: 
  seq: 20520
  stamp: 
    secs: 1574452577
    nsecs: 899132013
  frame_id: "odom"
status: 
  status: 2
  service: 1
latitude: 37.8704695616
longitude: -122.270604734
altitude: 56.3368730694
position_covariance: [1.2987783799210137, 0.0, 0.0, 0.0, 1.3299651634031897, 0.0, 0.0, 0.0, 1.7282670175394241]
position_covariance_type: 2
---
header: 
  seq: 20521
  stamp: 
    secs: 1574452577
    nsecs: 952527999
  frame_id: "odom"
status: 
  status: 2
  service: 1
latitude: 37.8704677223
longitude: -122.27060447
altitude: 56.334192167
position_covariance: [1.2987783799210137, 0.0, 0.0, 0.0, 1.3299651634031897, 0.0, 0.0, 0.0, 1.7282670175394241]
position_covariance_type: 2
---
header: 
  seq: 20522
  stamp: 
    secs: 1574452578
    nsecs:   6022930
  frame_id: "odom"
status: 
  status: 2
  service: 1
latitude: 37.8704658864
longitude: -122.270604194
altitude: 56.3310409281
position_covariance: [1.2987783799210137, 0.0, 0.0, 0.0, 1.3299651634031897, 0.0, 0.0, 0.0, 1.7282670175394241]
position_covariance_type: 2
---
header: 
  seq: 20523
  stamp: 
    secs: 1574452578
    nsecs:  59451103
  frame_id: "odom"
status: 
  status: 2
  service: 1
latitude: 37.8704640496
longitude: -122.270603954
altitude: 56.3239635974
position_covariance: [1.300794050747923, 0.0, 0.0, 0.0, 1.3332439986808717, 0.0, 0.0, 0.0, 1.736399111990786]
position_covariance_type: 2
---
header: 
  seq: 20524
  stamp: 
    secs: 1574452578
    nsecs: 112771034
  frame_id: "odom"
status: 
  status: 2
  service: 1
latitude: 37.8704622124
longitude: -122.270603739
altitude: 56.3145181499
position_covariance: [1.300794050747923, 0.0, 0.0, 0.0, 1.3332439986808717, 0.0, 0.0, 0.0, 1.736399111990786]
position_covariance_type: 2
---
header: 
  seq: 20525
  stamp: 
    secs: 1574452578
    nsecs: 143706083
  frame_id: "odom"
status: 
  status: 2
  service: 1
latitude: 37.8704603765
longitude: -122.270603529
altitude: 56.3052479941
position_covariance: [1.300794050747923, 0.0, 0.0, 0.0, 1.3332439986808717, 0.0, 0.0, 0.0, 1.736399111990786]
position_covariance_type: 2
---
header: 
  seq: 20526
  stamp: 
    secs: 1574452578
    nsecs: 197820901
  frame_id: "odom"
status: 
  status: 2
  service: 1
latitude: 37.8704585408
longitude: -122.270603326
altitude: 56.2961027529
position_covariance: [1.300794050747923, 0.0, 0.0, 0.0, 1.3332439986808717, 0.0, 0.0, 0.0, 1.736399111990786]
position_covariance_type: 2
---
header: 
  seq: 20527
  stamp: 
    secs: 1574452578
    nsecs: 251202106
  frame_id: "odom"
status: 
  status: 2
  service: 1
latitude: 37.8704567048
longitude: -122.270603132
altitude: 56.2868395848
position_covariance: [1.300794050747923, 0.0, 0.0, 0.0, 1.3332439986808717, 0.0, 0.0, 0.0, 1.7363990402518201]
position_covariance_type: 2
---
header: 
  seq: 20528
  stamp: 
    secs: 1574452578
    nsecs: 304672002
  frame_id: "odom"
status: 
  status: 2
  service: 1
latitude: 37.8704548665
longitude: -122.270602947
altitude: 56.2776583796
position_covariance: [1.300794050747923, 0.0, 0.0, 0.0, 1.3332439986808717, 0.0, 0.0, 0.0, 1.7363990402518201]
position_covariance_type: 2
---
header: 
  seq: 20529
  stamp: 
    secs: 1574452578
    nsecs: 358139038
  frame_id: "odom"
status: 
  status: 2
  service: 1
latitude: 37.8704530247
longitude: -122.270602772
altitude: 56.2686217045
position_covariance: [1.300794050747923, 0.0, 0.0, 0.0, 1.3332439986808717, 0.0, 0.0, 0.0, 1.7363990402518201]
position_covariance_type: 2
---
header: 
  seq: 20530
  stamp: 
    secs: 1574452578
    nsecs: 456104993
  frame_id: "odom"
status: 
  status: 2
  service: 1
latitude: 37.8704493342
longitude: -122.270602441
altitude: 56.2510883734
position_covariance: [1.300794050747923, 0.0, 0.0, 0.0, 1.3332439986808717, 0.0, 0.0, 0.0, 1.7363990402518201]
position_covariance_type: 2
---
header: 
  seq: 20531
  stamp: 
    secs: 1574452578
    nsecs: 509439945
  frame_id: "odom"
status: 
  status: 2
  service: 1
latitude: 37.8704474922
longitude: -122.270602287
altitude: 56.2421814539
position_covariance: [1.300794050747923, 0.0, 0.0, 0.0, 1.3332439986808717, 0.0, 0.0, 0.0, 1.7363990402518201]
position_covariance_type: 2
---
header: 
  seq: 20532
  stamp: 
    secs: 1574452578
    nsecs: 562911987
  frame_id: "odom"
status: 
  status: 2
  service: 1
latitude: 37.8704456462
longitude: -122.270602139
altitude: 56.2332268702
position_covariance: [1.3007940776189408, 0.0, 0.0, 0.0, 1.3332439986808717, 0.0, 0.0, 0.0, 1.7363990402518201]
position_covariance_type: 2
---
header: 
  seq: 20533
  stamp: 
    secs: 1574452578
    nsecs: 602616071
  frame_id: "odom"
status: 
  status: 2
  service: 1
latitude: 37.8704437921
longitude: -122.270601988
altitude: 56.2238461152
position_covariance: [1.3007940776189408, 0.0, 0.0, 0.0, 1.3332439986808717, 0.0, 0.0, 0.0, 1.7363990402518201]
position_covariance_type: 2
---
header: 
  seq: 20534
  stamp: 
    secs: 1574452578
    nsecs: 655993938
  frame_id: "odom"
status: 
  status: 2
  service: 1
latitude: 37.8704419287
longitude: -122.270601827
altitude: 56.2140424503
position_covariance: [1.3007940776189408, 0.0, 0.0, 0.0, 1.3332439986808717, 0.0, 0.0, 0.0, 1.7363990402518201]
position_covariance_type: 2
---
header: 
  seq: 20535
  stamp: 
    secs: 1574452578
    nsecs: 709430932
  frame_id: "odom"
status: 
  status: 2
  service: 1
latitude: 37.8704400579
longitude: -122.270601652
altitude: 56.2037142133
position_covariance: [1.3007940776189408, 0.0, 0.0, 0.0, 1.3332439986808717, 0.0, 0.0, 0.0, 1.7363990402518201]
position_covariance_type: 2
---
header: 
  seq: 20536
  stamp: 
    secs: 1574452578
    nsecs: 762833118
  frame_id: "odom"
status: 
  status: 2
  service: 1
latitude: 37.8704381816
longitude: -122.270601461
altitude: 56.1929853931
position_covariance: [1.3007940776189408, 0.0, 0.0, 0.0, 1.3332439986808717, 0.0, 0.0, 0.0, 1.7363990402518201]
position_covariance_type: 2
---
header: 
  seq: 20537
  stamp: 
    secs: 1574452578
    nsecs: 802649021
  frame_id: "odom"
status: 
  status: 2
  service: 1
latitude: 37.8704363017
longitude: -122.270601266
altitude: 56.1824241737
position_covariance: [1.3007940776189408, 0.0, 0.0, 0.0, 1.3332439986808717, 0.0, 0.0, 0.0, 1.7363990402518201]
position_covariance_type: 2
---
header: 
  seq: 20538
  stamp: 
    secs: 1574452578
    nsecs: 856072902
  frame_id: "odom"
status: 
  status: 2
  service: 1
latitude: 37.8704344177
longitude: -122.27060108
altitude: 56.1723599182
position_covariance: [1.3007940776189408, 0.0, 0.0, 0.0, 1.3332439986808717, 0.0, 0.0, 0.0, 1.7363990402518201]
position_covariance_type: 2
---
header: 
  seq: 20539
  stamp: 
    secs: 1574452578
    nsecs: 909436941
  frame_id: "odom"
status: 
  status: 2
  service: 1
latitude: 37.8704325271
longitude: -122.270600904
altitude: 56.1623929814
position_covariance: [1.3007940776189408, 0.0, 0.0, 0.0, 1.3332439986808717, 0.0, 0.0, 0.0, 1.7363990402518201]
position_covariance_type: 2
---
header: 
  seq: 20540
  stamp: 
    secs: 1574452578
    nsecs: 940277099
  frame_id: "odom"
status: 
  status: 2
  service: 1
latitude: 37.870430629
longitude: -122.270600735
altitude: 56.1522705182
position_covariance: [1.3007940776189408, 0.0, 0.0, 0.0, 1.3332439986808717, 0.0, 0.0, 0.0, 1.7363990402518201]
position_covariance_type: 2
---
header: 
  seq: 20541
  stamp: 
    secs: 1574452578
    nsecs: 985784053
  frame_id: "odom"
status: 
  status: 2
  service: 1
latitude: 37.8704287229
longitude: -122.270600578
altitude: 56.1420554519
position_covariance: [1.3007940776189408, 0.0, 0.0, 0.0, 1.3332439986808717, 0.0, 0.0, 0.0, 1.7363990402518201]
position_covariance_type: 2
---
header: 
  seq: 20542
  stamp: 
    secs: 1574452579
    nsecs:  39246082
  frame_id: "odom"
status: 
  status: 2
  service: 1
latitude: 37.8704268121
longitude: -122.270600388
altitude: 56.1360086063
position_covariance: [1.303976779460069, 0.0, 0.0, 0.0, 1.3439274786296718, 0.0, 0.0, 0.0, 1.7527126665287112]
position_covariance_type: 2
---
header: 
  seq: 20543
  stamp: 
    secs: 1574452579
    nsecs:  78850030
  frame_id: "odom"
status: 
  status: 2
  service: 1
latitude: 37.8704248936
longitude: -122.270600173
altitude: 56.1330541195
position_covariance: [1.303976779460069, 0.0, 0.0, 0.0, 1.3439274786296718, 0.0, 0.0, 0.0, 1.7527126665287112]
position_covariance_type: 2
---
header: 
  seq: 20544
  stamp: 
    secs: 1574452579
    nsecs: 132312059
  frame_id: "odom"
status: 
  status: 2
  service: 1
latitude: 37.8704229693
longitude: -122.270599956
altitude: 56.1300332658
position_covariance: [1.303976779460069, 0.0, 0.0, 0.0, 1.3439274786296718, 0.0, 0.0, 0.0, 1.7527126665287112]
position_covariance_type: 2
---
header: 
  seq: 20545
  stamp: 
    secs: 1574452579
    nsecs: 185642004
  frame_id: "odom"
status: 
  status: 2
  service: 1
latitude: 37.8704210415
longitude: -122.270599735
altitude: 56.1265486423
position_covariance: [1.3039768063968338, 0.0, 0.0, 0.0, 1.3439274786296718, 0.0, 0.0, 0.0, 1.7527126665287112]
position_covariance_type: 2
---
header: 
  seq: 20546
  stamp: 
    secs: 1574452579
    nsecs: 239125967
  frame_id: "odom"
status: 
  status: 2
  service: 1
latitude: 37.8704191082
longitude: -122.270599512
altitude: 56.1229483262
position_covariance: [1.3039768063968338, 0.0, 0.0, 0.0, 1.3439274786296718, 0.0, 0.0, 0.0, 1.7527126665287112]
position_covariance_type: 2
---
header: 
  seq: 20547
  stamp: 
    secs: 1574452579
    nsecs: 292711973
  frame_id: "odom"
status: 
  status: 2
  service: 1
latitude: 37.8704171676
longitude: -122.27059929
altitude: 56.119145642
position_covariance: [1.3039768063968338, 0.0, 0.0, 0.0, 1.3439274786296718, 0.0, 0.0, 0.0, 1.7527126665287112]
position_covariance_type: 2
---
header: 
  seq: 20548
  stamp: 
    secs: 1574452579
    nsecs: 346029996
  frame_id: "odom"
status: 
  status: 2
  service: 1
latitude: 37.870415222
longitude: -122.270599061
altitude: 56.1147633353
position_covariance: [1.3039768063968338, 0.0, 0.0, 0.0, 1.3439274786296718, 0.0, 0.0, 0.0, 1.7527126665287112]
position_covariance_type: 2
---
header: 
  seq: 20549
  stamp: 
    secs: 1574452579
    nsecs: 399498939
  frame_id: "odom"
status: 
  status: 2
  service: 1
latitude: 37.8704132705
longitude: -122.270598825
altitude: 56.1101187756
position_covariance: [1.3039768063968338, 0.0, 0.0, 0.0, 1.3439274786296718, 0.0, 0.0, 0.0, 1.7527126665287112]
position_covariance_type: 2
---
header: 
  seq: 20550
  stamp: 
    secs: 1574452579
    nsecs: 453006029
  frame_id: "odom"
status: 
  status: 2
  service: 1
latitude: 37.8704113098
longitude: -122.270598594
altitude: 56.1058137687
position_covariance: [1.3039768063968338, 0.0, 0.0, 0.0, 1.3439274786296718, 0.0, 0.0, 0.0, 1.7527126665287112]
position_covariance_type: 2
---
header: 
  seq: 20551
  stamp: 
    secs: 1574452579
    nsecs: 506474018
  frame_id: "odom"
status: 
  status: 2
  service: 1
latitude: 37.8704093405
longitude: -122.27059836
altitude: 56.1012170156
position_covariance: [1.3039768063968338, 0.0, 0.0, 0.0, 1.3439274786296718, 0.0, 0.0, 0.0, 1.7527126665287112]
position_covariance_type: 2
---
header: 
  seq: 20552
  stamp: 
    secs: 1574452579
    nsecs: 559885025
  frame_id: "odom"
status: 
  status: 2
  service: 1
latitude: 37.8704073654
longitude: -122.27059813
altitude: 56.0965224318
position_covariance: [1.3039768063968338, 0.0, 0.0, 0.0, 1.3439274786296718, 0.0, 0.0, 0.0, 1.7527126665287112]
position_covariance_type: 2
---
header: 
  seq: 20553
  stamp: 
    secs: 1574452579
    nsecs: 590663909
  frame_id: "odom"
status: 
  status: 2
  service: 1
latitude: 37.8704053857
longitude: -122.270597909
altitude: 56.0920471763
position_covariance: [1.3039768063968338, 0.0, 0.0, 0.0, 1.3439274786296718, 0.0, 0.0, 0.0, 1.7527126665287112]
position_covariance_type: 2
---
header: 
  seq: 20554
  stamp: 
    secs: 1574452579
    nsecs: 644136905
  frame_id: "odom"
status: 
  status: 2
  service: 1
latitude: 37.8704034025
longitude: -122.27059769
altitude: 56.0876462413
position_covariance: [1.3039768063968338, 0.0, 0.0, 0.0, 1.3439274786296718, 0.0, 0.0, 0.0, 1.7527125941157544]
position_covariance_type: 2
---
header: 
  seq: 20555
  stamp: 
    secs: 1574452579
    nsecs: 697949886
  frame_id: "odom"
status: 
  status: 2
  service: 1
latitude: 37.8704014146
longitude: -122.270597473
altitude: 56.0835551685
position_covariance: [1.3039768063968338, 0.0, 0.0, 0.0, 1.3439274786296718, 0.0, 0.0, 0.0, 1.7527125941157544]
position_covariance_type: 2
---
header: 
  seq: 20556
  stamp: 
    secs: 1574452579
    nsecs: 795711994
  frame_id: "odom"
status: 
  status: 2
  service: 1
latitude: 37.8703974249
longitude: -122.270597046
altitude: 56.076397595
position_covariance: [1.3039768063968338, 0.0, 0.0, 0.0, 1.3439274786296718, 0.0, 0.0, 0.0, 1.7527125941157544]
position_covariance_type: 2
---
header: 
  seq: 20557
  stamp: 
    secs: 1574452579
    nsecs: 849132061
  frame_id: "odom"
status: 
  status: 2
  service: 1
latitude: 37.8703954219
longitude: -122.27059683
altitude: 56.0725061949
position_covariance: [1.3039768063968338, 0.0, 0.0, 0.0, 1.3439274786296718, 0.0, 0.0, 0.0, 1.7527125941157544]
position_covariance_type: 2
---
header: 
  seq: 20558
  stamp: 
    secs: 1574452579
    nsecs: 902546882
  frame_id: "odom"
status: 
  status: 2
  service: 1
latitude: 37.870393412
longitude: -122.270596615
altitude: 56.0684833582
position_covariance: [1.3039768063968338, 0.0, 0.0, 0.0, 1.3439274786296718, 0.0, 0.0, 0.0, 1.7527125941157544]
position_covariance_type: 2
---
header: 
  seq: 20559
  stamp: 
    secs: 1574452579
    nsecs: 956136941
  frame_id: "odom"
status: 
  status: 2
  service: 1
latitude: 37.8703913948
longitude: -122.270596405
altitude: 56.0642360346
position_covariance: [1.3039768063968338, 0.0, 0.0, 0.0, 1.3439274786296718, 0.0, 0.0, 0.0, 1.7527125941157544]
position_covariance_type: 2
---
header: 
  seq: 20560
  stamp: 
    secs: 1574452580
    nsecs:   9351015
  frame_id: "odom"
status: 
  status: 2
  service: 1
latitude: 37.8703893728
longitude: -122.270596196
altitude: 56.0599321062
position_covariance: [1.3039768063968338, 0.0, 0.0, 0.0, 1.3439274786296718, 0.0, 0.0, 0.0, 1.7527125941157544]
position_covariance_type: 2
---
header: 
  seq: 20561
  stamp: 
    secs: 1574452580
    nsecs:  51881074
  frame_id: "odom"
status: 
  status: 2
  service: 1
latitude: 37.8703873452
longitude: -122.270595969
altitude: 56.0573834833
position_covariance: [1.3083938729808091, 0.0, 0.0, 0.0, 1.3593984644919468, 0.0, 0.0, 0.0, 1.7744961524004343]
position_covariance_type: 2
---
header: 
  seq: 20562
  stamp: 
    secs: 1574452580
    nsecs: 105084896
  frame_id: "odom"
status: 
  status: 2
  service: 1
latitude: 37.8703853154
longitude: -122.270595734
altitude: 56.0549342362
position_covariance: [1.3083938729808091, 0.0, 0.0, 0.0, 1.3593984644919468, 0.0, 0.0, 0.0, 1.7744961524004343]
position_covariance_type: 2
---
header: 
  seq: 20563
  stamp: 
    secs: 1574452580
    nsecs: 158687114
  frame_id: "odom"
status: 
  status: 2
  service: 1
latitude: 37.8703832789
longitude: -122.270595506
altitude: 56.0526283784
position_covariance: [1.3083938729808091, 0.0, 0.0, 0.0, 1.3593984644919468, 0.0, 0.0, 0.0, 1.7744961524004343]
position_covariance_type: 2
---
header: 
  seq: 20564
  stamp: 
    secs: 1574452580
    nsecs: 212021112
  frame_id: "odom"
status: 
  status: 2
  service: 1
latitude: 37.8703812343
longitude: -122.270595288
altitude: 56.0506430147
position_covariance: [1.3083938729808091, 0.0, 0.0, 0.0, 1.359398436410315, 0.0, 0.0, 0.0, 1.7744961524004343]
position_covariance_type: 2
---
header: 
  seq: 20565
  stamp: 
    secs: 1574452580
    nsecs: 265415906
  frame_id: "odom"
status: 
  status: 2
  service: 1
latitude: 37.8703791845
longitude: -122.270595074
altitude: 56.0488595366
position_covariance: [1.3083938729808091, 0.0, 0.0, 0.0, 1.359398436410315, 0.0, 0.0, 0.0, 1.7744961524004343]
position_covariance_type: 2
---
header: 
  seq: 20566
  stamp: 
    secs: 1574452580
    nsecs: 318955898
  frame_id: "odom"
status: 
  status: 2
  service: 1
latitude: 37.8703771297
longitude: -122.270594863
altitude: 56.0476209335
position_covariance: [1.3083938729808091, 0.0, 0.0, 0.0, 1.359398436410315, 0.0, 0.0, 0.0, 1.7744961524004343]
position_covariance_type: 2
---
header: 
  seq: 20567
  stamp: 
    secs: 1574452580
    nsecs: 349749088
  frame_id: "odom"
status: 
  status: 2
  service: 1
latitude: 37.8703750683
longitude: -122.270594657
altitude: 56.0470197042
position_covariance: [1.3083938729808091, 0.0, 0.0, 0.0, 1.359398436410315, 0.0, 0.0, 0.0, 1.7744961524004343]
position_covariance_type: 2
---
header: 
  seq: 20568
  stamp: 
    secs: 1574452580
    nsecs: 403136968
  frame_id: "odom"
status: 
  status: 2
  service: 1
latitude: 37.8703729995
longitude: -122.270594449
altitude: 56.0465567447
position_covariance: [1.3083938729808091, 0.0, 0.0, 0.0, 1.359398436410315, 0.0, 0.0, 0.0, 1.7744961524004343]
position_covariance_type: 2
---
header: 
  seq: 20569
  stamp: 
    secs: 1574452580
    nsecs: 448668003
  frame_id: "odom"
status: 
  status: 2
  service: 1
latitude: 37.8703709259
longitude: -122.270594235
altitude: 56.0455455091
position_covariance: [1.3083938729808091, 0.0, 0.0, 0.0, 1.359398436410315, 0.0, 0.0, 0.0, 1.7744961524004343]
position_covariance_type: 2
---
header: 
  seq: 20570
  stamp: 
    secs: 1574452580
    nsecs: 502079010
  frame_id: "odom"
status: 
  status: 2
  service: 1
latitude: 37.870368848
longitude: -122.270594016
altitude: 56.0440478045
position_covariance: [1.3083938729808091, 0.0, 0.0, 0.0, 1.359398436410315, 0.0, 0.0, 0.0, 1.7744961524004343]
position_covariance_type: 2
---
header: 
  seq: 20571
  stamp: 
    secs: 1574452580
    nsecs: 555496931
  frame_id: "odom"
status: 
  status: 2
  service: 1
latitude: 37.8703667662
longitude: -122.2705938
altitude: 56.0425379314
position_covariance: [1.3083938729808091, 0.0, 0.0, 0.0, 1.359398436410315, 0.0, 0.0, 0.0, 1.7744961524004343]
position_covariance_type: 2
---
header: 
  seq: 20572
  stamp: 
    secs: 1574452580
    nsecs: 608901023
  frame_id: "odom"
status: 
  status: 2
  service: 1
