header: 
  seq: 28746
  stamp: 
    secs: 1574453038
    nsecs: 160111904
  frame_id: "odom"
status: 
  status: 2
  service: 1
latitude: 37.8684272949
longitude: -122.268221274
altitude: 56.1173870144
position_covariance: [1.0216444660405908, 0.0, 0.0, 0.0, 1.018036726805967, 0.0, 0.0, 0.0, 1.0303032271732644]
position_covariance_type: 2
---
header: 
  seq: 28747
  stamp: 
    secs: 1574453038
    nsecs: 213390111
  frame_id: "odom"
status: 
  status: 2
  service: 1
latitude: 37.8684272944
longitude: -122.268221275
altitude: 56.1172715873
position_covariance: [1.0216444660405908, 0.0, 0.0, 0.0, 1.018036726805967, 0.0, 0.0, 0.0, 1.0303032271732644]
position_covariance_type: 2
---
header: 
  seq: 28748
  stamp: 
    secs: 1574453038
    nsecs: 244857072
  frame_id: "odom"
status: 
  status: 2
  service: 1
latitude: 37.8684272939
longitude: -122.268221275
altitude: 56.1171354549
position_covariance: [1.0216444660405908, 0.0, 0.0, 0.0, 1.018036726805967, 0.0, 0.0, 0.0, 1.0303032271732644]
position_covariance_type: 2
---
header: 
  seq: 28749
  stamp: 
    secs: 1574453038
    nsecs: 298264980
  frame_id: "odom"
status: 
  status: 2
  service: 1
latitude: 37.8684272936
longitude: -122.268221275
altitude: 56.1170088015
position_covariance: [1.0216444660405908, 0.0, 0.0, 0.0, 1.018036726805967, 0.0, 0.0, 0.0, 1.0303032271732644]
position_covariance_type: 2
---
header: 
  seq: 28750
  stamp: 
    secs: 1574453038
    nsecs: 351766109
  frame_id: "odom"
status: 
  status: 2
  service: 1
latitude: 37.8684272937
longitude: -122.268221276
altitude: 56.1168792471
position_covariance: [1.0216444660405908, 0.0, 0.0, 0.0, 1.018036726805967, 0.0, 0.0, 0.0, 1.0303032271732644]
position_covariance_type: 2
---
header: 
  seq: 28751
  stamp: 
    secs: 1574453038
    nsecs: 391442060
  frame_id: "odom"
status: 
  status: 2
  service: 1
latitude: 37.868427294
longitude: -122.268221276
altitude: 56.1167538045
position_covariance: [1.0216444660405908, 0.0, 0.0, 0.0, 1.018036726805967, 0.0, 0.0, 0.0, 1.0303032271732644]
position_covariance_type: 2
---
header: 
  seq: 28752
  stamp: 
    secs: 1574453038
    nsecs: 444964885
  frame_id: "odom"
status: 
  status: 2
  service: 1
latitude: 37.8684272943
longitude: -122.268221276
altitude: 56.1166110579
position_covariance: [1.0216444660405908, 0.0, 0.0, 0.0, 1.018036726805967, 0.0, 0.0, 0.0, 1.0303032271732644]
position_covariance_type: 2
---
header: 
  seq: 28753
  stamp: 
    secs: 1574453038
    nsecs: 498389005
  frame_id: "odom"
status: 
  status: 2
  service: 1
latitude: 37.8684272943
longitude: -122.268221277
altitude: 56.1164530646
position_covariance: [1.0216444660405908, 0.0, 0.0, 0.0, 1.018036726805967, 0.0, 0.0, 0.0, 1.0303032271732644]
position_covariance_type: 2
---
header: 
  seq: 28754
  stamp: 
    secs: 1574453038
    nsecs: 551912069
  frame_id: "odom"
status: 
  status: 2
  service: 1
latitude: 37.8684272941
longitude: -122.268221278
altitude: 56.1162959281
position_covariance: [1.0216444660405908, 0.0, 0.0, 0.0, 1.018036726805967, 0.0, 0.0, 0.0, 1.0303032271732644]
position_covariance_type: 2
---
header: 
  seq: 28755
  stamp: 
    secs: 1574453038
    nsecs: 591569900
  frame_id: "odom"
status: 
  status: 2
  service: 1
latitude: 37.8684272936
longitude: -122.268221278
altitude: 56.1161318775
position_covariance: [1.0216444660405908, 0.0, 0.0, 0.0, 1.018036726805967, 0.0, 0.0, 0.0, 1.0303032271732644]
position_covariance_type: 2
---
header: 
  seq: 28756
  stamp: 
    secs: 1574453038
    nsecs: 645034074
  frame_id: "odom"
status: 
  status: 2
  service: 1
latitude: 37.8684272931
longitude: -122.268221278
altitude: 56.115967093
position_covariance: [1.0216444660405908, 0.0, 0.0, 0.0, 1.018036726805967, 0.0, 0.0, 0.0, 1.0303032271732644]
position_covariance_type: 2
---
header: 
  seq: 28757
  stamp: 
    secs: 1574453038
    nsecs: 698396921
  frame_id: "odom"
status: 
  status: 2
  service: 1
latitude: 37.8684272926
longitude: -122.268221278
altitude: 56.1158152753
position_covariance: [1.0216444660405908, 0.0, 0.0, 0.0, 1.018036726805967, 0.0, 0.0, 0.0, 1.0303032271732644]
position_covariance_type: 2
---
header: 
  seq: 28758
  stamp: 
    secs: 1574453038
    nsecs: 751919031
  frame_id: "odom"
status: 
  status: 2
  service: 1
latitude: 37.8684272926
longitude: -122.268221278
altitude: 56.1156438226
position_covariance: [1.0216444660405908, 0.0, 0.0, 0.0, 1.018036726805967, 0.0, 0.0, 0.0, 1.0303032271732644]
position_covariance_type: 2
---
header: 
  seq: 28759
  stamp: 
    secs: 1574453038
    nsecs: 805274963
  frame_id: "odom"
status: 
  status: 2
  service: 1
latitude: 37.868427293
longitude: -122.268221279
altitude: 56.11547295
position_covariance: [1.0216444660405908, 0.0, 0.0, 0.0, 1.018036726805967, 0.0, 0.0, 0.0, 1.0303032271732644]
position_covariance_type: 2
---
header: 
  seq: 28760
  stamp: 
    secs: 1574453038
    nsecs: 858776092
  frame_id: "odom"
status: 
  status: 2
  service: 1
latitude: 37.8684272933
longitude: -122.268221279
altitude: 56.1152950656
position_covariance: [1.0216444660405908, 0.0, 0.0, 0.0, 1.018036726805967, 0.0, 0.0, 0.0, 1.0303032271732644]
position_covariance_type: 2
---
header: 
  seq: 28761
  stamp: 
    secs: 1574453038
    nsecs: 912201881
  frame_id: "odom"
status: 
  status: 2
  service: 1
latitude: 37.8684272933
longitude: -122.26822128
altitude: 56.1151297828
position_covariance: [1.0216444660405908, 0.0, 0.0, 0.0, 1.018036726805967, 0.0, 0.0, 0.0, 1.0303032271732644]
position_covariance_type: 2
---
header: 
  seq: 28762
  stamp: 
    secs: 1574453038
    nsecs: 965708017
  frame_id: "odom"
status: 
  status: 2
  service: 1
latitude: 37.8684272932
longitude: -122.26822128
altitude: 56.1149743153
position_covariance: [1.0216444660405908, 0.0, 0.0, 0.0, 1.018036726805967, 0.0, 0.0, 0.0, 1.0303032271732644]
position_covariance_type: 2
---
header: 
  seq: 28763
  stamp: 
    secs: 1574453039
    nsecs:   5314111
  frame_id: "odom"
status: 
  status: 2
  service: 1
latitude: 37.8684272925
longitude: -122.268221281
altitude: 56.1148311784
position_covariance: [1.0216444660405908, 0.0, 0.0, 0.0, 1.018036726805967, 0.0, 0.0, 0.0, 1.0303032271732644]
position_covariance_type: 2
---
header: 
  seq: 28764
  stamp: 
    secs: 1574453039
    nsecs:  58805942
  frame_id: "odom"
status: 
  status: 2
  service: 1
latitude: 37.868427293
longitude: -122.268221281
altitude: 56.1146437172
position_covariance: [1.0199548642134826, 0.0, 0.0, 0.0, 1.0166637932446794, 0.0, 0.0, 0.0, 1.0279987429029531]
position_covariance_type: 2
---
header: 
  seq: 28765
  stamp: 
    secs: 1574453039
    nsecs: 112149953
  frame_id: "odom"
status: 
  status: 2
  service: 1
latitude: 37.8684272938
longitude: -122.268221281
altitude: 56.1145349946
position_covariance: [1.0199548642134826, 0.0, 0.0, 0.0, 1.0166637932446794, 0.0, 0.0, 0.0, 1.0279987429029531]
position_covariance_type: 2
---
header: 
  seq: 28766
  stamp: 
    secs: 1574453039
    nsecs: 165719985
  frame_id: "odom"
status: 
  status: 2
  service: 1
latitude: 37.8684272952
longitude: -122.26822128
altitude: 56.1143999351
position_covariance: [1.0199548642134826, 0.0, 0.0, 0.0, 1.0166637932446794, 0.0, 0.0, 0.0, 1.0279987429029531]
position_covariance_type: 2
---
header: 
  seq: 28767
  stamp: 
    secs: 1574453039
    nsecs: 196383953
  frame_id: "odom"
status: 
  status: 2
  service: 1
latitude: 37.8684272969
longitude: -122.26822128
altitude: 56.1142715737
position_covariance: [1.0199548642134826, 0.0, 0.0, 0.0, 1.0166637932446794, 0.0, 0.0, 0.0, 1.0279987429029531]
position_covariance_type: 2
---
header: 
  seq: 28768
  stamp: 
    secs: 1574453039
    nsecs: 294795036
  frame_id: "odom"
status: 
  status: 2
  service: 1
latitude: 37.8684273008
longitude: -122.26822128
altitude: 56.1139971511
position_covariance: [1.0199548642134826, 0.0, 0.0, 0.0, 1.0166637932446794, 0.0, 0.0, 0.0, 1.0279987429029531]
position_covariance_type: 2
---
header: 
  seq: 28769
  stamp: 
    secs: 1574453039
    nsecs: 340435981
  frame_id: "odom"
status: 
  status: 2
  service: 1
latitude: 37.8684273022
longitude: -122.26822128
altitude: 56.1138690496
position_covariance: [1.0199548642134826, 0.0, 0.0, 0.0, 1.0166637932446794, 0.0, 0.0, 0.0, 1.0279987429029531]
position_covariance_type: 2
---
header: 
  seq: 28770
  stamp: 
    secs: 1574453039
    nsecs: 394673109
  frame_id: "odom"
status: 
  status: 2
  service: 1
latitude: 37.868427303
longitude: -122.26822128
altitude: 56.1137428489
position_covariance: [1.0199548642134826, 0.0, 0.0, 0.0, 1.0166637932446794, 0.0, 0.0, 0.0, 1.0279987429029531]
position_covariance_type: 2
---
header: 
  seq: 28771
  stamp: 
    secs: 1574453039
    nsecs: 434499979
  frame_id: "odom"
status: 
  status: 2
  service: 1
latitude: 37.8684273036
longitude: -122.26822128
altitude: 56.11361227
position_covariance: [1.0199548642134826, 0.0, 0.0, 0.0, 1.0166637932446794, 0.0, 0.0, 0.0, 1.0279987429029531]
position_covariance_type: 2
---
header: 
  seq: 28772
  stamp: 
    secs: 1574453039
    nsecs: 487972021
  frame_id: "odom"
status: 
  status: 2
  service: 1
latitude: 37.8684273043
longitude: -122.268221279
altitude: 56.1135049872
position_covariance: [1.0199548642134826, 0.0, 0.0, 0.0, 1.0166637932446794, 0.0, 0.0, 0.0, 1.0279987429029531]
position_covariance_type: 2
---
header: 
  seq: 28773
  stamp: 
    secs: 1574453039
    nsecs: 541425943
  frame_id: "odom"
status: 
  status: 2
  service: 1
latitude: 37.8684273053
longitude: -122.268221279
altitude: 56.1133755315
position_covariance: [1.0199548642134826, 0.0, 0.0, 0.0, 1.0166637932446794, 0.0, 0.0, 0.0, 1.0279987429029531]
position_covariance_type: 2
---
header: 
  seq: 28774
  stamp: 
    secs: 1574453039
    nsecs: 594888925
  frame_id: "odom"
status: 
  status: 2
  service: 1
latitude: 37.868427307
longitude: -122.26822128
altitude: 56.1132230796
position_covariance: [1.0199548642134826, 0.0, 0.0, 0.0, 1.0166637932446794, 0.0, 0.0, 0.0, 1.0279987429029531]
position_covariance_type: 2
---
header: 
  seq: 28775
  stamp: 
    secs: 1574453039
    nsecs: 648401975
  frame_id: "odom"
status: 
  status: 2
  service: 1
latitude: 37.868427309
longitude: -122.26822128
altitude: 56.1130704274
position_covariance: [1.0199548642134826, 0.0, 0.0, 0.0, 1.0166637932446794, 0.0, 0.0, 0.0, 1.0279987429029531]
position_covariance_type: 2
---
header: 
  seq: 28776
  stamp: 
    secs: 1574453039
    nsecs: 701742887
  frame_id: "odom"
status: 
  status: 2
  service: 1
latitude: 37.8684273109
longitude: -122.26822128
altitude: 56.1129533714
position_covariance: [1.0199548642134826, 0.0, 0.0, 0.0, 1.0166637932446794, 0.0, 0.0, 0.0, 1.0279987429029531]
position_covariance_type: 2
---
header: 
  seq: 28777
  stamp: 
    secs: 1574453039
    nsecs: 755430936
  frame_id: "odom"
status: 
  status: 2
  service: 1
latitude: 37.8684273125
longitude: -122.26822128
altitude: 56.1128217019
position_covariance: [1.0199548642134826, 0.0, 0.0, 0.0, 1.0166637932446794, 0.0, 0.0, 0.0, 1.0279987429029531]
position_covariance_type: 2
---
header: 
  seq: 28778
  stamp: 
    secs: 1574453039
    nsecs: 808659076
  frame_id: "odom"
status: 
  status: 2
  service: 1
latitude: 37.8684273139
longitude: -122.26822128
altitude: 56.1126693226
position_covariance: [1.0199548642134826, 0.0, 0.0, 0.0, 1.0166637932446794, 0.0, 0.0, 0.0, 1.0279987429029531]
position_covariance_type: 2
---
header: 
  seq: 28779
  stamp: 
    secs: 1574453039
    nsecs: 862217903
  frame_id: "odom"
status: 
  status: 2
  service: 1
latitude: 37.8684273148
longitude: -122.26822128
altitude: 56.1125119226
position_covariance: [1.0199548642134826, 0.0, 0.0, 0.0, 1.0166637932446794, 0.0, 0.0, 0.0, 1.0279987429029531]
position_covariance_type: 2
---
header: 
  seq: 28780
  stamp: 
    secs: 1574453039
    nsecs: 915566921
  frame_id: "odom"
status: 
  status: 2
  service: 1
latitude: 37.8684273158
longitude: -122.268221281
altitude: 56.1123870704
position_covariance: [1.0199548642134826, 0.0, 0.0, 0.0, 1.0166637932446794, 0.0, 0.0, 0.0, 1.0279987429029531]
position_covariance_type: 2
---
header: 
  seq: 28781
  stamp: 
    secs: 1574453039
    nsecs: 961052894
  frame_id: "odom"
status: 
  status: 2
  service: 1
latitude: 37.8684273174
longitude: -122.268221281
altitude: 56.1122527504
position_covariance: [1.0199548642134826, 0.0, 0.0, 0.0, 1.0166637932446794, 0.0, 0.0, 0.0, 1.0279987429029531]
position_covariance_type: 2
---
header: 
  seq: 28782
  stamp: 
    secs: 1574453040
    nsecs:  14440059
  frame_id: "odom"
status: 
  status: 2
  service: 1
latitude: 37.8684273191
longitude: -122.268221281
altitude: 56.1121047847
position_covariance: [1.0199548642134826, 0.0, 0.0, 0.0, 1.0166637932446794, 0.0, 0.0, 0.0, 1.0279987429029531]
position_covariance_type: 2
---
header: 
  seq: 28783
  stamp: 
    secs: 1574453040
    nsecs:  45278072
  frame_id: "odom"
status: 
  status: 2
  service: 1
latitude: 37.8684273203
longitude: -122.26822128
altitude: 56.1119554704
position_covariance: [1.0186647602082857, 0.0, 0.0, 0.0, 1.0156289676458683, 0.0, 0.0, 0.0, 1.0261979619770347]
position_covariance_type: 2
---
header: 
  seq: 28784
  stamp: 
    secs: 1574453040
    nsecs: 143060922
  frame_id: "odom"
status: 
  status: 2
  service: 1
latitude: 37.8684273227
longitude: -122.268221279
altitude: 56.1115800543
position_covariance: [1.0186647602082857, 0.0, 0.0, 0.0, 1.0156289676458683, 0.0, 0.0, 0.0, 1.0261979619770347]
position_covariance_type: 2
---
header: 
  seq: 28785
  stamp: 
    secs: 1574453040
    nsecs: 196500062
  frame_id: "odom"
status: 
  status: 2
  service: 1
latitude: 37.8684273234
longitude: -122.268221279
altitude: 56.1114319079
position_covariance: [1.0186647602082857, 0.0, 0.0, 0.0, 1.0156289676458683, 0.0, 0.0, 0.0, 1.0261979619770347]
position_covariance_type: 2
---
header: 
  seq: 28786
  stamp: 
    secs: 1574453040
    nsecs: 242034912
  frame_id: "odom"
status: 
  status: 2
  service: 1
latitude: 37.8684273241
longitude: -122.268221278
altitude: 56.1112786587
position_covariance: [1.0186647602082857, 0.0, 0.0, 0.0, 1.0156289676458683, 0.0, 0.0, 0.0, 1.0261979619770347]
position_covariance_type: 2
---
header: 
  seq: 28787
  stamp: 
    secs: 1574453040
    nsecs: 295412063
  frame_id: "odom"
status: 
  status: 2
  service: 1
latitude: 37.8684273249
longitude: -122.268221277
altitude: 56.1111130426
position_covariance: [1.0186647602082857, 0.0, 0.0, 0.0, 1.0156289676458683, 0.0, 0.0, 0.0, 1.0261979619770347]
position_covariance_type: 2
---
header: 
  seq: 28788
  stamp: 
    secs: 1574453040
    nsecs: 335107088
  frame_id: "odom"
status: 
  status: 2
  service: 1
latitude: 37.868427326
longitude: -122.268221277
altitude: 56.1109190406
position_covariance: [1.0186647602082857, 0.0, 0.0, 0.0, 1.0156289676458683, 0.0, 0.0, 0.0, 1.0261979619770347]
position_covariance_type: 2
---
header: 
  seq: 28789
  stamp: 
    secs: 1574453040
    nsecs: 388566017
  frame_id: "odom"
status: 
  status: 2
  service: 1
latitude: 37.8684273274
longitude: -122.268221276
altitude: 56.1107169092
position_covariance: [1.0186647602082857, 0.0, 0.0, 0.0, 1.0156289676458683, 0.0, 0.0, 0.0, 1.0261979619770347]
position_covariance_type: 2
---
header: 
  seq: 28790
  stamp: 
    secs: 1574453040
    nsecs: 442053079
  frame_id: "odom"
status: 
  status: 2
  service: 1
latitude: 37.868427329
longitude: -122.268221276
altitude: 56.1105187312
position_covariance: [1.0186647602082857, 0.0, 0.0, 0.0, 1.0156289676458683, 0.0, 0.0, 0.0, 1.0261979619770347]
position_covariance_type: 2
---
header: 
  seq: 28791
  stamp: 
    secs: 1574453040
    nsecs: 495405912
  frame_id: "odom"
status: 
  status: 2
  service: 1
latitude: 37.8684273304
longitude: -122.268221276
altitude: 56.1103395345
position_covariance: [1.0186647602082857, 0.0, 0.0, 0.0, 1.0156289676458683, 0.0, 0.0, 0.0, 1.0261979619770347]
position_covariance_type: 2
---
header: 
  seq: 28792
  stamp: 
    secs: 1574453040
    nsecs: 548985004
  frame_id: "odom"
status: 
  status: 2
  service: 1
latitude: 37.8684273315
longitude: -122.268221276
altitude: 56.1101776278
position_covariance: [1.0186647602082857, 0.0, 0.0, 0.0, 1.0156289676458683, 0.0, 0.0, 0.0, 1.0261979619770347]
position_covariance_type: 2
---
header: 
  seq: 28793
  stamp: 
    secs: 1574453040
    nsecs: 602276086
  frame_id: "odom"
status: 
  status: 2
  service: 1
latitude: 37.8684273323
longitude: -122.268221276
altitude: 56.1099857446
position_covariance: [1.0186647602082857, 0.0, 0.0, 0.0, 1.0156289676458683, 0.0, 0.0, 0.0, 1.0261979619770347]
position_covariance_type: 2
---
header: 
  seq: 28794
  stamp: 
    secs: 1574453040
    nsecs: 642116069
  frame_id: "odom"
status: 
  status: 2
  service: 1
latitude: 37.8684273331
longitude: -122.268221275
altitude: 56.1097891061
position_covariance: [1.0186647602082857, 0.0, 0.0, 0.0, 1.0156289676458683, 0.0, 0.0, 0.0, 1.0261979619770347]
position_covariance_type: 2
---
header: 
  seq: 28795
  stamp: 
    secs: 1574453040
    nsecs: 695403099
  frame_id: "odom"
status: 
  status: 2
  service: 1
latitude: 37.8684273341
longitude: -122.268221275
altitude: 56.1095910491
position_covariance: [1.0186647602082857, 0.0, 0.0, 0.0, 1.0156289676458683, 0.0, 0.0, 0.0, 1.0261979619770347]
position_covariance_type: 2
---
header: 
  seq: 28796
  stamp: 
    secs: 1574453040
    nsecs: 748905897
  frame_id: "odom"
status: 
  status: 2
  service: 1
latitude: 37.8684273353
longitude: -122.268221275
altitude: 56.1094044866
position_covariance: [1.0186647602082857, 0.0, 0.0, 0.0, 1.0156289676458683, 0.0, 0.0, 0.0, 1.0261979619770347]
position_covariance_type: 2
---
header: 
  seq: 28797
  stamp: 
    secs: 1574453040
    nsecs: 802258014
  frame_id: "odom"
status: 
  status: 2
  service: 1
latitude: 37.8684273369
longitude: -122.268221275
altitude: 56.1092150742
position_covariance: [1.0186647602082857, 0.0, 0.0, 0.0, 1.0156289676458683, 0.0, 0.0, 0.0, 1.0261979619770347]
position_covariance_type: 2
---
header: 
  seq: 28798
  stamp: 
    secs: 1574453040
    nsecs: 842109918
  frame_id: "odom"
status: 
  status: 2
  service: 1
latitude: 37.8684273385
longitude: -122.268221275
altitude: 56.1090341927
position_covariance: [1.0186647602082857, 0.0, 0.0, 0.0, 1.0156289676458683, 0.0, 0.0, 0.0, 1.0261979619770347]
position_covariance_type: 2
---
header: 
  seq: 28799
  stamp: 
    secs: 1574453040
    nsecs: 895437002
  frame_id: "odom"
status: 
  status: 2
  service: 1
latitude: 37.86842734
longitude: -122.268221275
altitude: 56.1088378355
position_covariance: [1.0186647602082857, 0.0, 0.0, 0.0, 1.0156289676458683, 0.0, 0.0, 0.0, 1.0261979619770347]
position_covariance_type: 2
---
header: 
  seq: 28800
  stamp: 
    secs: 1574453040
    nsecs: 948903083
  frame_id: "odom"
status: 
  status: 2
  service: 1
latitude: 37.8684273413
longitude: -122.268221274
altitude: 56.108642811
position_covariance: [1.0186647602082857, 0.0, 0.0, 0.0, 1.0156289676458683, 0.0, 0.0, 0.0, 1.0261979619770347]
position_covariance_type: 2
---
header: 
  seq: 28801
  stamp: 
    secs: 1574453041
    nsecs:   2290010
  frame_id: "odom"
status: 
  status: 2
  service: 1
latitude: 37.8684273425
longitude: -122.268221274
altitude: 56.1084509576
position_covariance: [1.0186647602082857, 0.0, 0.0, 0.0, 1.0156289676458683, 0.0, 0.0, 0.0, 1.0261979619770347]
position_covariance_type: 2
---
header: 
  seq: 28802
  stamp: 
    secs: 1574453041
    nsecs:  55862903
  frame_id: "odom"
status: 
  status: 2
  service: 1
latitude: 37.8684273437
longitude: -122.268221273
altitude: 56.1082852772
position_covariance: [1.0176477595066564, 0.0, 0.0, 0.0, 1.0148243779320243, 0.0, 0.0, 0.0, 1.0247443064057413]
position_covariance_type: 2
---
header: 
  seq: 28803
  stamp: 
    secs: 1574453041
    nsecs: 109282970
  frame_id: "odom"
status: 
  status: 2
  service: 1
latitude: 37.8684273449
longitude: -122.268221272
altitude: 56.1081678718
position_covariance: [1.0176477595066564, 0.0, 0.0, 0.0, 1.0148243779320243, 0.0, 0.0, 0.0, 1.0247443064057413]
position_covariance_type: 2
---
header: 
  seq: 28804
  stamp: 
    secs: 1574453041
    nsecs: 162688016
  frame_id: "odom"
status: 
  status: 2
  service: 1
latitude: 37.8684273465
longitude: -122.268221272
altitude: 56.1080445945
position_covariance: [1.0176477595066564, 0.0, 0.0, 0.0, 1.0148243779320243, 0.0, 0.0, 0.0, 1.0247443064057413]
position_covariance_type: 2
---
header: 
  seq: 28805
  stamp: 
    secs: 1574453041
    nsecs: 216089963
  frame_id: "odom"
status: 
  status: 2
  service: 1
latitude: 37.8684273483
longitude: -122.268221271
altitude: 56.107916913
position_covariance: [1.0176477595066564, 0.0, 0.0, 0.0, 1.0148243779320243, 0.0, 0.0, 0.0, 1.0247443064057413]
position_covariance_type: 2
---
header: 
  seq: 28806
  stamp: 
    secs: 1574453041
    nsecs: 261667966
  frame_id: "odom"
status: 
  status: 2
  service: 1
latitude: 37.8684273502
longitude: -122.26822127
altitude: 56.1077980464
position_covariance: [1.0176477595066564, 0.0, 0.0, 0.0, 1.0148243779320243, 0.0, 0.0, 0.0, 1.0247443064057413]
position_covariance_type: 2
---
header: 
  seq: 28807
  stamp: 
    secs: 1574453041
    nsecs: 314963102
  frame_id: "odom"
status: 
  status: 2
  service: 1
latitude: 37.868427352
longitude: -122.26822127
altitude: 56.1076843636
position_covariance: [1.0176477595066564, 0.0, 0.0, 0.0, 1.0148243779320243, 0.0, 0.0, 0.0, 1.0247443064057413]
position_covariance_type: 2
---
header: 
  seq: 28808
  stamp: 
    secs: 1574453041
    nsecs: 345837116
  frame_id: "odom"
status: 
  status: 2
  service: 1
latitude: 37.8684273536
longitude: -122.268221269
altitude: 56.107566935
position_covariance: [1.0176477595066564, 0.0, 0.0, 0.0, 1.0148243779320243, 0.0, 0.0, 0.0, 1.0247443064057413]
position_covariance_type: 2
---
header: 
  seq: 28809
  stamp: 
    secs: 1574453041
    nsecs: 399257898
  frame_id: "odom"
status: 
  status: 2
  service: 1
latitude: 37.8684273549
longitude: -122.268221268
altitude: 56.1074626949
position_covariance: [1.0176477595066564, 0.0, 0.0, 0.0, 1.0148243779320243, 0.0, 0.0, 0.0, 1.0247443064057413]
position_covariance_type: 2
---
header: 
  seq: 28810
  stamp: 
    secs: 1574453041
    nsecs: 489111900
  frame_id: "odom"
status: 
  status: 2
  service: 1
latitude: 37.8684273579
longitude: -122.268221267
altitude: 56.1072226353
position_covariance: [1.0176477595066564, 0.0, 0.0, 0.0, 1.0148243779320243, 0.0, 0.0, 0.0, 1.0247443064057413]
position_covariance_type: 2
---
header: 
  seq: 28811
  stamp: 
    secs: 1574453041
    nsecs: 542798042
  frame_id: "odom"
status: 
  status: 2
  service: 1
latitude: 37.8684273597
longitude: -122.268221266
altitude: 56.1071036998
position_covariance: [1.0176477595066564, 0.0, 0.0, 0.0, 1.0148243779320243, 0.0, 0.0, 0.0, 1.0247443064057413]
position_covariance_type: 2
---
header: 
  seq: 28812
  stamp: 
    secs: 1574453041
    nsecs: 595961093
  frame_id: "odom"
status: 
  status: 2
  service: 1
latitude: 37.8684273615
longitude: -122.268221266
altitude: 56.1069702348
position_covariance: [1.0176477595066564, 0.0, 0.0, 0.0, 1.0148243779320243, 0.0, 0.0, 0.0, 1.0247443064057413]
position_covariance_type: 2
---
header: 
  seq: 28813
  stamp: 
    secs: 1574453041
    nsecs: 649390935
  frame_id: "odom"
status: 
  status: 2
  service: 1
latitude: 37.8684273634
longitude: -122.268221265
altitude: 56.1068192609
position_covariance: [1.0176477595066564, 0.0, 0.0, 0.0, 1.0148243779320243, 0.0, 0.0, 0.0, 1.0247443064057413]
position_covariance_type: 2
---
header: 
  seq: 28814
  stamp: 
    secs: 1574453041
    nsecs: 702837944
  frame_id: "odom"
status: 
  status: 2
  service: 1
latitude: 37.8684273652
longitude: -122.268221265
altitude: 56.1066641072
position_covariance: [1.0176477595066564, 0.0, 0.0, 0.0, 1.0148243779320243, 0.0, 0.0, 0.0, 1.0247443064057413]
position_covariance_type: 2
---
header: 
  seq: 28815
  stamp: 
    secs: 1574453041
    nsecs: 756362915
  frame_id: "odom"
status: 
  status: 2
  service: 1
latitude: 37.8684273666
longitude: -122.268221264
altitude: 56.1065224679
position_covariance: [1.0176477595066564, 0.0, 0.0, 0.0, 1.0148243779320243, 0.0, 0.0, 0.0, 1.0247443064057413]
position_covariance_type: 2
---
header: 
  seq: 28816
  stamp: 
    secs: 1574453041
    nsecs: 809724092
  frame_id: "odom"
status: 
  status: 2
  service: 1
latitude: 37.868427368
longitude: -122.268221264
altitude: 56.1063637072
position_covariance: [1.0176477595066564, 0.0, 0.0, 0.0, 1.0148243779320243, 0.0, 0.0, 0.0, 1.0247443064057413]
position_covariance_type: 2
---
header: 
  seq: 28817
  stamp: 
    secs: 1574453041
    nsecs: 907617092
  frame_id: "odom"
status: 
  status: 2
  service: 1
latitude: 37.8684273708
longitude: -122.268221263
altitude: 56.1060844753
position_covariance: [1.0176477595066564, 0.0, 0.0, 0.0, 1.0148243779320243, 0.0, 0.0, 0.0, 1.0247443064057413]
position_covariance_type: 2
---
header: 
  seq: 28818
  stamp: 
    secs: 1574453041
    nsecs: 947391033
  frame_id: "odom"
status: 
  status: 2
  service: 1
latitude: 37.8684273727
longitude: -122.268221263
altitude: 56.1059289919
position_covariance: [1.0176477595066564, 0.0, 0.0, 0.0, 1.0148243779320243, 0.0, 0.0, 0.0, 1.0247443064057413]
position_covariance_type: 2
---
header: 
  seq: 28819
  stamp: 
    secs: 1574453042
    nsecs:    701904
  frame_id: "odom"
status: 
  status: 2
  service: 1
latitude: 37.868427375
longitude: -122.26822126
altitude: 56.1057007881
position_covariance: [1.0176477595066564, 0.0, 0.0, 0.0, 1.0148243779320243, 0.0, 0.0, 0.0, 1.0247443064057413]
position_covariance_type: 2
---
header: 
  seq: 28820
  stamp: 
    secs: 1574453042
    nsecs:  54188966
  frame_id: "odom"
status: 
  status: 2
  service: 1
latitude: 37.8684273785
longitude: -122.268221252
altitude: 56.1052581593
position_covariance: [1.0168689368231052, 0.0, 0.0, 0.0, 1.0142326817423994, 0.0, 0.0, 0.0, 1.023579944102426]
position_covariance_type: 2
---
header: 
  seq: 28821
  stamp: 
    secs: 1574453042
    nsecs: 107611894
  frame_id: "odom"
status: 
  status: 2
  service: 1
latitude: 37.8684273833
longitude: -122.268221237
altitude: 56.1046955716
position_covariance: [1.0168689368231052, 0.0, 0.0, 0.0, 1.0142326817423994, 0.0, 0.0, 0.0, 1.023579944102426]
position_covariance_type: 2
---
header: 
  seq: 28822
  stamp: 
    secs: 1574453042
    nsecs: 161066055
  frame_id: "odom"
status: 
  status: 2
  service: 1
latitude: 37.8684273889
longitude: -122.268221214
altitude: 56.1041566925
position_covariance: [1.0168689368231052, 0.0, 0.0, 0.0, 1.0142326817423994, 0.0, 0.0, 0.0, 1.023579944102426]
position_covariance_type: 2
---
header: 
  seq: 28823
  stamp: 
    secs: 1574453042
    nsecs: 214479923
  frame_id: "odom"
status: 
  status: 2
  service: 1
latitude: 37.8684273953
longitude: -122.268221182
altitude: 56.1036274182
position_covariance: [1.0168689368231052, 0.0, 0.0, 0.0, 1.0142326817423994, 0.0, 0.0, 0.0, 1.023579944102426]
position_covariance_type: 2
---
header: 
  seq: 28824
  stamp: 
    secs: 1574453042
    nsecs: 259994983
  frame_id: "odom"
status: 
  status: 2
  service: 1
latitude: 37.8684274028
longitude: -122.26822114
altitude: 56.1031922027
position_covariance: [1.0168689368231052, 0.0, 0.0, 0.0, 1.0142326817423994, 0.0, 0.0, 0.0, 1.023579944102426]
position_covariance_type: 2
---
header: 
  seq: 28825
  stamp: 
    secs: 1574453042
    nsecs: 313349008
  frame_id: "odom"
status: 
  status: 2
  service: 1
latitude: 37.8684274115
longitude: -122.268221086
altitude: 56.1028689519
position_covariance: [1.0168689368231052, 0.0, 0.0, 0.0, 1.0142326817423994, 0.0, 0.0, 0.0, 1.023579944102426]
position_covariance_type: 2
---
header: 
  seq: 28826
  stamp: 
    secs: 1574453042
    nsecs: 353444099
  frame_id: "odom"
status: 
  status: 2
  service: 1
latitude: 37.8684274226
longitude: -122.268221014
altitude: 56.1025739517
position_covariance: [1.0168689368231052, 0.0, 0.0, 0.0, 1.0142326817423994, 0.0, 0.0, 0.0, 1.023579944102426]
position_covariance_type: 2
---
header: 
  seq: 28827
  stamp: 
    secs: 1574453042
    nsecs: 406817913
  frame_id: "odom"
status: 
  status: 2
  service: 1
latitude: 37.8684274368
longitude: -122.268220919
altitude: 56.1022859076
position_covariance: [1.0168689368231052, 0.0, 0.0, 0.0, 1.0142326817423994, 0.0, 0.0, 0.0, 1.023579944102426]
position_covariance_type: 2
---
header: 
  seq: 28828
  stamp: 
    secs: 1574453042
    nsecs: 460300922
  frame_id: "odom"
status: 
  status: 2
  service: 1
latitude: 37.8684274545
longitude: -122.268220796
altitude: 56.1020663865
position_covariance: [1.0168689368231052, 0.0, 0.0, 0.0, 1.0142326817423994, 0.0, 0.0, 0.0, 1.023579944102426]
position_covariance_type: 2
---
header: 
  seq: 28829
  stamp: 
    secs: 1574453042
    nsecs: 558103084
  frame_id: "odom"
status: 
  status: 2
  service: 1
latitude: 37.8684275014
longitude: -122.268220457
altitude: 56.1019598078
position_covariance: [1.0168689368231052, 0.0, 0.0, 0.0, 1.0142326817423994, 0.0, 0.0, 0.0, 1.023579944102426]
position_covariance_type: 2
---
header: 
  seq: 28830
  stamp: 
    secs: 1574453042
    nsecs: 655997037
  frame_id: "odom"
status: 
  status: 2
  service: 1
latitude: 37.8684275621
longitude: -122.268219984
altitude: 56.1022944832
position_covariance: [1.0168689368231052, 0.0, 0.0, 0.0, 1.0142326817423994, 0.0, 0.0, 0.0, 1.023579944102426]
position_covariance_type: 2
---
header: 
  seq: 28831
  stamp: 
    secs: 1574453042
    nsecs: 709413051
  frame_id: "odom"
status: 
  status: 2
  service: 1
latitude: 37.8684275975
longitude: -122.268219695
altitude: 56.1025112495
position_covariance: [1.0168689368231052, 0.0, 0.0, 0.0, 1.0142326817423994, 0.0, 0.0, 0.0, 1.023579944102426]
position_covariance_type: 2
---
header: 
  seq: 28832
  stamp: 
    secs: 1574453042
    nsecs: 762809991
  frame_id: "odom"
status: 
  status: 2
  service: 1
latitude: 37.8684276357
longitude: -122.268219372
altitude: 56.1027838169
position_covariance: [1.0168689368231052, 0.0, 0.0, 0.0, 1.0142326817423994, 0.0, 0.0, 0.0, 1.023579944102426]
position_covariance_type: 2
---
header: 
  seq: 28833
  stamp: 
    secs: 1574453042
    nsecs: 793590068
  frame_id: "odom"
status: 
  status: 2
  service: 1
latitude: 37.8684276775
longitude: -122.268219016
altitude: 56.1029289905
position_covariance: [1.0168689368231052, 0.0, 0.0, 0.0, 1.0142326817423994, 0.0, 0.0, 0.0, 1.023579944102426]
position_covariance_type: 2
---
header: 
  seq: 28834
  stamp: 
    secs: 1574453042
    nsecs: 891388893
  frame_id: "odom"
status: 
  status: 2
  service: 1
latitude: 37.8684277754
longitude: -122.2682182
altitude: 56.1030585971
position_covariance: [1.0168689368231052, 0.0, 0.0, 0.0, 1.0142326817423994, 0.0, 0.0, 0.0, 1.023579944102426]
position_covariance_type: 2
---
header: 
  seq: 28835
  stamp: 
    secs: 1574453042
    nsecs: 946526050
  frame_id: "odom"
status: 
  status: 2
  service: 1
latitude: 37.8684278323
longitude: -122.268217742
altitude: 56.1031164275
position_covariance: [1.0168689368231052, 0.0, 0.0, 0.0, 1.0142326817423994, 0.0, 0.0, 0.0, 1.023579944102426]
position_covariance_type: 2
---
header: 
  seq: 28836
  stamp: 
    secs: 1574453043
    nsecs:  44785976
  frame_id: "odom"
status: 
  status: 2
  service: 1
latitude: 37.8684279649
longitude: -122.26821672
altitude: 56.1034015287
position_covariance: [1.0163911656906168, 0.0, 0.0, 0.0, 1.013938357203752, 0.0, 0.0, 0.0, 1.022696963631008]
position_covariance_type: 2
---
header: 
  seq: 28837
  stamp: 
    secs: 1574453043
    nsecs: 142797946
  frame_id: "odom"
status: 
  status: 2
  service: 1
latitude: 37.8684281199
longitude: -122.268215551
altitude: 56.1042967374
position_covariance: [1.0163911656906168, 0.0, 0.0, 0.0, 1.013938357203752, 0.0, 0.0, 0.0, 1.022696963631008]
position_covariance_type: 2
---
header: 
  seq: 28838
  stamp: 
    secs: 1574453043
    nsecs: 196078062
  frame_id: "odom"
status: 
  status: 2
  service: 1
latitude: 37.8684282045
longitude: -122.268214911
altitude: 56.1050092392
position_covariance: [1.0163911656906168, 0.0, 0.0, 0.0, 1.013938357203752, 0.0, 0.0, 0.0, 1.022696963631008]
position_covariance_type: 2
---
header: 
  seq: 28839
  stamp: 
    secs: 1574453043
    nsecs: 241772890
  frame_id: "odom"
status: 
  status: 2
  service: 1
latitude: 37.8684282941
longitude: -122.268214238
altitude: 56.1058840193
position_covariance: [1.0163911656906168, 0.0, 0.0, 0.0, 1.013938357203752, 0.0, 0.0, 0.0, 1.022696963631008]
position_covariance_type: 2
---
header: 
  seq: 28840
  stamp: 
    secs: 1574453043
    nsecs: 295141935
  frame_id: "odom"
status: 
  status: 2
  service: 1
latitude: 37.8684283857
longitude: -122.268213531
altitude: 56.1070121462
position_covariance: [1.0163911656906168, 0.0, 0.0, 0.0, 1.013938357203752, 0.0, 0.0, 0.0, 1.022696963631008]
position_covariance_type: 2
---
header: 
  seq: 28841
  stamp: 
    secs: 1574453043
    nsecs: 340651988
  frame_id: "odom"
status: 
  status: 2
  service: 1
latitude: 37.8684284789
longitude: -122.268212792
altitude: 56.1082338355
position_covariance: [1.0163911656906168, 0.0, 0.0, 0.0, 1.013938357203752, 0.0, 0.0, 0.0, 1.022696963631008]
position_covariance_type: 2
---
header: 
  seq: 28842
  stamp: 
    secs: 1574453043
    nsecs: 394831895
  frame_id: "odom"
status: 
  status: 2
  service: 1
latitude: 37.8684285718
longitude: -122.26821202
altitude: 56.1096806042
position_covariance: [1.0163911656906168, 0.0, 0.0, 0.0, 1.013938357203752, 0.0, 0.0, 0.0, 1.022696963631008]
position_covariance_type: 2
---
header: 
  seq: 28843
  stamp: 
    secs: 1574453043
    nsecs: 434597969
  frame_id: "odom"
status: 
  status: 2
  service: 1
latitude: 37.8684286652
longitude: -122.268211218
altitude: 56.1112169251
position_covariance: [1.0163911656906168, 0.0, 0.0, 0.0, 1.013938357203752, 0.0, 0.0, 0.0, 1.022696963631008]
position_covariance_type: 2
---
header: 
  seq: 28844
  stamp: 
    secs: 1574453043
    nsecs: 487962007
  frame_id: "odom"
status: 
  status: 2
  service: 1
latitude: 37.8684287596
longitude: -122.268210384
altitude: 56.112973542
position_covariance: [1.0163911656906168, 0.0, 0.0, 0.0, 1.013938357203752, 0.0, 0.0, 0.0, 1.022696963631008]
position_covariance_type: 2
---
header: 
  seq: 28845
  stamp: 
    secs: 1574453043
    nsecs: 541513919
  frame_id: "odom"
status: 
  status: 2
  service: 1
latitude: 37.8684288551
longitude: -122.268209521
altitude: 56.1150487391
position_covariance: [1.0163911656906168, 0.0, 0.0, 0.0, 1.013938357203752, 0.0, 0.0, 0.0, 1.022696963631008]
position_covariance_type: 2
---
header: 
  seq: 28846
  stamp: 
    secs: 1574453043
    nsecs: 595057010
  frame_id: "odom"
status: 
  status: 2
  service: 1
latitude: 37.8684289554
longitude: -122.268208628
altitude: 56.1171374936
position_covariance: [1.0163911656906168, 0.0, 0.0, 0.0, 1.013938357203752, 0.0, 0.0, 0.0, 1.022696963631008]
position_covariance_type: 2
---
header: 
  seq: 28847
  stamp: 
    secs: 1574453043
    nsecs: 634872913
  frame_id: "odom"
status: 
  status: 2
  service: 1
latitude: 37.8684290621
longitude: -122.268207707
altitude: 56.119132773
position_covariance: [1.0163911656906168, 0.0, 0.0, 0.0, 1.013938357203752, 0.0, 0.0, 0.0, 1.022696963631008]
position_covariance_type: 2
---
header: 
  seq: 28848
  stamp: 
    secs: 1574453043
    nsecs: 688165903
  frame_id: "odom"
status: 
  status: 2
  service: 1
latitude: 37.8684291755
longitude: -122.268206758
altitude: 56.1208966412
position_covariance: [1.0163911656906168, 0.0, 0.0, 0.0, 1.013938357203752, 0.0, 0.0, 0.0, 1.022696963631008]
position_covariance_type: 2
---
header: 
  seq: 28849
  stamp: 
    secs: 1574453043
    nsecs: 741857051
  frame_id: "odom"
status: 
  status: 2
  service: 1
latitude: 37.8684292932
longitude: -122.268205786
altitude: 56.1228341507
position_covariance: [1.0163911656906168, 0.0, 0.0, 0.0, 1.013938357203752, 0.0, 0.0, 0.0, 1.022696963631008]
position_covariance_type: 2
---
header: 
  seq: 28850
  stamp: 
    secs: 1574453043
    nsecs: 795022010
  frame_id: "odom"
status: 
  status: 2
  service: 1
latitude: 37.8684294138
longitude: -122.268204791
altitude: 56.1249097064
position_covariance: [1.0163911656906168, 0.0, 0.0, 0.0, 1.013938357203752, 0.0, 0.0, 0.0, 1.022696963631008]
position_covariance_type: 2
---
header: 
  seq: 28851
  stamp: 
    secs: 1574453043
    nsecs: 848494052
  frame_id: "odom"
status: 
  status: 2
  service: 1
latitude: 37.8684295366
longitude: -122.268203771
altitude: 56.1270832215
position_covariance: [1.0163911656906168, 0.0, 0.0, 0.0, 1.013938357203752, 0.0, 0.0, 0.0, 1.022696963631008]
position_covariance_type: 2
---
header: 
  seq: 28852
  stamp: 
    secs: 1574453043
    nsecs: 901940107
  frame_id: "odom"
status: 
  status: 2
  service: 1
latitude: 37.8684296609
longitude: -122.268202722
altitude: 56.1291467631
position_covariance: [1.0163911656906168, 0.0, 0.0, 0.0, 1.013938357203752, 0.0, 0.0, 0.0, 1.022696963631008]
position_covariance_type: 2
---
header: 
  seq: 28853
  stamp: 
    secs: 1574453043
    nsecs: 955486059
  frame_id: "odom"
status: 
  status: 2
  service: 1
latitude: 37.8684297922
longitude: -122.268201649
altitude: 56.1308720624
position_covariance: [1.0163911656906168, 0.0, 0.0, 0.0, 1.013938357203752, 0.0, 0.0, 0.0, 1.022696963631008]
position_covariance_type: 2
---
header: 
  seq: 28854
  stamp: 
    secs: 1574453044
    nsecs:   8790016
  frame_id: "odom"
status: 
  status: 2
  service: 1
latitude: 37.868429934
longitude: -122.268200561
altitude: 56.1324009933
position_covariance: [1.0163911656906168, 0.0, 0.0, 0.0, 1.013938357203752, 0.0, 0.0, 0.0, 1.022696963631008]
position_covariance_type: 2
---
header: 
  seq: 28855
  stamp: 
    secs: 1574453044
    nsecs:  62398910
  frame_id: "odom"
status: 
  status: 2
  service: 1
latitude: 37.8684300773
longitude: -122.26819946
altitude: 56.1341781039
position_covariance: [1.0163720962574736, 0.0, 0.0, 0.0, 1.014097008203791, 0.0, 0.0, 0.0, 1.0221863507028426]
position_covariance_type: 2
---
header: 
  seq: 28856
  stamp: 
    secs: 1574453044
    nsecs:  93168973
  frame_id: "odom"
status: 
  status: 2
  service: 1
latitude: 37.868430221
longitude: -122.268198355
altitude: 56.1361490348
position_covariance: [1.0163720962574736, 0.0, 0.0, 0.0, 1.014097008203791, 0.0, 0.0, 0.0, 1.0221863507028426]
position_covariance_type: 2
---
header: 
  seq: 28857
  stamp: 
    secs: 1574453044
    nsecs: 146656990
  frame_id: "odom"
status: 
  status: 2
  service: 1
latitude: 37.8684303668
longitude: -122.268197249
altitude: 56.1379879704
position_covariance: [1.0163720962574736, 0.0, 0.0, 0.0, 1.014097008203791, 0.0, 0.0, 0.0, 1.0221863507028426]
position_covariance_type: 2
---
header: 
  seq: 28858
  stamp: 
    secs: 1574453044
    nsecs: 199949026
  frame_id: "odom"
status: 
  status: 2
  service: 1
latitude: 37.8684305123
longitude: -122.268196149
altitude: 56.1398298386
position_covariance: [1.0163720962574736, 0.0, 0.0, 0.0, 1.014097008203791, 0.0, 0.0, 0.0, 1.0221863507028426]
position_covariance_type: 2
---
header: 
  seq: 28859
  stamp: 
    secs: 1574453044
    nsecs: 253453969
  frame_id: "odom"
status: 
  status: 2
  service: 1
latitude: 37.8684306542
longitude: -122.268195054
altitude: 56.1419097427
position_covariance: [1.0163720962574736, 0.0, 0.0, 0.0, 1.014097008203791, 0.0, 0.0, 0.0, 1.0221863507028426]
position_covariance_type: 2
---
header: 
  seq: 28860
  stamp: 
    secs: 1574453044
    nsecs: 306839942
  frame_id: "odom"
status: 
  status: 2
  service: 1
latitude: 37.8684307922
longitude: -122.268193963
altitude: 56.144115801
position_covariance: [1.0163720962574736, 0.0, 0.0, 0.0, 1.014097008203791, 0.0, 0.0, 0.0, 1.0221863507028426]
position_covariance_type: 2
---
header: 
  seq: 28861
  stamp: 
    secs: 1574453044
    nsecs: 360430955
  frame_id: "odom"
status: 
  status: 2
  service: 1
latitude: 37.8684309269
longitude: -122.268192874
altitude: 56.1460512122
position_covariance: [1.0163720962574736, 0.0, 0.0, 0.0, 1.014097008203791, 0.0, 0.0, 0.0, 1.0221863507028426]
position_covariance_type: 2
---
header: 
  seq: 28862
  stamp: 
    secs: 1574453044
    nsecs: 391170024
  frame_id: "odom"
status: 
  status: 2
  service: 1
latitude: 37.8684310624
longitude: -122.268191785
altitude: 56.1474091141
position_covariance: [1.0163720962574736, 0.0, 0.0, 0.0, 1.014097008203791, 0.0, 0.0, 0.0, 1.0221863507028426]
position_covariance_type: 2
---
header: 
  seq: 28863
  stamp: 
    secs: 1574453044
    nsecs: 489546060
  frame_id: "odom"
status: 
  status: 2
  service: 1
latitude: 37.8684313378
longitude: -122.268189618
altitude: 56.149199035
position_covariance: [1.0163720962574736, 0.0, 0.0, 0.0, 1.014097008203791, 0.0, 0.0, 0.0, 1.0221863507028426]
position_covariance_type: 2
---
header: 
  seq: 28864
  stamp: 
    secs: 1574453044
    nsecs: 543004035
  frame_id: "odom"
status: 
  status: 2
  service: 1
latitude: 37.8684314767
longitude: -122.268188537
altitude: 56.1503702058
position_covariance: [1.0163720962574736, 0.0, 0.0, 0.0, 1.014097008203791, 0.0, 0.0, 0.0, 1.0221863507028426]
position_covariance_type: 2
---
header: 
  seq: 28865
  stamp: 
    secs: 1574453044
    nsecs: 596466064
  frame_id: "odom"
status: 
  status: 2
  service: 1
latitude: 37.8684316176
longitude: -122.268187456
altitude: 56.1514740661
position_covariance: [1.0163720962574736, 0.0, 0.0, 0.0, 1.014097008203791, 0.0, 0.0, 0.0, 1.0221863507028426]
position_covariance_type: 2
---
header: 
  seq: 28866
  stamp: 
    secs: 1574453044
    nsecs: 649991035
  frame_id: "odom"
status: 
  status: 2
  service: 1
latitude: 37.8684317592
longitude: -122.268186378
altitude: 56.1523874057
position_covariance: [1.0163720962574736, 0.0, 0.0, 0.0, 1.014097008203791, 0.0, 0.0, 0.0, 1.0221863507028426]
position_covariance_type: 2
---
header: 
  seq: 28867
  stamp: 
    secs: 1574453044
    nsecs: 703344106
  frame_id: "odom"
status: 
  status: 2
  service: 1
latitude: 37.8684318988
longitude: -122.268185305
altitude: 56.153632774
position_covariance: [1.0163720962574736, 0.0, 0.0, 0.0, 1.014097008203791, 0.0, 0.0, 0.0, 1.0221863507028426]
position_covariance_type: 2
---
header: 
  seq: 28868
  stamp: 
    secs: 1574453044
    nsecs: 756863117
  frame_id: "odom"
status: 
  status: 2
  service: 1
latitude: 37.8684320379
longitude: -122.268184239
altitude: 56.155034584
position_covariance: [1.0163720962574736, 0.0, 0.0, 0.0, 1.014097008203791, 0.0, 0.0, 0.0, 1.0221863507028426]
position_covariance_type: 2
---
header: 
  seq: 28869
  stamp: 
    secs: 1574453044
    nsecs: 810225009
  frame_id: "odom"
status: 
  status: 2
  service: 1
latitude: 37.8684321784
longitude: -122.268183183
altitude: 56.1567874802
position_covariance: [1.0163720962574736, 0.0, 0.0, 0.0, 1.014097008203791, 0.0, 0.0, 0.0, 1.0221863507028426]
position_covariance_type: 2
---
header: 
  seq: 28870
  stamp: 
    secs: 1574453044
    nsecs: 841121912
  frame_id: "odom"
status: 
  status: 2
  service: 1
latitude: 37.8684323198
longitude: -122.268182133
altitude: 56.1589507163
position_covariance: [1.0163720962574736, 0.0, 0.0, 0.0, 1.014097008203791, 0.0, 0.0, 0.0, 1.0221863507028426]
position_covariance_type: 2
---
header: 
  seq: 28871
  stamp: 
    secs: 1574453044
    nsecs: 894999980
  frame_id: "odom"
status: 
  status: 2
  service: 1
latitude: 37.868432461
longitude: -122.268181087
altitude: 56.1611875053
position_covariance: [1.0163720962574736, 0.0, 0.0, 0.0, 1.014097008203791, 0.0, 0.0, 0.0, 1.0221863507028426]
position_covariance_type: 2
---
header: 
  seq: 28872
  stamp: 
    secs: 1574453044
    nsecs: 948436975
  frame_id: "odom"
status: 
  status: 2
  service: 1
latitude: 37.8684325982
longitude: -122.268180042
altitude: 56.163700087
position_covariance: [1.0163720962574736, 0.0, 0.0, 0.0, 1.014097008203791, 0.0, 0.0, 0.0, 1.0221863507028426]
position_covariance_type: 2
---
header: 
  seq: 28873
  stamp: 
    secs: 1574453045
    nsecs:   1925945
  frame_id: "odom"
status: 
  status: 2
  service: 1
latitude: 37.8684327322
longitude: -122.268178995
altitude: 56.1662020367
position_covariance: [1.0163720962574736, 0.0, 0.0, 0.0, 1.014097008203791, 0.0, 0.0, 0.0, 1.0221863507028426]
position_covariance_type: 2
---
header: 
  seq: 28874
  stamp: 
    secs: 1574453045
    nsecs:  55463075
  frame_id: "odom"
status: 
  status: 2
  service: 1
latitude: 37.8684328608
longitude: -122.268177947
altitude: 56.1684427941
position_covariance: [1.0170236554680812, 0.0, 0.0, 0.0, 1.0148468420191157, 0.0, 0.0, 0.0, 1.02201142467102]
position_covariance_type: 2
---
header: 
  seq: 28875
  stamp: 
    secs: 1574453045
    nsecs: 108740091
  frame_id: "odom"
status: 
  status: 2
  service: 1
latitude: 37.8684329852
longitude: -122.268176902
altitude: 56.1704721013
position_covariance: [1.0170236554680812, 0.0, 0.0, 0.0, 1.0148468420191157, 0.0, 0.0, 0.0, 1.02201142467102]
position_covariance_type: 2
---
header: 
  seq: 28876
  stamp: 
    secs: 1574453045
    nsecs: 148439884
  frame_id: "odom"
status: 
  status: 2
  service: 1
latitude: 37.868433106
longitude: -122.268175863
altitude: 56.172630948
position_covariance: [1.0170236554680812, 0.0, 0.0, 0.0, 1.0148468420191157, 0.0, 0.0, 0.0, 1.02201142467102]
position_covariance_type: 2
---
header: 
  seq: 28877
  stamp: 
    secs: 1574453045
    nsecs: 201821088
  frame_id: "odom"
status: 
  status: 2
  service: 1
latitude: 37.8684332258
longitude: -122.268174831
altitude: 56.174968495
position_covariance: [1.0170236554680812, 0.0, 0.0, 0.0, 1.0148468420191157, 0.0, 0.0, 0.0, 1.02201142467102]
position_covariance_type: 2
---
header: 
  seq: 28878
  stamp: 
    secs: 1574453045
    nsecs: 255467891
  frame_id: "odom"
status: 
  status: 2
  service: 1
latitude: 37.8684333478
longitude: -122.268173809
altitude: 56.1771758804
position_covariance: [1.0170236554680812, 0.0, 0.0, 0.0, 1.0148468420191157, 0.0, 0.0, 0.0, 1.02201142467102]
position_covariance_type: 2
---
header: 
  seq: 28879
  stamp: 
    secs: 1574453045
    nsecs: 308798074
  frame_id: "odom"
status: 
  status: 2
  service: 1
latitude: 37.868433474
longitude: -122.2681728
altitude: 56.1790077975
position_covariance: [1.0170236554680812, 0.0, 0.0, 0.0, 1.0148468420191157, 0.0, 0.0, 0.0, 1.02201142467102]
position_covariance_type: 2
---
header: 
  seq: 28880
  stamp: 
    secs: 1574453045
    nsecs: 339663028
  frame_id: "odom"
status: 
  status: 2
  service: 1
latitude: 37.8684336022
longitude: -122.268171807
altitude: 56.1805958161
position_covariance: [1.0170236554680812, 0.0, 0.0, 0.0, 1.0148468420191157, 0.0, 0.0, 0.0, 1.02201142467102]
position_covariance_type: 2
---
header: 
  seq: 28881
  stamp: 
    secs: 1574453045
    nsecs: 437583923
  frame_id: "odom"
status: 
  status: 2
  service: 1
latitude: 37.8684338711
longitude: -122.268169846
altitude: 56.1829084456
position_covariance: [1.0170236554680812, 0.0, 0.0, 0.0, 1.0148468420191157, 0.0, 0.0, 0.0, 1.02201142467102]
position_covariance_type: 2
---
header: 
  seq: 28882
  stamp: 
    secs: 1574453045
    nsecs: 490808010
  frame_id: "odom"
status: 
  status: 2
  service: 1
latitude: 37.8684340011
longitude: -122.26816887
altitude: 56.1839214629
position_covariance: [1.0170236554680812, 0.0, 0.0, 0.0, 1.0148468420191157, 0.0, 0.0, 0.0, 1.02201142467102]
position_covariance_type: 2
---
header: 
  seq: 28883
  stamp: 
    secs: 1574453045
    nsecs: 544811010
  frame_id: "odom"
status: 
  status: 2
  service: 1
latitude: 37.8684341258
longitude: -122.268167894
altitude: 56.1845496586
position_covariance: [1.0170236554680812, 0.0, 0.0, 0.0, 1.0148468420191157, 0.0, 0.0, 0.0, 1.02201142467102]
position_covariance_type: 2
---
header: 
  seq: 28884
  stamp: 
    secs: 1574453045
    nsecs: 642736911
  frame_id: "odom"
status: 
  status: 2
  service: 1
latitude: 37.8684343714
longitude: -122.26816596
altitude: 56.1851192564
position_covariance: [1.0170236554680812, 0.0, 0.0, 0.0, 1.0148468420191157, 0.0, 0.0, 0.0, 1.02201142467102]
position_covariance_type: 2
---
header: 
  seq: 28885
  stamp: 
    secs: 1574453045
    nsecs: 696167945
  frame_id: "odom"
status: 
  status: 2
  service: 1
latitude: 37.8684344891
longitude: -122.268165004
altitude: 56.1859131716
position_covariance: [1.0170236554680812, 0.0, 0.0, 0.0, 1.0148468420191157, 0.0, 0.0, 0.0, 1.02201142467102]
position_covariance_type: 2
---
header: 
  seq: 28886
  stamp: 
    secs: 1574453045
    nsecs: 749602079
  frame_id: "odom"
status: 
  status: 2
  service: 1
latitude: 37.8684346072
longitude: -122.26816406
altitude: 56.1867657546
position_covariance: [1.0170236554680812, 0.0, 0.0, 0.0, 1.0148468420191157, 0.0, 0.0, 0.0, 1.02201142467102]
position_covariance_type: 2
---
header: 
  seq: 28887
  stamp: 
    secs: 1574453045
    nsecs: 803023099
  frame_id: "odom"
status: 
  status: 2
  service: 1
latitude: 37.8684347266
longitude: -122.268163133
altitude: 56.1874183053
position_covariance: [1.0170236554680812, 0.0, 0.0, 0.0, 1.0148468420191157, 0.0, 0.0, 0.0, 1.02201142467102]
position_covariance_type: 2
---
header: 
  seq: 28888
  stamp: 
    secs: 1574453045
    nsecs: 856642007
  frame_id: "odom"
status: 
  status: 2
  service: 1
latitude: 37.8684348438
longitude: -122.268162225
altitude: 56.18795864
position_covariance: [1.0170236554680812, 0.0, 0.0, 0.0, 1.0148468420191157, 0.0, 0.0, 0.0, 1.02201142467102]
position_covariance_type: 2
---
header: 
  seq: 28889
  stamp: 
    secs: 1574453045
    nsecs: 910006999
  frame_id: "odom"
status: 
  status: 2
  service: 1
latitude: 37.8684349573
longitude: -122.268161335
altitude: 56.1886434145
position_covariance: [1.0170236554680812, 0.0, 0.0, 0.0, 1.0148468420191157, 0.0, 0.0, 0.0, 1.02201142467102]
position_covariance_type: 2
---
header: 
  seq: 28890
  stamp: 
    secs: 1574453045
    nsecs: 940844058
  frame_id: "odom"
status: 
  status: 2
  service: 1
latitude: 37.8684350687
longitude: -122.26816046
altitude: 56.1894947672
position_covariance: [1.0170236554680812, 0.0, 0.0, 0.0, 1.0148468420191157, 0.0, 0.0, 0.0, 1.02201142467102]
position_covariance_type: 2
---
header: 
  seq: 28891
  stamp: 
    secs: 1574453045
    nsecs: 986942052
  frame_id: "odom"
status: 
  status: 2
  service: 1
latitude: 37.8684351796
longitude: -122.268159596
altitude: 56.190530424
position_covariance: [1.0170236554680812, 0.0, 0.0, 0.0, 1.0148468420191157, 0.0, 0.0, 0.0, 1.02201142467102]
position_covariance_type: 2
---
header: 
  seq: 28892
  stamp: 
    secs: 1574453046
    nsecs:  40383100
  frame_id: "odom"
status: 
  status: 2
  service: 1
latitude: 37.8684352875
longitude: -122.268158741
altitude: 56.1916024471
position_covariance: [1.0183363443743105, 0.0, 0.0, 0.0, 1.016172063300651, 0.0, 0.0, 0.0, 1.0221578633703006]
position_covariance_type: 2
---
header: 
  seq: 28893
  stamp: 
    secs: 1574453046
    nsecs:  94584941
  frame_id: "odom"
status: 
  status: 2
  service: 1
latitude: 37.8684353964
longitude: -122.268157899
altitude: 56.1925925575
position_covariance: [1.0183363443743105, 0.0, 0.0, 0.0, 1.016172063300651, 0.0, 0.0, 0.0, 1.0221578633703006]
position_covariance_type: 2
---
header: 
  seq: 28894
  stamp: 
    secs: 1574453046
    nsecs: 148098945
  frame_id: "odom"
status: 
  status: 2
  service: 1
latitude: 37.8684355057
longitude: -122.26815707
altitude: 56.1932729781
position_covariance: [1.0183363443743105, 0.0, 0.0, 0.0, 1.016172063300651, 0.0, 0.0, 0.0, 1.0221578633703006]
position_covariance_type: 2
---
header: 
  seq: 28895
  stamp: 
    secs: 1574453046
    nsecs: 201464891
  frame_id: "odom"
status: 
  status: 2
  service: 1
latitude: 37.8684356128
longitude: -122.268156252
altitude: 56.1938249562
position_covariance: [1.0183363443743105, 0.0, 0.0, 0.0, 1.016172063300651, 0.0, 0.0, 0.0, 1.0221578633703006]
position_covariance_type: 2
---
header: 
  seq: 28896
  stamp: 
    secs: 1574453046
    nsecs: 254993915
  frame_id: "odom"
status: 
  status: 2
  service: 1
latitude: 37.8684357171
longitude: -122.268155443
altitude: 56.1946014259
position_covariance: [1.0183363443743105, 0.0, 0.0, 0.0, 1.016172063300651, 0.0, 0.0, 0.0, 1.0221578633703006]
position_covariance_type: 2
---
header: 
  seq: 28897
  stamp: 
    secs: 1574453046
    nsecs: 308398008
  frame_id: "odom"
status: 
  status: 2
  service: 1
latitude: 37.8684358206
longitude: -122.268154643
altitude: 56.1954652267
position_covariance: [1.0183363443743105, 0.0, 0.0, 0.0, 1.016172063300651, 0.0, 0.0, 0.0, 1.0221578633703006]
position_covariance_type: 2
---
header: 
  seq: 28898
  stamp: 
    secs: 1574453046
    nsecs: 362026929
  frame_id: "odom"
status: 
  status: 2
  service: 1
latitude: 37.8684359233
longitude: -122.268153852
altitude: 56.1967268419
position_covariance: [1.0183363443743105, 0.0, 0.0, 0.0, 1.016172063300651, 0.0, 0.0, 0.0, 1.0221578633703006]
position_covariance_type: 2
---
header: 
  seq: 28899
  stamp: 
    secs: 1574453046
    nsecs: 392692089
  frame_id: "odom"
status: 
  status: 2
  service: 1
latitude: 37.868436023
longitude: -122.268153072
altitude: 56.1983083356
position_covariance: [1.0183363443743105, 0.0, 0.0, 0.0, 1.016172063300651, 0.0, 0.0, 0.0, 1.0221578633703006]
position_covariance_type: 2
---
header: 
  seq: 28900
  stamp: 
    secs: 1574453046
    nsecs: 438245058
  frame_id: "odom"
status: 
  status: 2
  service: 1
latitude: 37.868436119
longitude: -122.268152303
altitude: 56.2001546407
position_covariance: [1.0183363443743105, 0.0, 0.0, 0.0, 1.016172063300651, 0.0, 0.0, 0.0, 1.0221578633703006]
position_covariance_type: 2
---
header: 
  seq: 28901
  stamp: 
    secs: 1574453046
    nsecs: 491491079
  frame_id: "odom"
status: 
  status: 2
  service: 1
latitude: 37.8684362122
longitude: -122.268151546
altitude: 56.2017890392
position_covariance: [1.0183363443743105, 0.0, 0.0, 0.0, 1.016172063300651, 0.0, 0.0, 0.0, 1.0221578633703006]
position_covariance_type: 2
---
header: 
  seq: 28902
  stamp: 
    secs: 1574453046
    nsecs: 545025110
  frame_id: "odom"
status: 
  status: 2
  service: 1
latitude: 37.868436304
longitude: -122.268150803
altitude: 56.2031796928
position_covariance: [1.0183363443743105, 0.0, 0.0, 0.0, 1.016172063300651, 0.0, 0.0, 0.0, 1.0221578633703006]
position_covariance_type: 2
---
header: 
  seq: 28903
  stamp: 
    secs: 1574453046
    nsecs: 598402976
  frame_id: "odom"
status: 
  status: 2
  service: 1
latitude: 37.8684363937
longitude: -122.268150073
altitude: 56.2041990617
position_covariance: [1.0183363443743105, 0.0, 0.0, 0.0, 1.016172063300651, 0.0, 0.0, 0.0, 1.0221578633703006]
position_covariance_type: 2
---
header: 
  seq: 28904
  stamp: 
    secs: 1574453046
    nsecs: 651899099
  frame_id: "odom"
status: 
  status: 2
  service: 1
latitude: 37.8684364814
longitude: -122.268149356
altitude: 56.2051885976
position_covariance: [1.0183363443743105, 0.0, 0.0, 0.0, 1.016172063300651, 0.0, 0.0, 0.0, 1.0221578633703006]
position_covariance_type: 2
---
header: 
  seq: 28905
  stamp: 
    secs: 1574453046
    nsecs: 705261945
  frame_id: "odom"
status: 
  status: 2
  service: 1
latitude: 37.8684365679
longitude: -122.268148651
altitude: 56.2062478289
position_covariance: [1.0183363443743105, 0.0, 0.0, 0.0, 1.016172063300651, 0.0, 0.0, 0.0, 1.0221578633703006]
position_covariance_type: 2
---
header: 
  seq: 28906
  stamp: 
    secs: 1574453046
    nsecs: 758744001
  frame_id: "odom"
status: 
  status: 2
  service: 1
latitude: 37.8684366539
longitude: -122.26814795
altitude: 56.207184176
position_covariance: [1.0183363443743105, 0.0, 0.0, 0.0, 1.016172063300651, 0.0, 0.0, 0.0, 1.0221578633703006]
position_covariance_type: 2
---
header: 
  seq: 28907
  stamp: 
    secs: 1574453046
    nsecs: 789585113
  frame_id: "odom"
status: 
  status: 2
  service: 1
latitude: 37.8684367385
longitude: -122.268147253
altitude: 56.2083940497
position_covariance: [1.0183363443743105, 0.0, 0.0, 0.0, 1.016172063300651, 0.0, 0.0, 0.0, 1.0221578633703006]
position_covariance_type: 2
---
header: 
  seq: 28908
  stamp: 
    secs: 1574453046
    nsecs: 835030078
  frame_id: "odom"
status: 
  status: 2
  service: 1
latitude: 37.8684368221
longitude: -122.268146556
altitude: 56.2097301865
position_covariance: [1.0183363443743105, 0.0, 0.0, 0.0, 1.016172063300651, 0.0, 0.0, 0.0, 1.0221578633703006]
position_covariance_type: 2
---
header: 
  seq: 28909
  stamp: 
    secs: 1574453046
    nsecs: 888465881
  frame_id: "odom"
status: 
  status: 2
  service: 1
latitude: 37.8684369067
longitude: -122.268145856
altitude: 56.2110322667
position_covariance: [1.0183363443743105, 0.0, 0.0, 0.0, 1.016172063300651, 0.0, 0.0, 0.0, 1.0221578633703006]
position_covariance_type: 2
---
header: 
  seq: 28910
  stamp: 
    secs: 1574453046
    nsecs: 933969974
  frame_id: "odom"
status: 
  status: 2
  service: 1
latitude: 37.8684369918
longitude: -122.268145154
altitude: 56.2123996411
position_covariance: [1.0183363443743105, 0.0, 0.0, 0.0, 1.016172063300651, 0.0, 0.0, 0.0, 1.0221578633703006]
position_covariance_type: 2
---
header: 
  seq: 28911
  stamp: 
    secs: 1574453046
    nsecs: 987296104
  frame_id: "odom"
status: 
  status: 2
  service: 1
latitude: 37.8684370799
longitude: -122.268144451
altitude: 56.2136142114
position_covariance: [1.0183363443743105, 0.0, 0.0, 0.0, 1.016172063300651, 0.0, 0.0, 0.0, 1.0221578633703006]
position_covariance_type: 2
---
header: 
  seq: 28912
  stamp: 
    secs: 1574453047
    nsecs:  40755033
  frame_id: "odom"
status: 
  status: 2
  service: 1
latitude: 37.8684371676
longitude: -122.268143743
altitude: 56.2145640608
position_covariance: [1.0201003958157844, 0.0, 0.0, 0.0, 1.0178659973404116, 0.0, 0.0, 0.0, 1.0226036241698195]
position_covariance_type: 2
---
header: 
  seq: 28913
  stamp: 
    secs: 1574453047
    nsecs:  95098972
  frame_id: "odom"
status: 
  status: 2
  service: 1
latitude: 37.8684372594
longitude: -122.268143033
altitude: 56.2153373491
position_covariance: [1.0201003958157844, 0.0, 0.0, 0.0, 1.0178659973404116, 0.0, 0.0, 0.0, 1.0226036241698195]
position_covariance_type: 2
---
header: 
  seq: 28914
  stamp: 
    secs: 1574453047
    nsecs: 148519039
  frame_id: "odom"
status: 
  status: 2
  service: 1
latitude: 37.8684373543
longitude: -122.268142314
altitude: 56.2159494674
position_covariance: [1.0201003958157844, 0.0, 0.0, 0.0, 1.0178659973404116, 0.0, 0.0, 0.0, 1.0226036241698195]
position_covariance_type: 2
---
header: 
  seq: 28915
  stamp: 
    secs: 1574453047
    nsecs: 201981067
  frame_id: "odom"
status: 
  status: 2
  service: 1
latitude: 37.8684374498
longitude: -122.26814158
altitude: 56.2168146949
position_covariance: [1.0201003958157844, 0.0, 0.0, 0.0, 1.0178659973404116, 0.0, 0.0, 0.0, 1.0226036241698195]
position_covariance_type: 2
---
header: 
  seq: 28916
  stamp: 
    secs: 1574453047
    nsecs: 255450010
  frame_id: "odom"
status: 
  status: 2
  service: 1
latitude: 37.8684375465
longitude: -122.26814083
altitude: 56.2177511714
position_covariance: [1.0201003958157844, 0.0, 0.0, 0.0, 1.0178659973404116, 0.0, 0.0, 0.0, 1.0226036241698195]
position_covariance_type: 2
---
header: 
  seq: 28917
  stamp: 
    secs: 1574453047
    nsecs: 308809995
  frame_id: "odom"
status: 
  status: 2
  service: 1
latitude: 37.8684376442
longitude: -122.268140056
altitude: 56.2185610626
position_covariance: [1.0201003958157844, 0.0, 0.0, 0.0, 1.0178659973404116, 0.0, 0.0, 0.0, 1.0226036241698195]
position_covariance_type: 2
---
header: 
  seq: 28918
  stamp: 
    secs: 1574453047
    nsecs: 339785099
  frame_id: "odom"
status: 
  status: 2
  service: 1
latitude: 37.8684377416
longitude: -122.268139255
altitude: 56.2192609878
position_covariance: [1.0201003958157844, 0.0, 0.0, 0.0, 1.0178659973404116, 0.0, 0.0, 0.0, 1.0226036241698195]
position_covariance_type: 2
---
header: 
  seq: 28919
  stamp: 
    secs: 1574453047
    nsecs: 393153905
  frame_id: "odom"
status: 
  status: 2
  service: 1
latitude: 37.8684378351
longitude: -122.268138426
altitude: 56.2201467911
position_covariance: [1.0201003958157844, 0.0, 0.0, 0.0, 1.0178659973404116, 0.0, 0.0, 0.0, 1.0226036241698195]
position_covariance_type: 2
---
header: 
  seq: 28920
  stamp: 
    secs: 1574453047
    nsecs: 446611881
  frame_id: "odom"
status: 
  status: 2
  service: 1
latitude: 37.8684379283
longitude: -122.268137567
